time,pos_x,pos_y,pos_z,vel_x,vel_y,vel_z,pos_xo,pos_yo,pos_zo,vel_xo,vel_yo,vel_zo,roll,pitch,yaw,roll_vel,pitch_vel,yaw_vel,thrust_z,force_x,force_y,force_z,torque_x,torque_y,torque_z,pos_xd,pos_yd,pos_zd,vel_xd,vel_yd,vel_zd,roll_d,pitch_d,yaw_d,roll_vel_d,pitch_vel_d,yaw_vel_d
0.05000092800001994,-0.02404267154633999,-0.039725519716739655,0.18529701232910156,0.0,0.0,0.0,-0.02404267154633999,-0.039725519716739655,-0.21470298767106377,0.0,0.0,-3.5635174310118593e-07,0.0826085469242579,-0.0020085963616955915,-0.0041788700989076055,-0.0004118911747355014,-0.0029240613803267483,-0.002260462380945682,0.0,0.0,0.0,13.442879247384981,0.0,0.0,0.0,0.0,0.0,0.40000000000016533,0.0,0.0,3.5635174310118593e-07,0.0,0.0,0.0,0.0,0.0,0.0
0.10000092800001995,-0.023951170966029167,-0.039784133434295654,0.1853105127811432,-0.004462731686928604,0.0004932603388312611,-3.6751942107564915e-05,-0.023951170966029167,-0.039784133434295654,-0.21515689430692198,-0.004462731686928604,0.0004932603388312611,-0.018484237857658826,0.0798328701316171,-0.002578425851448518,-0.0053259296696346325,-0.0004118911747355014,-0.0029240613803267483,-0.002260462380945682,0.0,0.12622402561828494,0.2085589785128832,18.824778634430526,0.0,0.0,0.0,0.0,0.0,0.40046740708806516,0.0,0.0,0.018447485915551263,0.0,0.0,0.0,0.0,0.0,0.0
0.15000092800001996,-0.024033408612012863,-0.03974007070064545,0.18534347414970398,-0.004462731686928604,0.0004932603388312611,-3.6751942107564915e-05,-0.024033408612012863,-0.03974007070064545,-0.21647716628733282,-0.004462731686928604,0.0004932603388312611,-0.035484722281134216,0.08373149834336235,-0.0015283780034485162,-0.004858817285323891,0.0007185378926806152,-0.003998433239758015,-0.002205302473157644,0.0,0.16589421286324196,0.21502463886717793,19.06820452662963,0.0,0.0,0.0,0.0,0.0,0.4018206404370368,0.0,0.0,0.03544797033902665,0.0,0.0,0.0,0.0,0.0,0.0
0.20000092800001995,-0.024072352796792984,-0.03962717950344086,0.18571314215660095,-0.0035445403920190527,0.00684425081625118,0.027625072172995372,-0.024072352796792984,-0.03962717950344086,-0.21827637177797998,-0.0035445403920190527,0.00684425081625118,-0.023461823110865223,0.08508863294651281,-3.205592446864358e-05,-0.002103005615719855,-0.10588916391134262,0.009841216728091245,0.042430274188518524,0.0,0.17253688983051008,0.2247146798571467,19.31944879932389,0.0,0.0,0.0,0.0,0.0,0.40398951393458093,0.0,0.0,0.051086895283860595,0.0,0.0,0.0,0.0,0.0,0.0
0.25000092800001994,-0.02287888526916504,-0.03800944983959198,0.19436945021152496,0.0358676669204775,0.02450341104430238,0.17499085978705892,-0.02287888526916504,-0.03800944983959198,-0.21253853340074025,0.0358676669204775,0.02450341104430238,0.10954596171761527,0.07812484179974621,-0.001338775066958231,0.0003227472967157752,-0.06748106330633163,0.23986613750457764,0.07284992933273313,0.0,0.1719486721318973,0.18544727857778007,19.247915865248125,0.0,0.0,0.0,0.0,0.0,0.4069079836122652,0.0,0.0,0.06544489806944365,0.0,0.0,0.0,0.0,0.0,0.0
0.30000092800001993,-0.020061349496245384,-0.03604143112897873,0.21361775696277618,0.15144927491956162,0.023337008898991256,0.5790836888005017,-0.020061349496245384,-0.03604143112897873,-0.19689617376027213,0.15144927491956162,0.023337008898991256,0.5004853031001323,0.07944183335184851,0.017692591261632806,0.004330010487953118,0.09966342896223068,0.23171305656433105,0.08370833098888394,0.0,-0.12962510310994885,0.0514262044330294,17.578410467075358,0.0,0.0,0.0,0.0,0.0,0.4105139307230483,0.0,0.0,0.0785983857003694,0.0,0.0,0.0,0.0,0.0,0.0
0.3500009280000199,-0.015271133743226528,-0.03353160247206688,0.25530651211738586,0.11195296471804847,0.030216112821106103,0.7849587457146847,-0.015271133743226528,-0.03353160247206688,-0.1594424433441226,0.11195296471804847,0.030216112821106103,0.6943390030795236,0.06647340214893838,0.02736006317507389,0.008767569630149907,0.020003343001008034,0.0019076564349234226,0.09921461343765259,0.0,-1.0246901291395032,0.058294274521622794,12.647688039566187,0.0,0.0,0.0,0.0,0.0,0.4147489554615085,0.0,0.0,0.09061974263516119,0.0,0.0,0.0,0.0,0.0,0.0
0.4000009280000199,-0.011544318869709969,-0.0294119231402874,0.2973605990409851,0.14108555831521233,0.05189179905427802,0.850520146533116,-0.011544318869709969,-0.0294119231402874,-0.1221975817848765,0.14108555831521233,0.05189179905427802,0.7489426177675998,0.06313751859350214,0.014549558612205526,0.01368555969655283,-0.0594649575650692,-0.27820611000061035,0.08780965954065326,0.0,-0.7502491151731935,0.00033603640595215173,9.44057984218845,0.0,0.0,0.0,0.0,0.0,0.4195581808258616,0.0,0.0,0.10157752876551616,0.0,0.0,0.0,0.0,0.0,0.0
0.4500009280000199,-0.00806686095893383,-0.025201430544257164,0.334663063287735,0.1489892795365469,0.05099277022311326,0.750707313323658,-0.00806686095893383,-0.025201430544257164,-0.09022700285585028,0.1489892795365469,0.05099277022311326,0.6391706452693268,0.09763571379017844,-0.005279035880977556,0.02850561845449917,-0.00013202690752223134,-0.440130352973938,0.034431409090757426,0.0,-0.9944590990775547,-0.1802391847926939,7.843620558489063,0.0,0.0,0.0,0.0,0.0,0.42489006614358527,0.0,0.0,0.11153666805433128,0.0,0.0,0.0,0.0,0.0,0.0
0.5000009280000199,-0.004259204957634211,-0.020566726103425026,0.36121630668640137,0.14191524626525248,0.06300272193512359,0.4474678402663668,-0.004259204957634211,-0.020566726103425026,-0.06947992311797291,0.14191524626525248,0.06300272193512359,0.3269092120056939,0.07166414571427548,-0.028937344495623574,0.015562599234350216,0.042484596371650696,-0.5402547717094421,0.022469470277428693,0.0,-1.0773474186506717,-0.19070830953108425,8.284349757677441,0.0,0.0,0.0,0.0,0.0,0.4306962298043743,0.0,0.0,0.1205586282606729,0.0,0.0,0.0,0.0,0.0,0.0
0.55000092800002,-0.0025717634707689285,-0.017956720665097237,0.3731192648410797,0.1390431179207016,0.05446341302269583,0.32081446688349013,-0.0025717634707689285,-0.017956720665097237,-0.06381201592399688,0.1390431179207016,0.05446341302269583,0.19211287472285274,0.07392285456763403,-0.05372279763208754,0.013382384900033628,0.10049878060817719,-0.46929919719696045,0.020770953968167364,0.0,-1.0486540068691865,-0.3031659193174233,11.366464599459531,0.0,0.0,0.0,0.0,0.0,0.4369312807650766,0.0,0.0,0.1287015921606374,0.0,0.0,0.0,0.0,0.0,0.0
0.60000092800002,-0.0006610005511902273,-0.015313450247049332,0.3807259500026703,0.14867233089834767,0.067912770579337,0.15079787884784746,-0.0006610005511902273,-0.015313450247049332,-0.06282670840857463,0.14867233089834767,0.067912770579337,0.01477725819316475,0.09472267620076069,-0.06208169408532438,0.024793905001917693,0.10351159423589706,-0.1289147585630417,0.0338222309947014,0.0,-1.041572253913269,-0.24955118925947184,12.773700264321038,0.0,0.0,0.0,0.0,0.0,0.4435526584112449,0.0,0.0,0.1360206206546827,0.0,0.0,0.0,0.0,0.0,0.0
0.6500009280000201,0.005741073749959469,-0.008230457082390785,0.38714444637298584,0.13544891522307265,0.0794961990125022,0.10074779936672314,0.005741073749959469,-0.008230457082390785,-0.06337603400603664,0.13544891522307265,0.0794961990125022,-0.04182000876773341,0.07546240797111192,-0.07680601867879933,0.01747871353667385,0.06589750200510025,0.013932675123214727,0.042328108102083206,0.0,-1.1315764535483925,-0.36454993474738884,14.801414466416686,0.0,0.0,0.0,0.0,0.0,0.4505204803790225,0.0,0.0,0.14256780813445655,0.0,0.0,0.0,0.0,0.0,0.0
0.7000009280000201,0.008721924386918545,-0.0043980712071061134,0.3905421197414398,0.1309005035709149,0.08563301500084616,0.1399736733956092,0.008721924386918545,-0.0043980712071061134,-0.06725527821787425,0.1309005035709149,0.08563301500084616,-0.008418757069758559,0.07663248443134218,-0.07161538897648079,0.020991828998505824,0.11476673185825348,0.1305767297744751,0.05252255871891974,0.0,-1.0712965801206944,-0.48991615234276437,15.471161769704837,0.0,0.0,0.0,0.0,0.0,0.45779739795931407,0.0,0.0,0.14839243046536776,0.0,0.0,0.0,0.0,0.0,0.0
0.7500009280000202,0.01116255298256874,0.0008458599331788719,0.39643120765686035,0.10336773814103678,0.09299080736869052,0.1911147346674574,0.01116255298256874,0.0008458599331788719,-0.06891725106673818,0.10336773814103678,0.09299080736869052,0.03757364874234617,0.09173578243140224,-0.06508378780136592,0.020585324483818113,0.07742881774902344,0.14492954313755035,0.04092802479863165,0.0,-1.0603584110243662,-0.5589000161788679,15.18067001624758,0.0,0.0,0.0,0.0,0.0,0.46534845872359853,0.0,0.0,0.15354108592511123,0.0,0.0,0.0,0.0,0.0,0.0
0.8000009280000202,0.012765588238835335,0.006463909987360239,0.40695059299468994,0.07441225530071618,0.07963902521350573,0.2775812129288556,0.012765588238835335,0.006463909987360239,-0.06619038303267732,0.07441225530071618,0.07963902521350573,0.11952338350582628,0.0978942176781552,-0.0595482148862585,0.02294379464531371,0.17336176335811615,0.1365269422531128,0.012544484809041006,0.0,-0.8712715618882374,-0.6458998992276389,14.687935579492505,0.0,0.0,0.0,0.0,0.0,0.47314097602736727,0.0,0.0,0.15805782942302934,0.0,0.0,0.0,0.0,0.0,0.0
0.8500009280000203,0.013593005947768688,0.010921787470579147,0.41845712065696716,0.08357175136846402,0.07971528624850696,0.3018468181681905,0.013593005947768688,0.010921787470579147,-0.06268728440607574,0.08357175136846402,0.07971528624850696,0.13986251785764378,0.1030447553884799,-0.05138228799410083,0.025582870007509584,0.08745478093624115,0.18603849411010742,0.014448980800807453,0.0,-0.6661370784078785,-0.5781145338766568,13.664664378603716,0.0,0.0,0.0,0.0,0.0,0.4811444050630429,0.0,0.0,0.1619843003105467,0.0,0.0,0.0,0.0,0.0,0.0
0.9000009280000203,0.013895448297262192,0.0157614815980196,0.4298304617404938,0.06166831228752251,0.08926437910960824,0.28140223000273945,0.013895448297262192,0.0157614815980196,-0.05949976340890384,0.06166831228752251,0.08926437910960824,0.1160423859238251,0.11427299757137055,-0.04084557419976864,0.026267412079059582,0.09815091639757156,0.2044353187084198,-0.002719169715419437,0.0,-0.7474631761227943,-0.6076997163388309,13.335787120418484,0.0,0.0,0.0,0.0,0.0,0.4893302251493976,0.0,0.0,0.16535984407891435,0.0,0.0,0.0,0.0,0.0,0.0
0.9500009280000203,0.01365996990352869,0.020209118723869324,0.439985066652298,0.05728585317964065,0.08475043505115976,0.27074459451755906,0.01365996990352869,0.020209118723869324,-0.05768676130666317,0.05728585317964065,0.08475043505115976,0.102522966290435,0.11249055850483192,-0.03051434828934063,0.02791558804277905,0.032524265348911285,0.15878640115261078,0.0005871142493560716,0.0,-0.5890665285437979,-0.7128748820753883,13.528394373302978,0.0,0.0,0.0,0.0,0.0,0.49767182795896114,0.0,0.0,0.16822162822712405,0.0,0.0,0.0,0.0,0.0,0.0
1.0000009280000204,0.013502423651516438,0.024313079193234444,0.44916385412216187,0.039257007241014996,0.07927970817345922,0.2350163381969752,0.013502423651516438,0.024313079193234444,-0.056980557276569366,0.039257007241014996,0.07927970817345922,0.06441158562690816,0.11824217215156141,-0.0181239601180887,0.028003452561055298,0.060263339430093765,0.18454572558403015,0.01359868887811897,0.0,-0.5608617324900924,-0.7100968942939536,13.636999333404221,0.0,0.0,0.0,0.0,0.0,0.5061444113987312,0.0,0.0,0.17060475257006705,0.0,0.0,0.0,0.0,0.0,0.0
1.0500009280000204,0.012955021113157272,0.027958499267697334,0.45781683921813965,0.041880801322927,0.07836935015628319,0.23203967215307972,0.012955021113157272,0.027958499267697334,-0.05690803965455449,0.041880801322927,0.07836935015628319,0.05949731790828222,0.09936636759467721,-0.011028564920747996,0.02434070652322795,0.030587511137127876,0.15118086338043213,-0.01438290998339655,0.0,-0.4283932283714062,-0.6990814275772367,14.061119814727547,0.0,0.0,0.0,0.0,0.0,0.5147248788726941,0.0,0.0,0.1725423542447975,0.0,0.0,0.0,0.0,0.0,0.0
1.1000009280000205,0.012969973497092724,0.031968358904123306,0.46564990282058716,0.03322159433718524,0.07391871121129623,0.22608799021293632,0.012969973497092724,0.031968358904123306,-0.05774184084667766,0.03322159433718524,0.07391871121129623,0.052022282551851706,0.12534759825690278,-0.006539264641037157,0.028878010697424905,0.03286211937665939,0.12194181978702545,-0.00615345779806377,0.0,-0.4509298460465772,-0.7212978993437518,14.117025433937808,0.0,0.0,0.0,0.0,0.0,0.5233917436672648,0.0,0.0,0.17406570766108462,0.0,0.0,0.0,0.0,0.0,0.0
1.1500009280000205,0.01298618782311678,0.03556259721517563,0.47426849603652954,0.03536429600174362,0.07460604801656605,0.22705834812070255,0.01298618782311678,0.03556259721517563,-0.05785654217625069,0.03536429600174362,0.07460604801656605,0.0518540284894172,0.11804711311661631,-0.002610119726392135,0.026106177887641024,0.017367225140333176,0.08727114647626877,-0.009932839311659346,0.0,-0.39009820796574957,-0.7192103668305765,14.226632584246445,0.0,0.0,0.0,0.0,0.0,0.5321250382127802,0.0,0.0,0.17520431963128535,0.0,0.0,0.0,0.0,0.0,0.0
1.2000009280000206,0.013723417185246944,0.03847847878932953,0.4833257496356964,0.03922775434590501,0.06821338158582622,0.23301419543468657,0.013723417185246944,0.03847847878932953,-0.057580478349968156,0.03922775434590501,0.06821338158582622,0.057028175530777186,0.11789323924793393,0.008536193437323814,0.0300031856980727,-0.01445800717920065,0.06236168369650841,0.0026609164196997803,0.0,-0.4114785740023799,-0.7550262698105109,14.234253998633685,0.0,0.0,0.0,0.0,0.0,0.5409062279856646,0.0,0.0,0.17598601990390939,0.0,0.0,0.0,0.0,0.0,0.0
1.2500009280000206,0.014794290997087955,0.04128881171345711,0.492563933134079,0.05005767690429548,0.05665235320878819,0.23677946148192963,0.014794290997087955,0.04128881171345711,-0.05715419669277033,0.05005767690429548,0.05665235320878819,0.06034241416686473,0.12270162302362175,0.005219991167238369,0.028125933792876978,-0.009405400604009628,0.03552492335438728,-0.014147774316370492,0.0,-0.4499192462422642,-0.7340517015842813,14.170479143540009,0.0,0.0,0.0,0.0,0.0,0.5497181298268493,0.0,0.0,0.1764370473150649,0.0,0.0,0.0,0.0,0.0,0.0
1.3000009280000207,0.016438832506537437,0.04332923889160156,0.5021669864654541,0.0657430338636837,0.04872657778794646,0.24799209782239193,0.016438832506537437,0.04332923889160156,-0.056377847997037045,0.0657430338636837,0.04872657778794646,0.07140996606014827,0.12221310221815385,0.003044846698377235,0.023785813909578124,0.030285732820630074,-0.008413302712142464,0.02168389968574047,0.0,-0.5437824833397236,-0.673394371128234,14.124885143967663,0.0,0.0,0.0,0.0,0.0,0.5585448344624911,0.0,0.0,0.17658213176224366,0.0,0.0,0.0,0.0,0.0,0.0
1.3500009280000207,0.018553992733359337,0.04512966424226761,0.5121057629585266,0.06424555886845776,0.04907388858748111,0.24495443391399108,0.018553992733359337,0.04512966424226761,-0.05526587006449546,0.06424555886845776,0.04907388858748111,0.06850986171838433,0.11420443964027838,0.0012170064717000884,0.024698401929335034,-0.013766289688646793,-0.04712441936135292,0.013574932701885705,0.0,-0.6786107635981401,-0.6366292524328566,13.980450434689297,0.0,0.0,0.0,0.0,0.0,0.5673716330230221,0.0,0.0,0.17644457219560675,0.0,0.0,0.0,0.0,0.0,0.0
1.4000009280000207,0.021250547841191292,0.046632833778858185,0.5219258069992065,0.0793199866470848,0.039775406234644796,0.23993169595385427,0.021250547841191292,0.046632833778858185,-0.05425914036689394,0.0793199866470848,0.039775406234644796,0.06388538514080294,0.11817541418307176,0.0005740618657048557,0.025817943808597477,-0.02837381325662136,-0.07212302833795547,-0.02682937867939471,0.0,-0.6856565308952951,-0.6620070517525912,13.990078811253348,0.0,0.0,0.0,0.0,0.0,0.5761849473661005,0.0,0.0,0.17604631081305133,0.0,0.0,0.0,0.0,0.0,0.0
1.4500009280000208,0.024419670924544334,0.04771093279123306,0.5317473411560059,0.08398647173225536,0.03447842022123303,0.23816880530764895,0.024419670924544334,0.04771093279123306,-0.05322492286212532,0.08398647173225536,0.03447842022123303,0.06276080167079609,0.11081649605438582,-0.005454060147667139,0.021799359671801355,-0.019360894337296486,-0.08969498425722122,-0.00856353621929883,0.0,-0.8229835938446725,-0.612501412310435,14.022849592596431,0.0,0.0,0.0,0.0,0.0,0.5849722640181312,0.0,0.0,0.17540800363685286,0.0,0.0,0.0,0.0,0.0,0.0
1.5000009280000208,0.027996649965643883,0.048320379108190536,0.5417468547821045,0.09488778385575301,0.014564839848935265,0.2493477998708219,0.027996649965643883,0.048320379108190536,-0.05197521677560435,0.09488778385575301,0.014564839848935265,0.07479871222925091,0.11237675800302505,-0.0111309911647961,0.024240640611153275,-0.05285681411623955,-0.10471396148204803,0.0073387473821640145,0.0,-0.8845987372264829,-0.5912864678792499,14.014629707033887,0.0,0.0,0.0,0.0,0.0,0.5937220715577088,0.0,0.0,0.17454908764157098,0.0,0.0,0.0,0.0,0.0,0.0
1.5500009280000209,0.031791094690561295,0.04880644753575325,0.5517764687538147,0.09471223500078364,0.02093258775421378,0.2447997736675299,0.031791094690561295,0.04880644753575325,-0.05064733251881193,0.09471223500078364,0.02093258775421378,0.07131192907236578,0.11075862998738417,-0.0150865512073306,0.026311497562531372,-0.11380673199892044,-0.1342659443616867,-0.010039068758487686,0.0,-0.9970771562547613,-0.4557988254040685,13.847891285026074,0.0,0.0,0.0,0.0,0.0,0.6024238012726266,0.0,0.0,0.17348784459516411,0.0,0.0,0.0,0.0,0.0,0.0
1.600000928000021,0.03585539758205414,0.048788223415613174,0.5613747835159302,0.08924142063201727,0.007215165889161455,0.225192945100202,0.03585539758205414,0.048788223415613174,-0.04969298741407746,0.08924142063201727,0.007215165889161455,0.05295148333234345,0.1001454658291836,-0.020639722451365472,0.024387707828049443,-0.05848761647939682,-0.11729895323514938,-0.012333486229181276,0.0,-1.0273985940042607,-0.5198722928936479,13.85956703486693,0.0,0.0,0.0,0.0,0.0,0.6110677709300076,0.0,0.0,0.17224146176785854,0.0,0.0,0.0,0.0,0.0,0.0
1.650000928000021,0.039990585297346115,0.048509631305933,0.570559561252594,0.09547164386823515,-0.0015081299501563165,0.22889853252991602,0.039990585297346115,0.048509631305933,-0.049085570254064015,0.09547164386823515,-0.0015081299501563165,0.05807244287366209,0.09976779617123377,-0.0227474656078428,0.02457498800657376,-0.07331010699272156,-0.09951713681221008,-0.004819426219910371,0.0,-1.019567839686215,-0.4280865802669111,14.054208362204285,0.0,0.0,0.0,0.0,0.0,0.619645131506658,0.0,0.0,0.17082608965625393,0.0,0.0,0.0,0.0,0.0,0.0
1.700000928000021,0.044216521084308624,0.04789910092949867,0.5796788334846497,0.08852638922223201,-0.002991245733158502,0.21305485537005808,0.044216521084308624,0.04789910092949867,-0.0484689832493046,0.08852638922223201,-0.002991245733158502,0.04379795850666371,0.09463278004693843,-0.030513463534434404,0.023211647494344234,-0.09319093078374863,-0.07833725959062576,-0.034791849553585046,0.0,-1.102364703375679,-0.37244857266867065,13.985118639642984,0.0,0.0,0.0,0.0,0.0,0.6281478167339543,0.0,0.0,0.16925689686339437,0.0,0.0,0.0,0.0,0.0,0.0
1.750000928000021,0.048277102410793304,0.0472320131957531,0.5882818102836609,0.08762374825393993,-0.010692927748155964,0.2115359779379367,0.048277102410793304,0.0472320131957531,-0.048286685034780286,0.08762374825393993,-0.010692927748155964,0.04398785566884708,0.0928450196273296,-0.03424011182889597,0.0253422970991366,-0.08804047852754593,-0.052664026618003845,-0.01908153668045997,0.0,-1.0861908967330562,-0.36994945378139915,14.14171047374317,0.0,0.0,0.0,0.0,0.0,0.6365684953184412,0.0,0.0,0.1675481222690896,0.0,0.0,0.0,0.0,0.0,0.0
1.800000928000021,0.051689937710762024,0.04638524353504181,0.5961324572563171,0.0867165565357089,-0.011605468772997157,0.20933538447668865,0.051689937710762024,0.04638524353504181,-0.048768068449569046,0.0867165565357089,-0.011605468772997157,0.043622259858077966,0.0837206723809274,-0.04877476749066911,0.02172784767816971,-0.07056064158678055,-0.022265350446105003,-0.0017365098465234013,0.0,-1.1160841950218552,-0.31935458871022104,14.141659105540487,0.0,0.0,0.0,0.0,0.0,0.6449005257058862,0.0,0.0,0.16571312461861068,0.0,0.0,0.0,0.0,0.0,0.0
1.8500009280000211,0.056202054023742676,0.045441415160894394,0.605867326259613,0.08025830011245917,-0.013488325066278915,0.20730256913740902,0.056202054023742676,0.045441415160894394,-0.047270587003172215,0.08025830011245917,-0.013488325066278915,0.04353813948540433,0.08222180626810482,-0.036560286289728516,0.021191930250163082,-0.014446663670241833,-0.029527878388762478,-0.0156836025416851,0.0,-1.1435120267176189,-0.31920146606298216,14.16510220519602,0.0,0.0,0.0,0.0,0.0,0.6531379132627853,0.0,0.0,0.1637644296520047,0.0,0.0,0.0,0.0,0.0,0.0
1.9000009280000212,0.059840332716703415,0.044397495687007904,0.6147267818450928,0.07292200419121853,-0.019052500804484326,0.21315940447464768,0.059840332716703415,0.044397495687007904,-0.0465484879101985,0.07292200419121853,-0.019052500804484326,0.05144562958399351,0.08111987308200197,-0.04410869577266485,0.02273977843134034,-0.033682629466056824,-0.04373614490032197,-0.040294218808412545,0.0,-1.135053287977383,-0.31085855390021333,14.135738249226737,0.0,0.0,0.0,0.0,0.0,0.6612752697552913,0.0,0.0,0.16171377489065417,0.0,0.0,0.0,0.0,0.0,0.0
1.9500009280000212,0.0632171630859375,0.043198682367801666,0.6237976551055908,0.06705641761443844,-0.02321263605178155,0.21488552934992128,0.0632171630859375,0.043198682367801666,-0.04551011990564002,0.06705641761443844,-0.02321263605178155,0.055313377157577726,0.07899552970270163,-0.037821893485114444,0.02033848176513864,-0.04565317556262016,-0.0050898357294499865,0.006914997473359109,0.0,-1.1160950158294947,-0.2734979698019475,14.032760973955726,0.0,0.0,0.0,0.0,0.0,0.6693077750112308,0.0,0.0,0.15957215219234355,0.0,0.0,0.0,0.0,0.0,0.0
2.0000009280000213,0.06588458269834518,0.0423320047557354,0.6315509080886841,0.0559460172161219,-0.015515431908651338,0.20615653308200108,0.06588458269834518,0.0423320047557354,-0.045680232567623325,0.0559460172161219,-0.015515431908651338,0.048806684901030795,0.08328717880168313,-0.03940487147768046,0.022121048999083293,-0.061725009232759476,-0.004838509485125539,0.021801738068461418,0.0,-1.1075578213443424,-0.24552591411581878,13.968547609881776,0.0,0.0,0.0,0.0,0.0,0.6772311406563074,0.0,0.0,0.15734984818097028,0.0,0.0,0.0,0.0,0.0,0.0
2.050000928000021,0.06886398047208786,0.041329190135002136,0.6417537927627563,0.044689250505294265,-0.013025993179858635,0.19961435364752952,0.06886398047208786,0.041329190135002136,-0.0432877830580205,0.044689250505294265,-0.013025993179858635,0.04455787099538261,0.07937673237512577,-0.04438407269933364,0.023455381570164135,-0.022609679028391838,-0.016883173957467076,0.014313378371298315,0.0,-1.0557243229145679,-0.3094985071367783,14.05550311287409,0.0,0.0,0.0,0.0,0.0,0.6850415758207768,0.0,0.0,0.15505648265214692,0.0,0.0,0.0,0.0,0.0,0.0
2.100000928000021,0.07115449011325836,0.040326423943042755,0.650556206703186,0.03625864261670035,-0.018341306865469805,0.19119266121029108,0.07115449011325836,0.040326423943042755,-0.04217954801463475,0.03625864261670035,-0.018341306865469805,0.038491616159023856,0.08046273497187828,-0.053821668765968944,0.015520862047763373,0.03613802045583725,0.005313489120453598,0.01583016663789749,0.0,-1.0045203424242777,-0.33308516624669415,14.052046810535108,0.0,0.0,0.0,0.0,0.0,0.6927357547178208,0.0,0.0,0.15270104505126722,0.0,0.0,0.0,0.0,0.0,0.0
2.1500009280000207,0.07339008897542953,0.03960912674665451,0.6588101983070374,0.0439194843164875,-0.015978479814582384,0.18930818222147558,0.07339008897542953,0.03960912674665451,-0.04150058769252574,0.0439194843164875,-0.015978479814582384,0.03901625310532686,0.08215902313426282,-0.038763686560132626,0.018883355286744674,0.035324156284332275,0.0694330707192421,0.012614194303750983,0.0,-0.9715018253359662,-0.29683949191873954,14.102018463176089,0.0,0.0,0.0,0.0,0.0,0.7003107859995631,0.0,0.0,0.15029192911614872,0.0,0.0,0.0,0.0,0.0,0.0
2.2000009280000206,0.07563821226358414,0.0391334593296051,0.6670629978179932,0.029155234848719947,-0.0065442888791465235,0.18092323502046642,0.07563821226358414,0.0391334593296051,-0.04070118598317851,0.029155234848719947,-0.0065442888791465235,0.03308626924836283,0.07976248632538496,-0.03628341180739181,0.02115090903915373,-0.051056377589702606,0.062150172889232635,0.0015787580050527974,0.0,-1.0614457130248862,-0.32031384921947725,14.08627125293394,0.0,0.0,0.0,0.0,0.0,0.7077641838011717,0.0,0.0,0.1478369657721036,0.0,0.0,0.0,0.0,0.0,0.0
2.2500009280000204,0.07721412181854248,0.038362614810466766,0.6753972172737122,0.024237086274178993,-0.00953920477253454,0.17701020710162077,0.07721412181854248,0.038362614810466766,-0.03969662311406641,0.024237086274178993,-0.00953920477253454,0.031666752738397946,0.08237911046918489,-0.030078767784464056,0.01853703157751596,0.029614314436912537,0.033894654363393784,0.008887285366654393,0.0,-0.9808453483189576,-0.3990915136319867,14.142669208185607,0.0,0.0,0.0,0.0,0.0,0.7150938403877786,0.0,0.0,0.14534345436322282,0.0,0.0,0.0,0.0,0.0,0.0
2.30000092800002,0.07845065742731094,0.03799508884549141,0.682256281375885,0.014451017082988118,-0.00816732349205588,0.18763139292630793,0.07845065742731094,0.03799508884549141,-0.04004171894715691,0.014451017082988118,-0.00816732349205588,0.04481320062653407,0.08017204596611283,-0.03440247945828734,0.0205737283409686,0.00895958486944437,-0.008304969407618048,-0.011010892689228056,0.0,-0.9718623516955827,-0.3815896237105361,14.141609625279688,0.0,0.0,0.0,0.0,0.0,0.7222980003230419,0.0,0.0,0.14281819229977386,0.0,0.0,0.0,0.0,0.0,0.0
2.35000092800002,0.07967819273471832,0.03741350769996643,0.6913502216339111,0.007901632131206968,-0.006733897859565381,0.1759384038642141,0.07967819273471832,0.03741350769996643,-0.038025014448163974,0.007901632131206968,-0.006733897859565381,0.035670900666308375,0.08319838223425213,-0.03933580504527878,0.019587911678225822,0.04634791240096092,-0.01623920910060406,-0.017309790477156636,0.0,-0.9240061190973516,-0.39926869765406725,14.00491620192395,0.0,0.0,0.0,0.0,0.0,0.7293752360820751,0.0,0.0,0.14026750319790574,0.0,0.0,0.0,0.0,0.0,0.0
2.40000092800002,0.08095038682222366,0.036737509071826935,0.6989620923995972,0.00803229450975557,-0.006587884384248456,0.1609640965475309,0.08095038682222366,0.036737509071826935,-0.037362332635593076,0.00803229450975557,-0.006587884384248456,0.023266832963216966,0.08555344794846231,-0.03548999622814053,0.020185619084260864,0.02982202358543873,0.06502410024404526,0.012600600719451896,0.0,-0.9006830997910916,-0.41627150876538344,14.067829648802782,0.0,0.0,0.0,0.0,0.0,0.7363244250351902,0.0,0.0,0.13769726358431394,0.0,0.0,0.0,0.0,0.0,0.0
2.4500009280000197,0.08183349668979645,0.03630059212446213,0.7052817344665527,-0.0008052605947501806,-0.010362318218767805,0.1563227098966574,0.08183349668979645,0.03630059212446213,-0.03786299326589626,-0.0008052605947501806,-0.010362318218767805,0.021209781661518712,0.0850306629320734,-0.032361771924942495,0.016769377326792068,0.07649946212768555,0.05254619568586349,-0.029589178040623672,0.0,-0.9286763157366313,-0.42285620108583893,14.203023354893922,0.0,0.0,0.0,0.0,0.0,0.743144727732449,0.0,0.0,0.13511292823513868,0.0,0.0,0.0,0.0,0.0,0.0
2.5000009280000195,0.083443284034729,0.035329971462488174,0.7136390209197998,0.012026118021705525,-0.006604311560495602,0.1576255791166837,0.083443284034729,0.035329971462488174,-0.03619654650259552,0.012026118021705525,-0.006604311560495602,0.025106024901539153,0.08912135173598257,-0.028201203398988905,0.015341913995372991,-0.014622402377426624,0.10089875012636185,0.006840664893388736,0.0,-0.8863445574229631,-0.400542951326845,14.247631709544759,0.0,0.0,0.0,0.0,0.0,0.7498355674223953,0.0,0.0,0.13251955421514455,0.0,0.0,0.0,0.0,0.0,0.0
2.5500009280000193,0.08441808819770813,0.034800488501787186,0.7199352383613586,0.007501350778785777,-0.008012421267225954,0.16164786439458287,0.08441808819770813,0.034800488501787186,-0.03646137238021585,0.007501350778785777,-0.008012421267225954,0.03172604071443452,0.08948872556651466,-0.023114781633799097,0.016428892426795016,0.00012627674732357264,0.00955521874129772,-0.020708786323666573,0.0,-1.0133740985424569,-0.4327529759074413,14.168511591752447,0.0,0.0,0.0,0.0,0.0,0.7563966107415745,0.0,0.0,0.12992182368014835,0.0,0.0,0.0,0.0,0.0,0.0
2.600000928000019,0.08496488630771637,0.03382754698395729,0.7264489531517029,-0.006761529661969892,-0.025347058057600493,0.16095291406094045,0.08496488630771637,0.03382754698395729,-0.03637879636280594,-0.006761529661969892,-0.025347058057600493,0.033628848558216934,0.09346133177990534,-0.02639589478134674,0.01698763939922543,0.06491485238075256,-0.035332705825567245,-0.025569492951035496,0.0,-1.0053394778995288,-0.42770342839487113,14.105922535558047,0.0,0.0,0.0,0.0,0.0,0.7628277495145088,0.0,0.0,0.12732406550272352,0.0,0.0,0.0,0.0,0.0,0.0
2.650000928000019,0.08607479929924011,0.032196179032325745,0.7360273003578186,-0.0026107461351758143,-0.023281716136887287,0.1539441093445705,0.08607479929924011,0.032196179032325745,-0.03310178324892177,-0.0026107461351758143,-0.023281716136887287,0.029213833566166914,0.09475626399360593,-0.026606397014319327,0.0162035670937275,-0.015516862273216248,-0.0060153957456350335,-0.007031415589153766,0.0,-0.9205787221936576,-0.29828501504198446,14.08935353765436,0.0,0.0,0.0,0.0,0.0,0.7691290836067404,0.0,0.0,0.1247302757784036,0.0,0.0,0.0,0.0,0.0,0.0
2.700000928000019,0.08682818710803986,0.03125399351119995,0.7432475090026855,-0.0061349902042154335,-0.018250950663240156,0.14444690237277127,0.08682818710803986,0.03125399351119995,-0.032053395773651405,-0.0061349902042154335,-0.018250950663240156,0.02230276510584417,0.093359405188016,-0.028117242884221127,0.015547217123780044,-0.06212696060538292,0.000103347003459931,0.004782325588166714,0.0,-0.9790624044729626,-0.31270973283248416,14.06570510786112,0.0,0.0,0.0,0.0,0.0,0.775300904776337,0.0,0.0,0.1221441372669271,0.0,0.0,0.0,0.0,0.0,0.0
2.7500009280000186,0.0877477377653122,0.03033170849084854,0.7491645216941833,-0.005280698766122297,-0.020354863037180267,0.14547898698899867,0.0877477377653122,0.03033170849084854,-0.03217915977774155,-0.005280698766122297,-0.020354863037180267,0.025909949168485463,0.08266650773189577,-0.025849265192596782,0.016206388512577163,-0.10289645940065384,-0.033429309725761414,-0.018563574180006977,0.0,-0.9774453858590593,-0.35313357367121134,14.126895698085619,0.0,0.0,0.0,0.0,0.0,0.7813436814719249,0.0,0.0,0.1195690378205132,0.0,0.0,0.0,0.0,0.0,0.0
2.8000009280000184,0.08864708989858627,0.02897517941892147,0.7571483850479126,-0.0008201452538157111,-0.025501066710357952,0.1389046425976656,0.08864708989858627,0.02897517941892147,-0.030109659479936046,-0.0008201452538157111,-0.025501066710357952,0.02189655474895154,0.08855020231276756,-0.0298798977244914,0.01648129159042,-0.05397472530603409,-0.03589189797639847,-0.0059307948686182456,0.0,-1.0102086535779509,-0.3390975984983626,14.095358027978042,0.0,0.0,0.0,0.0,0.0,0.7872580445278486,0.0,0.0,0.11700808784871407,0.0,0.0,0.0,0.0,0.0,0.0
2.8500009280000183,0.08947150409221649,0.027714606374502182,0.7639480233192444,-0.007026929586224481,-0.019986651265364124,0.133174135974979,0.08947150409221649,0.027714606374502182,-0.029096750390231185,-0.007026929586224481,-0.019986651265364124,0.018709999107913128,0.08929504741551453,-0.02571402792860944,0.014355077632801638,-0.04715268313884735,-0.051451075822114944,-0.011274217627942555,0.0,-1.070726386149807,-0.2991725467417893,14.097092678592636,0.0,0.0,0.0,0.0,0.0,0.7930447737094756,0.0,0.0,0.11446413686706589,0.0,0.0,0.0,0.0,0.0,0.0
2.900000928000018,0.08996084332466125,0.026371361687779427,0.7705780267715454,-0.007418850078568195,-0.017469316118969437,0.13313606111695048,0.08996084332466125,0.026371361687779427,-0.028126758292424947,-0.007418850078568195,-0.017469316118969437,0.02119627194241587,0.08373160928068124,-0.02988603562967418,0.01774125217981215,-0.005523355677723885,-0.04792194440960884,0.01999973319470883,0.0,-1.0496934257353945,-0.3407085579320032,14.11562252916257,0.0,0.0,0.0,0.0,0.0,0.7987047850639704,0.0,0.0,0.1119397891745346,0.0,0.0,0.0,0.0,0.0,0.0
2.950000928000018,0.09049083292484283,0.025327879935503006,0.7769709229469299,-0.0073381085071726575,-0.022224337250490948,0.1357745414783398,0.09049083292484283,0.025327879935503006,-0.027268196087129937,-0.0073381085071726575,-0.022224337250490948,0.026337122775704727,0.0838868251425704,-0.03258744428909832,0.01815924170495542,-0.024700326845049858,-0.026227978989481926,-0.012389405630528923,0.0,-1.0712807944830427,-0.35884345622698544,14.06911343891189,0.0,0.0,0.0,0.0,0.0,0.8042391190340599,0.0,0.0,0.10943741870263508,0.0,0.0,0.0,0.0,0.0,0.0
3.0000009280000177,0.09092919528484344,0.024267323315143585,0.783077597618103,-0.017746773242955,-0.02241284053218821,0.11761384160865856,0.09092919528484344,0.024267323315143585,-0.02657133167629644,-0.017746773242955,-0.02241284053218821,0.01065465853157975,0.0826018606306782,-0.036214016423090634,0.01821624015651402,0.005286779720336199,-0.041644733399152756,-0.018527176231145855,0.0,-1.0968001812324089,-0.3227086399873911,13.9941795329296,0.0,0.0,0.0,0.0,0.0,0.8096489292943995,0.0,0.0,0.10695918307707881,0.0,0.0,0.0,0.0,0.0,0.0
3.0500009280000175,0.09097884595394135,0.022839173674583435,0.7888199090957642,-0.024699780266551088,-0.025169238880204805,0.10732775918201351,0.09097884595394135,0.022839173674583435,-0.026115563176387413,-0.024699780266551088,-0.025169238880204805,0.0028207222511400787,0.08196869470394619,-0.04063031030931441,0.013736496747546845,0.08569679409265518,-0.012190449982881548,-0.018633447587490082,0.0,-1.0417311011995292,-0.3209194207468713,14.16549746903629,0.0,0.0,0.0,0.0,0.0,0.8149354722721516,0.0,0.0,0.10450703693087343,0.0,0.0,0.0,0.0,0.0,0.0
3.1000009280000174,0.09133480489253998,0.021797029301524162,0.7936471700668335,-0.018093563255704014,-0.017480485934524295,0.1070032829225011,0.09133480489253998,0.021797029301524162,-0.02645292724844661,-0.018093563255704014,-0.017480485934524295,0.004920538416543371,0.0888855585846402,-0.03432723456290532,0.01670079927922341,0.011243497021496296,0.04722962900996208,0.0157254971563816,0.0,-1.0106462236408462,-0.29728137657378007,14.25212180243819,0.0,0.0,0.0,0.0,0.0,0.8201000973152801,0.0,0.0,0.10208274450595772,0.0,0.0,0.0,0.0,0.0,0.0
3.150000928000017,0.09201176464557648,0.02104964852333069,0.8001271486282349,-0.011158502865447652,-0.019931830439217122,0.11376871116524115,0.09201176464557648,0.02104964852333069,-0.025017088845645574,-0.011158502865447652,-0.019931830439217122,0.014080819586544141,0.08899248982076413,-0.03093306802636908,0.017030111489749977,-0.03849880024790764,0.08167161792516708,0.0009716655476950009,0.0,-1.084562290676627,-0.35508041012431035,14.243361881388665,0.0,0.0,0.0,0.0,0.0,0.8251442374738804,0.0,0.0,0.09968789157869701,0.0,0.0,0.0,0.0,0.0,0.0
3.200000928000017,0.0922708660364151,0.020344024524092674,0.8063881397247314,-0.02151916155124778,-0.016147667249150125,0.12208633453234019,0.0922708660364151,0.020344024524092674,-0.023681261136854204,-0.02151916155124778,-0.016147667249150125,0.024762437789452543,0.08164810344503604,-0.027912252269591598,0.01606767246480878,-0.049552686512470245,0.05763450264930725,0.009528717957437031,0.0,-1.1630985644258796,-0.33697910860654934,14.10758887004201,0.0,0.0,0.0,0.0,0.0,0.8300694008615856,0.0,0.0,0.09732389674288765,0.0,0.0,0.0,0.0,0.0,0.0
3.250000928000017,0.09202954918146133,0.019341377541422844,0.8127145171165466,-0.02714529384293409,-0.013651134276560253,0.11736575444061921,0.09202954918146133,0.019341377541422844,-0.022162645449183227,-0.02714529384293409,-0.013651134276560253,0.022373732358297788,0.0808846462780628,-0.030138682180407272,0.014528996410801298,0.05610209330916405,-0.01243824698030949,-0.027830159291625023,0.0,-1.107644823799533,-0.3664892516234341,13.955831921758683,0.0,0.0,0.0,0.0,0.0,0.8348771625657299,0.0,0.0,0.09499202208232142,0.0,0.0,0.0,0.0,0.0,0.0
3.3000009280000167,0.09181072562932968,0.0184969250112772,0.8180260062217712,-0.025148920416779328,-0.01930781161255209,0.11072503574079108,0.09181072562932968,0.0184969250112772,-0.02154315085474845,-0.025148920416779328,-0.01930781161255209,0.0180316524773583,0.08429099688860298,-0.028136277102485785,0.013871060547055336,0.07569008320569992,-0.0022472608834505086,-0.005025714635848999,0.0,-1.0853297567111668,-0.3846024549732957,13.950888415535465,0.0,0.0,0.0,0.0,0.0,0.8395691570765197,0.0,0.0,0.09269338326343278,0.0,0.0,0.0,0.0,0.0,0.0
3.3500009280000165,0.09156087040901184,0.01755673997104168,0.8240001201629639,-0.029735106149698737,-0.012519773044692485,0.10730785344741622,0.09156087040901184,0.01755673997104168,-0.020146951043983896,-0.029735106149698737,-0.012519773044692485,0.016878894370317588,0.08441113284576618,-0.029423979724698235,0.012237726861517473,-0.025965536013245583,-0.026679009199142456,-0.008172292262315747,0.0,-1.1211033123757783,-0.34104828524122116,13.991168424407464,0.0,0.0,0.0,0.0,0.0,0.8441470712069478,0.0,0.0,0.09042895907709864,0.0,0.0,0.0,0.0,0.0,0.0
3.4000009280000163,0.0907866582274437,0.01687077060341835,0.8301659226417542,-0.03698217810156831,-0.007666949311572236,0.08704788734111835,0.0907866582274437,0.01687077060341835,-0.018446714834849942,-0.03698217810156831,-0.007666949311572236,-0.0011517131161534744,0.08562367958961259,-0.034116978753397476,0.014522375027057777,-0.009703611955046654,-0.06244927644729614,-0.01829929463565349,0.0,-1.1064024869987694,-0.39169964949630237,13.974764111242969,0.0,0.0,0.0,0.0,0.0,0.8486126374766041,0.0,0.0,0.08819960045727182,0.0,0.0,0.0,0.0,0.0,0.0
3.450000928000016,0.09000901877880096,0.01619051583111286,0.8350983262062073,-0.03439052911754583,-0.010530747514186487,0.09387839754401534,0.09000901877880096,0.01619051583111286,-0.017869301727685638,-0.03439052911754583,-0.010530747514186487,0.00787235854121092,0.08416357258011375,-0.03293682597365866,0.012751367165487082,-0.0003890679217875004,-0.025544727221131328,-0.021263966336846348,0.0,-1.0683012349085026,-0.4289856082151756,14.147036223075725,0.0,0.0,0.0,0.0,0.0,0.8529676279338929,0.0,0.0,0.08600603900280442,0.0,0.0,0.0,0.0,0.0,0.0
3.500000928000016,0.0894290879368782,0.015922898426651955,0.8394191861152649,-0.03373352232138883,-0.019282920290471246,0.09128145458133717,0.0894290879368782,0.015922898426651955,-0.017794662277180073,-0.03373352232138883,-0.019282920290471246,0.007432559553780388,0.06421417714494693,-0.03507264140157895,0.0001748988055361167,0.049826961010694504,-0.010664419271051882,0.012472195550799372,0.0,-1.1048922981826828,-0.4073405595958487,14.032964052708387,0.0,0.0,0.0,0.0,0.0,0.857213848392445,0.0,0.0,0.08384889502755678,0.0,0.0,0.0,0.0,0.0,0.0
3.5500009280000158,0.08814094215631485,0.01487135048955679,0.844596266746521,-0.041470861745291326,-0.013376163568728314,0.07892017557928845,0.08814094215631485,0.01487135048955679,-0.016756866312221286,-0.041470861745291326,-0.013376163568728314,-0.0028085095833928903,0.0709658282449781,-0.03895275873044479,-0.0008675701449147866,0.007733243051916361,-0.07571319490671158,-0.0029830934945493845,0.0,-1.1276564914920124,-0.34250253806591946,14.041257787840077,0.0,0.0,0.0,0.0,0.0,0.8613531330587423,0.0,0.0,0.08172868516268134,0.0,0.0,0.0,0.0,0.0,0.0
3.6000009280000156,0.08661156892776489,0.013360177166759968,0.8478321433067322,-0.04667670922289328,-0.024828430962423563,0.07153885401055994,0.08661156892776489,0.013360177166759968,-0.017555196222406755,-0.04667670922289328,-0.024828430962423563,-0.008106975523264046,0.0881504557453261,-0.04254928855800921,0.01261386629117478,0.0435805581510067,-0.03353961557149887,-0.01671144552528858,0.0,-1.0823736754193507,-0.3851851789096427,14.1394298262265,0.0,0.0,0.0,0.0,0.0,0.8653873395291389,0.0,0.0,0.07964582953382399,0.0,0.0,0.0,0.0,0.0,0.0
3.6500009280000154,0.0861227884888649,0.012955313548445702,0.8511171936988831,-0.044218815332690536,-0.02256560660153876,0.07371057070699154,0.0861227884888649,0.012955313548445702,-0.018201150436683466,-0.044218815332690536,-0.02256560660153876,-0.0038900878278990275,0.05446598650186418,-0.032862873321973574,-0.01175626140096142,-0.01105167530477047,0.03715129569172859,-0.008087163791060453,0.0,-1.0544814252176227,-0.2926907028471435,14.226642915173645,0.0,0.0,0.0,0.0,0.0,0.8693183441355665,0.0,0.0,0.07760065853489057,0.0,0.0,0.0,0.0,0.0,0.0
3.7000009280000152,0.08439404517412186,0.012033304199576378,0.8551815152168274,-0.04758678045830023,-0.013266045785820945,0.067709139076064,0.08439404517412186,0.012033304199576378,-0.01796652240344665,-0.04758678045830023,-0.013266045785820945,-0.00788428014291645,0.0512547620372481,-0.032317681616375715,-0.012359517175468682,-0.05758106708526611,0.07683151215314865,0.02340124361217021,0.0,-1.0900372729442451,-0.30997439795533116,14.199624629644214,0.0,0.0,0.0,0.0,0.0,0.873148037620274,0.0,0.0,0.07559341921898045,0.0,0.0,0.0,0.0,0.0,0.0
3.750000928000015,0.08229676634073257,0.010802624747157097,0.858246922492981,-0.06202103685123826,-0.009195509953815146,0.0653039307255661,0.08229676634073257,0.010802624747157097,-0.018631398627973472,-0.06202103685123826,-0.009195509953815146,-0.008320350600530185,0.0860258739305908,-0.035696614258975856,0.014236875181985909,-0.022751804441213608,0.04175052046775818,0.014499815180897708,0.0,-1.0745161936865117,-0.37838603717104297,14.2459848800039,0.0,0.0,0.0,0.0,0.0,0.8768783211209544,0.0,0.0,0.07362428132609629,0.0,0.0,0.0,0.0,0.0,0.0
3.800000928000015,0.08023103326559067,0.00985410250723362,0.861906111240387,-0.06087392649704327,-0.01515277074942488,0.07539748515693073,0.08023103326559067,0.00985410250723362,-0.018604991208179378,-0.06087392649704327,-0.01515277074942488,0.0037041421906434113,0.08505487240906673,-0.03503527488911917,0.013411055225766688,-0.05834114924073219,0.024679433554410934,0.002572099445387718,0.0,-0.9718025906758576,-0.40540959292128914,14.273748238262758,0.0,0.0,0.0,0.0,0.0,0.8805111024485663,0.0,0.0,0.07169334296628732,0.0,0.0,0.0,0.0,0.0,0.0
3.8500009280000147,0.07750415056943893,0.008313605561852455,0.8665923476219177,-0.06209877827377707,-0.021905325020465702,0.07792219367165044,0.07750415056943893,0.008313605561852455,-0.01745594501915282,-0.06209877827377707,-0.021905325020465702,0.008121557695669593,0.0822627791978161,-0.050888444713964365,0.005288369139226035,0.05480657517910004,0.0260954350233078,-0.013317824341356758,0.0,-0.9872060259835755,-0.3570976867643749,14.139079155971706,0.0,0.0,0.0,0.0,0.0,0.8840482926410705,0.0,0.0,0.06980063597598085,0.0,0.0,0.0,0.0,0.0,0.0
3.9000009280000145,0.07565277069807053,0.007333457935601473,0.8697243332862854,-0.060195502954489756,-0.023011707070386772,0.06668585520156549,0.07565277069807053,0.007333457935601473,-0.017767469490880705,-0.060195502954489756,-0.023011707070386772,-0.0012602757628276257,0.0826237362403135,-0.032361898956855484,0.011148176039906588,0.012198470532894135,0.08734427392482758,-0.027416378259658824,0.0,-0.9805338377283109,-0.2990589247169987,14.064076526979242,0.0,0.0,0.0,0.0,0.0,0.8874918027771661,0.0,0.0,0.06794613096439311,0.0,0.0,0.0,0.0,0.0,0.0
3.9500009280000143,0.07360165566205978,0.0062164622358977795,0.8732782602310181,-0.0621636591006665,-0.019513851230816066,0.06113444178644014,0.07360165566205978,0.0062164622358977795,-0.01756528080391828,-0.0621636591006665,-0.019513851230816066,-0.004995300279647917,0.09043366400404018,-0.02587668071926874,0.012933450521260603,0.006943124812096357,0.08784464746713638,-0.012366353534162055,0.0,-1.0016452483248455,-0.2864324621367247,14.186203452924927,0.0,0.0,0.0,0.0,0.0,0.8908435410349363,0.0,0.0,0.06612974206608806,0.0,0.0,0.0,0.0,0.0,0.0
4.000000928000015,0.07148779183626175,0.005140245892107487,0.8767369389533997,-0.06002249329512666,-0.014156310537728208,0.07497307890192337,0.07148779183626175,0.005140245892107487,-0.017368471027695565,-0.06002249329512666,-0.014156310537728208,0.010621747486952701,0.08404136581803279,-0.021683573007075907,0.012460255557748212,-0.09852581471204758,0.03645143657922745,0.006054908502846952,0.0,-0.9917239173943303,-0.30800961101637725,14.230116481770388,0.0,0.0,0.0,0.0,0.0,0.8941054099810952,0.0,0.0,0.06435133141497067,0.0,0.0,0.0,0.0,0.0,0.0
4.050000928000014,0.06908362358808517,0.004226046614348888,0.8803461194038391,-0.061226843999685324,-0.017765079849609827,0.07392522603825527,0.06908362358808517,0.004226046614348888,-0.01693318467343574,-0.061226843999685324,-0.017765079849609827,0.0113145126840032,0.08141556543343453,-0.023894412095171624,0.010618879122706204,-0.011233566328883171,-0.017968006432056427,-0.006207531318068502,0.0,-1.012298281681752,-0.3439230845110339,14.048844393266613,0.0,0.0,0.0,0.0,0.0,0.8972793040772749,0.0,0.0,0.06261071335425207,0.0,0.0,0.0,0.0,0.0,0.0
4.100000928000014,0.06696772575378418,0.0034425915218889713,0.8844873905181885,-0.060997562112412286,-0.015257573964558738,0.06929701385130724,0.06696772575378418,0.0034425915218889713,-0.015879716872310823,-0.060997562112412286,-0.015257573964558738,0.008389355455093075,0.05844552276741233,-0.02193699620949685,-0.006189302764737725,-0.037726838141679764,0.0012263495009392517,0.013782208785414696,0.0,-1.0053339387832603,-0.31209369901304734,14.034582004490854,0.0,0.0,0.0,0.0,0.0,0.9003671073904993,0.0,0.0,0.06090765839621416,0.0,0.0,0.0,0.0,0.0,0.0
4.150000928000014,0.06532519310712814,0.0021611852571368217,0.8868604898452759,-0.059701916913472874,-0.019741899550310887,0.06790596160262265,0.06532519310712814,0.0021611852571368217,-0.016510201650391076,-0.059701916913472874,-0.019741899550310887,0.008664064657700928,0.0620009035717084,-0.015829183093203802,0.0036637061732349707,-0.014005925506353378,0.008618270978331564,-0.010229923762381079,0.0,-1.010189045287856,-0.32733123745938036,14.046708255096497,0.0,0.0,0.0,0.0,0.0,0.903370691495667,0.0,0.0,0.05924189694492172,0.0,0.0,0.0,0.0,0.0,0.0
4.200000928000014,0.06338907778263092,0.0010574143379926682,0.8903051018714905,-0.05501301842747305,-0.02125708646184097,0.0646832301009926,0.06338907778263092,0.0010574143379926682,-0.01598681168701388,-0.05501301842747305,-0.02125708646184097,0.007070107306609029,0.06289281309133976,-0.01901220121012548,0.0031669197406127836,0.03142007812857628,0.007423447445034977,-0.024836014956235886,0.0,-1.0251694879976236,-0.2863965330206719,14.063950217585216,0.0,0.0,0.0,0.0,0.0,0.9062919135585044,0.0,0.0,0.05761312279438357,0.0,0.0,0.0,0.0,0.0,0.0
4.250000928000014,0.06173393130302429,-1.705633803794626e-05,0.8930811882019043,-0.05748706492781755,-0.014365158079652092,0.05730564195646176,0.06173393130302429,-1.705633803794626e-05,-0.01605142638615864,-0.05748706492781755,-0.014365158079652092,0.001284645542412026,0.06509425848088313,-0.013650499545853734,0.00021993023937305622,0.010955452919006348,-0.012051964178681372,0.00726425973698497,0.0,-1.0642211583930203,-0.26856375715872866,14.073961318015371,0.0,0.0,0.0,0.0,0.0,0.9091326145880629,0.0,0.0,0.056020996414049735,0.0,0.0,0.0,0.0,0.0,0.0
4.3000009280000135,0.05906862020492554,-0.0010091066360473633,0.8967947363853455,-0.06075446083711197,-0.015872947999467982,0.06159770968943284,0.05906862020492554,-0.0010091066360473633,-0.015099881463065068,-0.06075446083711197,-0.015872947999467982,0.007132561656490503,0.0794763982018658,-0.025535728904674926,0.009281554121896463,-0.034566234797239304,-0.0666215643286705,0.011525023728609094,0.0,-1.0497018021717341,-0.31484753749471894,14.14758927770465,0.0,0.0,0.0,0.0,0.0,0.9118946178484105,0.0,0.0,0.054465148032942334,0.0,0.0,0.0,0.0,0.0,0.0
4.350000928000013,0.05721691623330116,-0.0014091490302234888,0.8997580409049988,-0.06060605196669323,-0.010099473256035487,0.05353577059695351,0.05721691623330116,-0.0014091490302234888,-0.014821686514721377,-0.06060605196669323,-0.010099473256035487,0.0005905900637920916,0.05842672948913785,-0.02353860375407102,0.002647115084929652,-0.03680820018053055,-0.06042790040373802,-0.017820589244365685,0.0,-1.0232724697799784,-0.2973821585550859,14.060324960780635,0.0,0.0,0.0,0.0,0.0,0.9145797274197202,0.0,0.0,0.05294518053316142,0.0,0.0,0.0,0.0,0.0,0.0
4.400000928000013,0.055160537362098694,-0.002441577846184373,0.9030932784080505,-0.048433586439003536,-0.0037432146322317903,0.04721395822742716,0.055160537362098694,-0.002441577846184373,-0.014096448491431657,-0.048433586439003536,-0.0037432146322317903,-0.004246713935545189,0.05987914520979043,-0.002574313568322939,0.007418890450704652,0.02833985723555088,0.007122421637177467,-0.0003859838470816621,0.0,-1.0264157837970296,-0.3384030937139345,14.133863203790174,0.0,0.0,0.0,0.0,0.0,0.9171897268994822,0.0,0.0,0.05146067216297235,0.0,0.0,0.0,0.0,0.0,0.0
4.450000928000013,0.05372174084186554,-0.002565010916441679,0.9054803252220154,-0.04602581842223016,-0.0063713799282924775,0.04900152376279032,0.05372174084186554,-0.002565010916441679,-0.01424605301304871,-0.04602581842223016,-0.0063713799282924775,-0.00100965531638441,0.06358057686465246,-0.018755011148918754,0.0012406369952442375,0.06282955408096313,0.019863560795783997,0.00033972458913922066,0.0,-1.1200130824700334,-0.3807509599818806,14.176499793764558,0.0,0.0,0.0,0.0,0.0,0.9197263782350641,0.0,0.0,0.05001117907917473,0.0,0.0,0.0,0.0,0.0,0.0
4.500000928000013,0.051806118339300156,-0.0032641724683344364,0.908388078212738,-0.05271292199979193,-0.010919678551719676,0.05493433302525514,0.051806118339300156,-0.0032641724683344364,-0.013803342466574442,-0.05271292199979193,-0.010919678551719676,0.006338095297285226,0.06862939191635853,-0.01900262347776316,0.002643941793706972,0.053505104035139084,-0.06979365646839142,-0.013703920878469935,0.0,-1.1422472810857,-0.3591999166550077,14.147207911118645,0.0,0.0,0.0,0.0,0.0,0.9221914206793125,0.0,0.0,0.048596237727969914,0.0,0.0,0.0,0.0,0.0,0.0
4.550000928000013,0.04980110004544258,-0.003941900096833706,0.9109238982200623,-0.05708207064883592,-0.013325315097180693,0.04788940412922685,0.04980110004544258,-0.003941900096833706,-0.01366267164128332,-0.05708207064883592,-0.013325315097180693,0.0006740370561440431,0.06753983023758892,-0.027080583697854266,0.0013307414248977523,0.12602293491363525,-0.10477595776319504,-0.019875295460224138,0.0,-1.092163064868239,-0.3197750123128277,14.05493314798414,0.0,0.0,0.0,0.0,0.0,0.9245865698613456,0.0,0.0,0.047215367073082805,0.0,0.0,0.0,0.0,0.0,0.0
4.6000009280000125,0.04777044802904129,-0.004835139028728008,0.9139896035194397,-0.05937779616461975,-0.0018217276908419717,0.0460360671931279,0.04777044802904129,-0.004835139028728008,-0.01292391344566668,-0.05937779616461975,-0.0018217276908419717,0.00016799651367127577,0.06943068268948727,-0.012094721699889455,0.00618810735129216,-0.0023416797630488873,-0.012280019931495191,-0.011669588275253771,0.0,-1.0585286151451356,-0.2964517956457602,14.121381104076693,0.0,0.0,0.0,0.0,0.0,0.9269135169651064,0.0,0.0,0.04586807067945663,0.0,0.0,0.0,0.0,0.0,0.0
4.650000928000012,0.04597260057926178,-0.004594259895384312,0.9160681366920471,-0.05395748655673798,-0.0011891231527202434,0.04155129455260817,0.04597260057926178,-0.004594259895384312,-0.013105791316608828,-0.05395748655673798,-0.0011891231527202434,-0.0030025441078122897,0.07129565082016764,-0.026519981382324698,-0.0017266782652778367,0.01898811012506485,0.04484090209007263,-0.01966171711683274,0.0,-1.0399015633422015,-0.37811299413273886,14.112870860789307,0.0,0.0,0.0,0.0,0.0,0.929173928008656,0.0,0.0,0.04455383866042046,0.0,0.0,0.0,0.0,0.0,0.0
4.700000928000012,0.043750397861003876,-0.005048998631536961,0.9189537763595581,-0.047869127259783525,-0.006381619866816875,0.0375232543410138,0.043750397861003876,-0.005048998631536961,-0.012415666858010876,-0.047869127259783525,-0.006381619866816875,-0.0057488951548191405,0.07109227943214824,-0.02223048724673715,-0.0010496229867831275,0.04532742500305176,0.024099515751004216,-0.0248487014323473,0.0,-1.080901954930184,-0.38291716315770036,14.158474810073734,0.0,0.0,0.0,0.0,0.0,0.931369443217569,0.0,0.0,0.04327214949583294,0.0,0.0,0.0,0.0,0.0,0.0
4.750000928000012,0.04125455394387245,-0.005951622501015663,0.9211003184318542,-0.05912735885552374,-0.009918863924728152,0.03504066553497788,0.04125455394387245,-0.005951622501015663,-0.012401358054304756,-0.05912735885552374,-0.009918863924728152,-0.006981806193348795,0.07771134601271124,-0.024009509108739557,0.0006755926131294387,0.066329225897789,-0.08030412346124649,-0.016542984172701825,0.0,-1.1246066150980099,-0.3395991637985777,14.177308741005977,0.0,0.0,0.0,0.0,0.0,0.933501676486159,0.0,0.0,0.042022471728326675,0.0,0.0,0.0,0.0,0.0,0.0
4.800000928000012,0.037775784730911255,-0.007696386892348528,0.9240060448646545,-0.06398917160990547,-0.022392002544466175,0.03819413188805626,0.037775784730911255,-0.007696386892348528,-0.011566170055957836,-0.06398917160990547,-0.022392002544466175,-0.0026101336563608066,0.10055210776134293,-0.008540480319409127,0.013782705996002065,0.05415097251534462,-0.05886124446988106,-0.012962813489139073,0.0,-1.033922105927919,-0.3062191407895681,14.1955258793745,0.0,0.0,0.0,0.0,0.0,0.9355722149206124,0.0,0.0,0.040804265544417066,0.0,0.0,0.0,0.0,0.0,0.0
4.850000928000012,0.03577691689133644,-0.008506177924573421,0.925327479839325,-0.06090333686831424,-0.019357742465746522,0.033561983427101386,0.03577691689133644,-0.008506177924573421,-0.012255138619105876,-0.06090333686831424,-0.019357742465746522,-0.006055000819795882,0.07999397587379198,-0.026646499201676832,-0.0005931184189189587,-0.06777487695217133,0.020328594371676445,0.012325662188231943,0.0,-0.9858229705320445,-0.19965576847258437,14.12776597637519,0.0,0.0,0.0,0.0,0.0,0.9375826184584308,0.0,0.0,0.03961698424689727,0.0,0.0,0.0,0.0,0.0,0.0
4.900000928000011,0.03418701887130737,-0.00935080274939537,0.9269970059394836,-0.0649149290328566,-0.020406506682240595,0.0309475527441511,0.03418701887130737,-0.00935080274939537,-0.0125374136194224,-0.0649149290328566,-0.020406506682240595,-0.007512522880462228,0.0735684809483641,-0.028535270496541365,-0.003873556770694009,-0.08501889556646347,0.059727199375629425,-0.011223407462239272,0.0,-1.0051800377496822,-0.2155727583052986,14.189111693686085,0.0,0.0,0.0,0.0,0.0,0.939534419558906,0.0,0.0,0.03846007562461333,0.0,0.0,0.0,0.0,0.0,0.0
4.950000928000011,0.030780358240008354,-0.011458762921392918,0.9299349188804626,-0.06415372882216065,-0.02975525991952499,0.03905638120196151,0.030780358240008354,-0.011458762921392918,-0.011494204079174675,-0.06415372882216065,-0.02975525991952499,0.0017233979765578777,0.072065239963651,-0.024640681508527607,-0.004291208019105319,-0.05752488225698471,0.02535988576710224,0.0023169871419668167,0.0,-0.9720434554651987,-0.20002100011437307,14.2173655778608,0.0,0.0,0.0,0.0,0.0,0.9414291229596373,0.0,0.0,0.03733298322540363,0.0,0.0,0.0,0.0,0.0,0.0
5.000000928000011,0.027984848245978355,-0.013263804838061333,0.9322260618209839,-0.060681405488558056,-0.03010234535500537,0.03299469365760064,0.027984848245978355,-0.013263804838061333,-0.011042143673406501,-0.060681405488558056,-0.03010234535500537,-0.003240453880089908,0.06366783045917712,-0.021397204672505943,-0.006080907812651137,-0.09823475033044815,0.06935609877109528,-0.002313449978828439,0.0,-0.9652826770288869,-0.11407822092469944,14.087701010581231,0.0,0.0,0.0,0.0,0.0,0.9432682054943904,0.0,0.0,0.03623514753769055,0.0,0.0,0.0,0.0,0.0,0.0
5.050000928000011,0.025302205234766006,-0.01507444866001606,0.9342339634895325,-0.0650907239011449,-0.03168651068737098,0.027427933102219918,0.025302205234766006,-0.01507444866001606,-0.010819152478329097,-0.0650907239011449,-0.03168651068737098,-0.007738073983710663,0.059626700227335405,-0.018154178415213273,-0.005708632079215459,-0.1018603965640068,0.055230651050806046,-0.01227694749832154,0.0,-0.9816569261811834,-0.09759409355444082,14.137652872852625,0.0,0.0,0.0,0.0,0.0,0.9450531159678616,0.0,0.0,0.03516600708593058,0.0,0.0,0.0,0.0,0.0,0.0
5.100000928000011,0.022170310840010643,-0.016814906150102615,0.936119556427002,-0.07578221713498991,-0.03758986277942399,0.024560874843721808,0.022170310840010643,-0.016814906150102615,-0.010665718656161616,-0.07578221713498991,-0.03758986277942399,-0.009564124601140343,0.05624791214209868,-0.022743120786415272,-0.005403343213469469,-0.08323134481906891,-0.0670737624168396,0.013291258364915856,0.0,-0.9378039063030958,-0.07114828021931602,14.188077458113787,0.0,0.0,0.0,0.0,0.0,0.9467852750831636,0.0,0.0,0.03412499944486215,0.0,0.0,0.0,0.0,0.0,0.0
5.1500009280000105,0.019102195277810097,-0.018107477575540543,0.9375805258750916,-0.07249855317692437,-0.02430347604387471,0.017694422007522047,0.019102195277810097,-0.018107477575540543,-0.010885549543001471,-0.07249855317692437,-0.02430347604387471,-0.01541714016971206,0.06777839572250022,-0.02353004093813471,0.0018259429206306521,-0.17783240973949432,-0.02115364000201225,0.03515271469950676,0.0,-0.84264255260535,-0.011497297192783529,14.209288875002164,0.0,0.0,0.0,0.0,0.0,0.948466075418093,0.0,0.0,0.033111562177234106,0.0,0.0,0.0,0.0,0.0,0.0
5.20000092800001,0.015874724835157394,-0.018774617463350296,0.938448965549469,-0.07423937829613614,-0.02206170617705175,0.010908574253015023,0.015874724835157394,-0.018774617463350296,-0.011647915896993766,-0.07423937829613614,-0.02206170617705175,-0.021216559446441942,0.0492284483656511,-0.023550197115917104,-0.004176676765338616,-0.11561732739210129,-0.006685466971248388,0.00197131047025323,0.0,-0.8534084420362515,-0.10026893605968956,14.286877504175127,0.0,0.0,0.0,0.0,0.0,0.9500968814464628,0.0,0.0,0.032125133699456965,0.0,0.0,0.0,0.0,0.0,0.0
5.25000092800001,0.01306386198848486,-0.01982969231903553,0.9394639730453491,-0.06491843580671956,-0.026567521018189245,0.012151330769839269,0.01306386198848486,-0.01982969231903553,-0.012215056555655468,-0.06491843580671956,-0.026567521018189245,-0.01901382330954776,0.04479532410168119,-0.02436757419836111,-0.005478966256527329,-0.0014407485723495483,0.0399591401219368,0.02337723411619663,0.0,-0.824297531210961,-0.10817394793380514,14.377873611778202,0.0,0.0,0.0,0.0,0.0,0.9516790296010046,0.0,0.0,0.031165154079387032,0.0,0.0,0.0,0.0,0.0,0.0
5.30000092800001,0.010648578405380249,-0.020595666021108627,0.9402406811714172,-0.06153777865993198,-0.022804425709988103,0.014516865737958493,0.010648578405380249,-0.020595666021108627,-0.012973147203129587,-0.06153777865993198,-0.022804425709988103,-0.01571420003227661,0.04358395781561919,-0.021824184367037702,-0.006498314455943177,0.07341450452804565,0.04165363311767578,-0.013201859779655939,0.0,-0.8811024236039495,-0.062368581732065664,14.371181040866203,0.0,0.0,0.0,0.0,0.0,0.9532138283745468,0.0,0.0,0.030231065770235103,0.0,0.0,0.0,0.0,0.0,0.0
5.35000092800001,0.007702980190515518,-0.02152249403297901,0.941392719745636,-0.06464390814850618,-0.014259588026449206,0.00988444667452494,0.007702980190515518,-0.02152249403297901,-0.013309838710734434,-0.06464390814850618,-0.014259588026449206,-0.0194378676098571,0.04572509514029477,-0.01979711466479106,-0.008331483872972445,0.07104779779911041,0.008071945980191229,-0.008251545019447805,0.0,-0.8943042556723606,-0.08084909977325228,14.356548277804105,0.0,0.0,0.0,0.0,0.0,0.9547025584563704,0.0,0.0,0.029322314284382037,0.0,0.0,0.0,0.0,0.0,0.0
5.40000092800001,0.0049658967182040215,-0.02181590348482132,0.9424572587013245,-0.062421349177787744,0.0024043686125476828,0.01130990042031224,0.0049658967182040215,-0.02181590348482132,-0.013689214199503974,-0.062421349177787744,0.0024043686125476828,-0.017128448390373398,0.049840953321024895,-0.02052073026960466,-0.005565125663193893,-4.096596967428923e-06,0.07023698836565018,0.01607831567525863,0.0,-0.8546632301250767,-0.13506212319922878,14.413106578610106,0.0,0.0,0.0,0.0,0.0,0.9561464729008284,0.0,0.0,0.02843834881068564,0.0,0.0,0.0,0.0,0.0,0.0
5.4500009280000095,0.0017316133016720414,-0.021339230239391327,0.9440360069274902,-0.06752578804574656,0.008104494267552336,0.012707041543288883,0.0017316133016720414,-0.021339230239391327,-0.01351079039799874,-0.06752578804574656,0.008104494267552336,-0.014871581235385319,0.045468790840264894,-0.017413023994251375,-0.006676880166350152,-0.024536196142435074,0.004267347045242789,0.01940782740712166,0.0,-0.855989667661641,-0.2549073889558156,14.400713176158382,0.0,0.0,0.0,0.0,0.0,0.957546797325489,0.0,0.0,0.027578622778674202,0.0,0.0,0.0,0.0,0.0,0.0
