time,pos_x,pos_y,pos_z,vel_x,vel_y,vel_z,pos_xo,pos_yo,pos_zo,vel_xo,vel_yo,vel_zo,roll,pitch,yaw,roll_vel,pitch_vel,yaw_vel,thrust_z,force_x,force_y,force_z,torque_x,torque_y,torque_z,pos_xd,pos_yd,pos_zd,vel_xd,vel_yd,vel_zd,roll_d,pitch_d,yaw_d,roll_vel_d,pitch_vel_d,yaw_vel_d
0.005,-0.0076181348686220575,0.013069841095992485,0.9786014731815631,-0.02338254086655735,0.040943473022249204,-0.37174536850311385,-0.0076181348686220575,0.013069841095992485,0.5786014731815631,-0.02338254086655735,0.040943473022249204,-0.37174536850311385,-0.0035610404099484048,0.012939955692542299,-0.01036416884203444,-0.017548441561527173,0.01478501030042092,-0.008789907439131715,0.0,0.0,0.0,0.0,0.0,0.0,0.0,0.0,0.0,0.4,0.0,0.0,0.0,0.0,0.0,0.0,0.0,0.0,0.0
0.01,-0.007657202471962703,0.013227440174970878,0.9767082467939933,0.018183333233650414,0.018010556456783403,-0.40822590591307184,-0.0076181348686220575,0.013069841095992485,0.5786014731815631,-0.02338254086655735,0.040943473022249204,-0.37174536850311385,-0.0030984635929777508,0.014055325664825626,-0.010443491944338612,0.30605156064517924,0.6091460432334588,-0.025823757861744435,0.0,3.5351529121398926,-1.5548112988471985,0.01427525281906128,0.0,0.0,0.0,0.0,0.0,0.40000478721917954,0.0,0.0,0.001912335339540464,0.0,0.0,0.0,0.0,0.0,0.0
0.015,-0.007299942125322782,0.013195063712198028,0.9745882886508055,0.11911377900813991,-0.026490171980609524,-0.42107777668262014,-0.0076181348686220575,0.013069841095992485,0.5786014731815631,-0.02338254086655735,0.040943473022249204,-0.37174536850311385,0.0001966857371948931,0.02091332966774577,-0.010686958007661519,0.92978181635435,2.0436519671159425,-0.06479210626986362,0.0,3.5351529121398926,-1.5548112988471985,0.01427525281906128,0.0,0.0,0.0,0.0,0.0,0.4000190979065458,0.0,0.0,0.0038094025529743134,0.0,0.0,0.0,0.0,0.0,0.0
0.02,-0.00637128400368863,0.012977262837696905,0.9724226823611024,0.24108625927116764,-0.05532979904921831,-0.4268101489035411,-0.0076181348686220575,0.013069841095992485,0.5786014731815631,-0.02338254086655735,0.040943473022249204,-0.37174536850311385,0.006055586158072657,0.03586298421475425,-0.01106075061878379,1.3256116120190364,3.772786237314409,-0.09631301377429968,0.0,3.5351529121398926,-1.5548112988471985,0.01427525281906128,0.0,0.0,0.0,0.0,0.0,0.4000428559502358,0.0,0.0,0.00569129306608472,0.0,0.0,0.0,0.0,0.0,0.0
0.025,-0.004990826458421571,0.012625141316379259,0.9703267008485998,0.31745993065036876,-0.09167689818196523,-0.4490421058056229,-0.0076181348686220575,0.013069841095992485,0.5786014731815631,-0.02338254086655735,0.040943473022249204,-0.37174536850311385,0.013607868180653996,0.05711690561560058,-0.011358508205234452,1.8387699673035207,4.861969348109219,-0.11147055882015842,0.0,3.5351529121398926,-1.5548112988471985,0.01427525281906128,0.0,0.0,0.0,0.0,0.0,0.40007598569429814,0.0,0.0,0.0075580978180245905,0.0,0.0,0.0,0.0,0.0,0.0
0.030000000000000002,-0.0033565954892983887,0.012100772855376751,0.9679229848846973,0.3091395531732328,-0.1078208370221474,-0.4919112133044986,-0.0076181348686220575,0.013069841095992485,0.5786014731815631,-0.02338254086655735,0.040943473022249204,-0.37174536850311385,0.023767550432281865,0.08208517292236059,-0.011443319369671528,2.068797770385711,4.741619291745947,-0.09913212714501636,0.0,3.5351529121398926,-1.5548112988471985,0.01427525281906128,0.0,0.0,0.0,0.0,0.0,0.40011841193626585,0.0,0.0,0.009409907263744853,0.0,0.0,0.0,0.0,0.0,0.0
0.035,-0.0018727534122296129,0.011551915565846168,0.9653120032965582,0.2737657373393827,-0.10329009597509065,-0.5288757249966262,-0.0076181348686220575,0.013069841095992485,0.5786014731815631,-0.02338254086655735,0.040943473022249204,-0.37174536850311385,0.03429459854302137,0.10488286006836349,-0.011227230373842883,2.0003180446643545,4.229624474195175,-0.07754216797663126,0.0,3.5351529121398926,-1.5548112988471985,0.01427525281906128,0.0,0.0,0.0,0.0,0.0,0.40017005992474053,0.0,0.0,0.011246811376411116,0.0,0.0,0.0,0.0,0.0,0.0
0.04,-0.000609978346552062,0.011100496873909536,0.9626862984278859,0.2559406579758002,-0.08438913795394554,-0.5638576633933181,-0.0076181348686220575,0.013069841095992485,0.5786014731815631,-0.02338254086655735,0.040943473022249204,-0.37174536850311385,0.0432725198930663,0.12438856528259025,-0.010798466905425567,1.7229611096566502,3.967894659022953,-0.06299331183538158,0.0,3.5351529121398926,-1.5548112988471985,0.01427525281906128,0.0,0.0,0.0,0.0,0.0,0.400230855356991,0.0,0.0,0.01306889964980876,0.0,0.0,0.0,0.0,0.0,0.0
0.045,0.0007022654820534636,0.010686708188836228,0.9596937384257562,0.26078295554107184,-0.0821037489518612,-0.6081217557935366,-0.0076181348686220575,0.013069841095992485,0.5786014731815631,-0.02338254086655735,0.040943473022249204,-0.37174536850311385,0.05188442878782757,0.14466159517810206,-0.010113061907008834,1.6871655940117658,4.035491574340983,-0.049551860309172455,0.0,3.5351529121398926,-1.5548112988471985,0.01427525281906128,0.0,0.0,0.0,0.0,0.0,0.40030072437656083,0.0,0.0,0.014876261100736476,0.0,0.0,0.0,0.0,0.0,0.0
0.049999999999999996,0.0020605993699681618,0.010235687444417973,0.9564745384617424,0.2681902634647463,-0.09378068543961143,-0.6510202860392622,-0.0076181348686220575,0.013069841095992485,0.5786014731815631,-0.02338254086655735,0.040943473022249204,-0.37174536850311385,0.06106780726381193,0.16554641879888707,-0.009138920360843144,1.8492211394438955,4.128085331827941,-0.036758894370807135,0.0,3.5351529121398926,-1.5548112988471985,0.01427525281906128,0.0,0.0,0.0,0.0,0.0,0.4003795935708907,0.0,0.0,0.016668984271388368,0.0,0.0,0.0,0.0,0.0,0.0
0.05499999999999999,0.003331337178279801,0.009781973902495156,0.953257675668091,0.25701591054183526,-0.09135712261849549,-0.686318644591717,0.003331337178279801,0.009781973902495156,0.5527902856991407,0.25701591054183526,-0.09135712261849549,-0.7047658018234416,0.07015122757914345,0.18497057910743187,-0.007995622050914893,1.8068942181953658,3.938663503909485,-0.026459258286508712,0.0,3.5351529121398926,-1.5548112988471985,0.01427525281906128,0.0,0.0,0.0,0.0,0.0,0.40046738996895037,0.0,0.0,0.018447157231724604,0.0,0.0,0.0,0.0,0.0,0.0
0.05999999999999999,0.004543694177266007,0.009417960700517928,0.9497162010293487,0.2122489961843608,-0.043376729329366134,-0.6942780672379578,0.003331337178279801,0.009781973902495156,0.5527902856991407,0.25701591054183526,-0.09135712261849549,-0.7047658018234416,0.07806080370504884,0.20331129931682654,-0.006749247351216495,1.0897748240969491,3.1868733121078905,-0.03527874531532161,0.0,-2.6492550373077393,4.168206453323364,0.26788395643234253,0.0,0.0,0.0,0.0,0.0,0.40056404103888354,0.0,0.0,0.020210867581830744,0.0,0.0,0.0,0.0,0.0,0.0
0.06499999999999999,0.005459056870270703,0.009391526689891209,0.9462142079178075,0.14838850065435236,0.030020784705850498,-0.6782688579349461,0.003331337178279801,0.009781973902495156,0.5527902856991407,0.25701591054183526,-0.09135712261849549,-0.7047658018234416,0.08084064916205103,0.21665698570667657,-0.005956401629850697,-0.018935381965802148,2.097829473463155,-0.08139007750508516,0.0,-2.6492550373077393,4.168206453323364,0.26788395643234253,0.0,0.0,0.0,0.0,0.0,0.40066947468566505,0.0,0.0,0.02196020245426571,0.0,0.0,0.0,0.0,0.0,0.0
0.06999999999999999,0.006009328429287104,0.009727375101485487,0.9430149670192348,0.08322588766564726,0.10651800572137005,-0.6550292784595054,0.003331337178279801,0.009781973902495156,0.5527902856991407,0.25701591054183526,-0.09135712261849549,-0.7047658018234416,0.07784413890299724,0.2239146966647673,-0.005912096849783143,-1.1857291747402037,0.9660317436301074,-0.1394841738550115,0.0,-2.6492550373077393,4.168206453323364,0.26788395643234253,0.0,0.0,0.0,0.0,0.0,0.40078361924876804,0.0,0.0,0.023695248516398523,0.0,0.0,0.0,0.0,0.0,0.0
0.075,0.006242115470702605,0.010502197603281024,0.9397439350009746,0.011743808708157333,0.19181962598128713,-0.6296166270199285,0.003331337178279801,0.009781973902495156,0.5527902856991407,0.25701591054183526,-0.09135712261849549,-0.7047658018234416,0.0681211099550459,0.2255338034892694,-0.006690669718563864,-2.4835787281290638,-0.28679046309967376,-0.2017994941500969,0.0,-2.6492550373077393,4.168206453323364,0.26788395643234253,0.0,0.0,0.0,0.0,0.0,0.40090640349984485,0.0,0.0,0.025416091972733854,0.0,0.0,0.0,0.0,0.0,0.0
0.08,0.006106251060051953,0.011715146579857443,0.9365968320457553,-0.06051504821584974,0.277457959852604,-0.6069964870692924,0.003331337178279801,0.009781973902495156,0.5527902856991407,0.25701591054183526,-0.09135712261849549,-0.7047658018234416,0.05164764434020312,0.22076338924747935,-0.008200504673496891,-3.76362881966228,-1.5371569230512032,-0.26078298500975555,0.0,-2.6492550373077393,4.168206453323364,0.26788395643234253,0.0,0.0,0.0,0.0,0.0,0.40103775664041785,0.0,0.0,0.027122818567226366,0.0,0.0,0.0,0.0,0.0,0.0
0.085,0.005600334196485236,0.013203852278429937,0.9337472970906792,-0.1494334661881612,0.3314413875295639,-0.5803436115700998,0.003331337178279801,0.009781973902495156,0.5527902856991407,0.25701591054183526,-0.09135712261849549,-0.7047658018234416,0.03090335893505605,0.20988777062583983,-0.010057908616689733,-4.5689585225849685,-3.00984536185347,-0.3047333068630644,0.0,-2.6492550373077393,4.168206453323364,0.26788395643234253,0.0,0.0,0.0,0.0,0.0,0.40117760829958227,0.0,0.0,0.028815513585584013,0.0,0.0,0.0,0.0,0.0,0.0
0.09000000000000001,0.004522327258396477,0.014982011047947767,0.9308792217484119,-0.267094281050681,0.3595474237073281,-0.5466964980879623,0.003331337178279801,0.009781973902495156,0.5527902856991407,0.25701591054183526,-0.09135712261849549,-0.7047658018234416,0.005965121758390046,0.1895575108307425,-0.012075245982396754,-4.981865971386781,-4.889755321688543,-0.32541952185396167,0.0,-2.6492550373077393,4.168206453323364,0.26788395643234253,0.0,0.0,0.0,0.0,0.0,0.4013258885317216,0.0,0.0,0.030494261857560257,0.0,0.0,0.0,0.0,0.0,0.0
0.09500000000000001,0.0029377882189927824,0.016830107518979086,0.9280936281438915,-0.3377320640648397,0.3580046097454708,-0.553870848978371,0.003331337178279801,0.009781973902495156,0.5527902856991407,0.25701591054183526,-0.09135712261849549,-0.7047658018234416,-0.019810815875182318,0.16125293992796896,-0.013548253728537334,-4.945153987999845,-5.97315437191799,-0.31909297340746323,0.0,-2.6492550373077393,4.168206453323364,0.26788395643234253,0.0,0.0,0.0,0.0,0.0,0.40148252781423244,0.0,0.0,0.03215914775923528,0.0,0.0,0.0,0.0,0.0,0.0
0.10000000000000002,0.0012854223572371752,0.018531510005315437,0.9253338115437766,-0.3377771042555672,0.34936012771260905,-0.5968511088022583,0.003331337178279801,0.009781973902495156,0.5527902856991407,0.25701591054183526,-0.09135712261849549,-0.7047658018234416,-0.04327229164758695,0.1321702742356426,-0.014104430928917399,-4.8007222039793955,-5.973963401750373,-0.2932944078447522,0.0,-2.6492550373077393,4.168206453323364,0.26788395643234253,0.0,0.0,0.0,0.0,0.0,0.40164745704526283,0.0,0.0,0.03381025521528627,0.0,0.0,0.0,0.0,0.0,0.0
0.10500000000000002,-0.0003386374214146143,0.020281580250204042,0.9221663600598277,-0.29559636449785637,0.3357119959095325,-0.6416424495718673,-0.0003386374214146143,0.020281580250204042,0.5203457525183677,-0.29559636449785637,0.3357119959095325,-0.6770901172731142,-0.0671390108488284,0.10313299063017228,-0.01392424455145617,-4.575790276228533,-5.381795381122887,-0.2662150749971476,0.0,-2.6492550373077393,4.168206453323364,0.26788395643234253,0.0,0.0,0.0,0.0,0.0,0.40182060754146,0.0,0.0,0.03544766770124683,0.0,0.0,0.0,0.0,0.0,0.0
0.11000000000000003,-0.0016931737965096318,0.021905881524751737,0.9188172523662264,-0.23467400024575283,0.2960014108012743,-0.666259931664546,-0.0003386374214146143,0.020281580250204042,0.5203457525183677,-0.29559636449785637,0.3357119959095325,-0.6770901172731142,-0.08898392919527925,0.07785194798759325,-0.01327020692072431,-3.962811063417856,-4.536173201350044,-0.2557993818059235,0.0,5.346848845481873,-5.8516316413879395,1.9660687446594238,0.0,0.0,0.0,0.0,0.0,0.4020019110357309,0.0,0.0,0.03707146824575544,0.0,0.0,0.0,0.0,0.0,0.0
0.11500000000000003,-0.002669566547405372,0.02320987338591505,0.915591239658163,-0.17408953405372682,0.24872159671267158,-0.6763107256964472,-0.0003386374214146143,0.020281580250204042,0.5203457525183677,-0.29559636449785637,0.3357119959095325,-0.6770901172731142,-0.10611389350602161,0.058206378557458714,-0.012578913979262802,-3.2368731976304677,-3.6854119672536267,-0.2558353812557298,0.0,5.346848845481873,-5.8516316413879395,1.9660687446594238,0.0,0.0,0.0,0.0,0.0,0.402191299675013,0.0,0.0,0.03868173943279329,0.0,0.0,0.0,0.0,0.0,0.0
0.12000000000000004,-0.003382177223626809,0.024336165942625068,0.9121317770843407,-0.10640770523167181,0.1929596240171294,-0.6783485003287563,-0.0003386374214146143,0.020281580250204042,0.5203457525183677,-0.29559636449785637,0.3357119959095325,-0.6770901172731142,-0.12033933821477494,0.041912666114172784,-0.012042814332113504,-2.3664168700992176,-2.7169187790118636,-0.25773870358795004,0.0,5.346848845481873,-5.8516316413879395,1.9660687446594238,0.0,0.0,0.0,0.0,0.0,0.40238870601805676,0.0,0.0,0.04027856340391121,0.0,0.0,0.0,0.0,0.0,0.0
0.12500000000000003,-0.0037345836735401127,0.02515580042885813,0.9086852693798031,-0.03426102565133577,0.12987162789885953,-0.6721069182928738,-0.0003386374214146143,0.020281580250204042,0.5203457525183677,-0.29559636449785637,0.3357119959095325,-0.6770901172731142,-0.12973816054089715,0.030769494258767256,-0.011978934051502669,-1.3524575052478691,-1.6702200284797915,-0.262704696103407,0.0,5.346848845481873,-5.8516316413879395,1.9660687446594238,0.0,0.0,0.0,0.0,0.0,0.4025940630332189,0.0,0.0,0.04186202186044599,0.0,0.0,0.0,0.0,0.0,0.0
0.13000000000000003,-0.0037238829539379932,0.02561911523668273,0.9054854029045858,0.0353457940952824,0.06599829834795953,-0.6609903857673995,-0.0003386374214146143,0.020281580250204042,0.5203457525183677,-0.29559636449785637,0.3357119959095325,-0.6770901172731142,-0.1336521875726767,0.025178916572478872,-0.012512524843533634,-0.325631390245151,-0.666476791085339,-0.2626801194508065,0.0,5.346848845481873,-5.8516316413879395,1.9660687446594238,0.0,0.0,0.0,0.0,0.0,0.40280730409626664,0.0,0.0,0.04343219606572607,0.0,0.0,0.0,0.0,0.0,0.0
0.13500000000000004,-0.0033433675594621505,0.02576845783717708,0.9021507530942101,0.10976792131629443,-0.0031690738144466296,-0.6473215258383972,-0.0003386374214146143,0.020281580250204042,0.5203457525183677,-0.29559636449785637,0.3357119959095325,-0.6770901172731142,-0.13236619485256246,0.024483520734826767,-0.013760773208937104,0.7750076864049843,0.4012710515098167,-0.2594743959163287,0.0,5.346848845481873,-5.8516316413879395,1.9660687446594238,0.0,0.0,0.0,0.0,0.0,0.403028362988194,0.0,0.0,0.04498916684726656,0.0,0.0,0.0,0.0,0.0,0.0
0.14000000000000004,-0.0025872625583703156,0.02557661083406018,0.8988796511244534,0.18189665336092295,-0.06716009343632615,-0.6367501290566799,-0.0003386374214146143,0.020281580250204042,0.5203457525183677,-0.29559636449785637,0.3357119959095325,-0.6770901172731142,-0.1256800915571853,0.02912202004509474,-0.015693141682703516,1.7964866745320462,1.4353854928920433,-0.25771512397744506,0.0,5.346848845481873,-5.8516316413879395,1.9660687446594238,0.0,0.0,0.0,0.0,0.0,0.4032571738930468,0.0,0.0,0.046533014598953766,0.0,0.0,0.0,0.0,0.0,0.0
0.14500000000000005,-0.0015465109045324273,0.02510197715144165,0.8958401922519379,0.24670900403919485,-0.12632346923292137,-0.6309410435152968,-0.0003386374214146143,0.020281580250204042,0.5203457525183677,-0.29559636449785637,0.3357119959095325,-0.6770901172731142,-0.11476819218450295,0.03817089470712064,-0.018012479943545563,2.7243978459531912,2.3606472115246366,-0.24937668499317223,0.0,5.346848845481873,-5.8516316413879395,1.9660687446594238,0.0,0.0,0.0,0.0,0.0,0.40349367139576164,0.0,0.0,0.04806381928321922,0.0,0.0,0.0,0.0,0.0,0.0
0.15000000000000005,-7.079766243728563e-05,0.024311099760406144,0.8926221698700859,0.32975500469147506,-0.1762335551060436,-0.6327276673558261,-0.0003386374214146143,0.020281580250204042,0.5203457525183677,-0.29559636449785637,0.3357119959095325,-0.6770901172731142,-0.0987776672440134,0.053044215570774676,-0.020865292627200306,3.4965746491387635,3.5410559985102923,-0.24289862697230505,0.0,5.346848845481873,-5.8516316413879395,1.9660687446594238,0.0,0.0,0.0,0.0,0.0,0.40373779048001235,0.0,0.0,0.0495816604332033,0.0,0.0,0.0,0.0,0.0,0.0
0.15500000000000005,0.0018294107800736446,0.023261245622988883,0.8893756401966598,0.40611549090440396,-0.2338058382495632,-0.6413120463926193,0.0018294107800736446,0.023261245622988883,0.48538617367058967,0.40611549090440396,-0.2338058382495632,-0.6923986635475275,-0.07893266347879763,0.07394579398795469,-0.02396380642116146,4.352520843038108,4.6204640032980695,-0.2379555779851446,0.0,5.346848845481873,-5.8516316413879395,1.9660687446594238,0.0,0.0,0.0,0.0,0.0,0.40398946652607015,0.0,0.0,0.0510866171549083,0.0,0.0,0.0,0.0,0.0,0.0
0.16000000000000006,0.0038017219967801134,0.022117744394833955,0.8862218180251609,0.39660514989586465,-0.22294256589193973,-0.6722110638704553,0.0018294107800736446,0.023261245622988883,0.48538617367058967,0.40611549090440396,-0.2338058382495632,-0.6923986635475275,-0.058009310538197995,0.096227743195217,-0.026588782957394638,4.201981239719658,4.464140949392233,-0.2150532253515911,0.0,-1.6632674932479858,3.684227228164673,1.8683604001998901,0.0,0.0,0.0,0.0,0.0,0.40424863530867283,0.0,0.0,0.052578768129341355,0.0,0.0,0.0,0.0,0.0,0.0
0.16500000000000006,0.005654859797710263,0.021178473172687964,0.8827531618104972,0.3304570980707092,-0.14658374302978866,-0.6845157479509485,0.0018294107800736446,0.023261245622988883,0.48538617367058967,0.40611549090440396,-0.2338058382495632,-0.6923986635475275,-0.039588185889860565,0.11623984808123654,-0.028647825354446425,3.1449410361065415,3.4392837960460705,-0.2098160525739907,0.0,-1.6632674932479858,3.684227228164673,1.8683604001998901,0.0,0.0,0.0,0.0,0.0,0.4045152329949051,0.0,0.0,0.05405819161464694,0.0,0.0,0.0,0.0,0.0,0.0
0.17000000000000007,0.007177793278098041,0.020612105206329973,0.879248537153245,0.26926557575499593,-0.0789139035551032,-0.6885285199485192,0.0018294107800736446,0.023261245622988883,0.48538617367058967,0.40611549090440396,-0.2338058382495632,-0.6923986635475275,-0.026303457204880087,0.13113303148252428,-0.030282531365204552,2.2036120704110784,2.47266092075749,-0.23533390788596537,0.0,-1.6632674932479858,3.684227228164673,1.8683604001998901,0.0,0.0,0.0,0.0,0.0,0.40478919614208964,0.0,0.0,0.055524965448229116,0.0,0.0,0.0,0.0,0.0,0.0
0.17500000000000007,0.008316880809497888,0.020407251517610952,0.8759534393487511,0.20797474369404723,-0.008406033230854973,-0.6837472068703299,0.0018294107800736446,0.023261245622988883,0.48538617367058967,0.40611549090440396,-0.2338058382495632,-0.6923986635475275,-0.018393871091066098,0.14046650739475608,-0.03171972782652375,1.2067681147931828,1.478492431081968,-0.27026096265712485,0.0,-1.6632674932479858,3.684227228164673,1.8683604001998901,0.0,0.0,0.0,0.0,0.0,0.40507046169568883,0.0,0.0,0.056979167048863626,0.0,0.0,0.0,0.0,0.0,0.0
0.18000000000000008,0.009198776662140024,0.020582539600164592,0.8724916932078992,0.1416799676162797,0.07298875146673832,-0.6741427849482187,0.0018294107800736446,0.023261245622988883,0.48538617367058967,0.40611549090440396,-0.2338058382495632,-0.6923986635475275,-0.015582112204333254,0.14501531396456938,-0.03329649184025146,0.04679447967806015,0.3808446039642729,-0.3088382368161852,0.0,-1.6632674932479858,3.684227228164673,1.8683604001998901,0.0,0.0,0.0,0.0,0.0,0.40535896698721685,0.0,0.0,0.058420873418799785,0.0,0.0,0.0,0.0,0.0,0.0
0.18500000000000008,0.00974685558891552,0.021175549722896606,0.869083052463657,0.07740835886373833,0.15422217216170353,-0.6632182208194728,0.0018294107800736446,0.023261245622988883,0.48538617367058967,0.40611549090440396,-0.2338058382495632,-0.6923986635475275,-0.018694404219942135,0.14402188114209324,-0.03496493961505947,-1.0981623028825651,-0.6905182689578806,-0.3432584623313055,0.0,-1.6632674932479858,3.684227228164673,1.8683604001998901,0.0,0.0,0.0,0.0,0.0,0.4056546497321616,0.0,0.0,0.05985016114585228,0.0,0.0,0.0,0.0,0.0,0.0
0.19000000000000009,0.009969857748527206,0.02210871244316771,0.8659231359158543,0.02021102949662726,0.22900222754694027,-0.6543105510986937,0.0018294107800736446,0.023261245622988883,0.48538617367058967,0.40611549090440396,-0.2338058382495632,-0.6923986635475275,-0.026858203503524754,0.13822895768312227,-0.036579690980199565,-2.1387424322373167,-1.6371289539780003,-0.3756757065961959,0.0,-1.6632674932479858,3.684227228164673,1.8683604001998901,0.0,0.0,0.0,0.0,0.0,0.4059574480279191,0.0,0.0,0.06126710640548294,0.0,0.0,0.0,0.0,0.0,0.0
0.1950000000000001,0.009919589694642295,0.0234847486888968,0.862601430255063,-0.03479351109595864,0.3042142593337012,-0.6498920291401524,0.0018294107800736446,0.023261245622988883,0.48538617367058967,0.40611549090440396,-0.2338058382495632,-0.6923986635475275,-0.040823185812751135,0.1273124186268414,-0.03822799990432519,-3.177079900867879,-2.5484292961493047,-0.40713987377116373,0.0,-1.6632674932479858,3.684227228164673,1.8683604001998901,0.0,0.0,0.0,0.0,0.0,0.4062673003517354,0.0,0.0,0.0626717849628724,0.0,0.0,0.0,0.0,0.0,0.0
0.2000000000000001,0.009575239910151313,0.025212674543645598,0.8592881105054996,-0.09763871123316444,0.365467786929057,-0.6504578571640314,0.0018294107800736446,0.023261245622988883,0.48538617367058967,0.40611549090440396,-0.2338058382495632,-0.6923986635475275,-0.05952011417506578,0.111594911442438,-0.039602888276245925,-3.998267809115986,-3.548853835927153,-0.43596665010248886,0.0,-1.6632674932479858,3.684227228164673,1.8683604001998901,0.0,0.0,0.0,0.0,0.0,0.4065841455586616,0.0,0.0,0.0640642721749819,0.0,0.0,0.0,0.0,0.0,0.0
0.2050000000000001,0.008996614057047552,0.027059122011137818,0.856127184111754,-0.13302496039039569,0.3959502514288338,-0.6694137617563519,0.008996614057047552,0.027059122011137818,0.4492192612322371,-0.13302496039039569,0.3959502514288338,-0.734858404748957,-0.079952825366581,0.09280420163209119,-0.040427548540137914,-4.398246527015345,-4.099644942348899,-0.4448496202733402,0.0,-1.6632674932479858,3.684227228164673,1.8683604001998901,0.0,0.0,0.0,0.0,0.0,0.40690792287951694,0.0,0.0,0.06544464299260506,0.0,0.0,0.0,0.0,0.0,0.0
0.2100000000000001,0.00833786622877974,0.029081574069825106,0.8526403025255389,-0.11217639366051764,0.3861874380588745,-0.6930357006436277,0.008996614057047552,0.027059122011137818,0.4492192612322371,-0.13302496039039569,0.3959502514288338,-0.734858404748957,-0.10231336135799711,0.07206388458005096,-0.0407490436432224,-4.2272638950225785,-3.8208196228015336,-0.417734379150529,0.0,2.511643409729004,-5.943867087364197,7.9891979694366455,0.0,0.0,0.0,0.0,0.0,0.4072385719188636,0.0,0.0,0.06681297196240991,0.0,0.0,0.0,0.0,0.0,0.0
0.2150000000000001,0.007937415935636011,0.030929059012772934,0.8491076589578155,-0.045842624936747574,0.33809412696757557,-0.6901124785202045,0.008996614057047552,0.027059122011137818,0.4492192612322371,-0.13302496039039569,0.3959502514288338,-0.734858404748957,-0.12192081962091182,0.05489928368557238,-0.040863437981785586,-3.4789092114896625,-2.895222334837575,-0.3804616435280643,0.0,2.511643409729004,-5.943867087364197,7.9891979694366455,0.0,0.0,0.0,0.0,0.0,0.40757603265299125,0.0,0.0,0.06816933322897092,0.0,0.0,0.0,0.0,0.0,0.0
0.2200000000000001,0.007858926348129656,0.03245505558332377,0.8458108165047644,0.009198448895742069,0.30005967567476255,-0.6840280110933316,0.008996614057047552,0.027059122011137818,0.4492192612322371,-0.13302496039039569,0.3959502514288338,-0.734858404748957,-0.13701544045182498,0.042880809337961005,-0.041053180919286086,-2.8608460659917077,-2.127475257682807,-0.3462676961395081,0.0,2.511643409729004,-5.943867087364197,7.9891979694366455,0.0,0.0,0.0,0.0,0.0,0.40792024542791083,0.0,0.0,0.06951380053679138,0.0,0.0,0.0,0.0,0.0,0.0
0.22500000000000012,0.008057120199840322,0.033870956031826015,0.8423501930795665,0.06608316750449017,0.2546686750301039,-0.6726070741116781,0.008996614057047552,0.027059122011137818,0.4492192612322371,-0.13302496039039569,0.3959502514288338,-0.734858404748957,-0.14970828416453782,0.03404918919823135,-0.04145848969557091,-2.1209029682947262,-1.3174802797282628,-0.30595632564656255,0.0,2.511643409729004,-5.943867087364197,7.9891979694366455,0.0,0.0,0.0,0.0,0.0,0.40827115095736055,0.0,0.0,0.07084644723231605,0.0,0.0,0.0,0.0,0.0,0.0
0.23000000000000012,0.00855184539245398,0.035025573722210705,0.8389631354401905,0.1255198222895684,0.1992531380921953,-0.6558156736877808,0.008996614057047552,0.027059122011137818,0.4492192612322371,-0.13302496039039569,0.3959502514288338,-0.734858404748957,-0.158170361369726,0.029466922632140683,-0.04221473902244264,-1.2157292262818435,-0.4508999213805825,-0.2654175034701719,0.0,2.511643409729004,-5.943867087364197,7.9891979694366455,0.0,0.0,0.0,0.0,0.0,0.4086286903208194,0.0,0.0,0.07216734626593393,0.0,0.0,0.0,0.0,0.0,0.0
0.23500000000000013,0.009251306988618216,0.03579279289417401,0.8358710283821895,0.15875478595319603,0.11998904402280629,-0.6328950201184566,0.008996614057047552,0.027059122011137818,0.4492192612322371,-0.13302496039039569,0.3959502514288338,-0.734858404748957,-0.1609756454026585,0.02858712075562351,-0.04326404225945879,0.05778209760783451,0.05599396746387481,-0.22565771291843428,0.0,2.511643409729004,-5.943867087364197,7.9891979694366455,0.0,0.0,0.0,0.0,0.0,0.40899280496153245,0.0,0.0,0.07347657019397169,0.0,0.0,0.0,0.0,0.0,0.0
0.24000000000000013,0.010086315336928935,0.036120360025747957,0.8327263135401578,0.16479330322995728,0.01278363195066011,-0.6009352058160942,0.008996614057047552,0.027059122011137818,0.4492192612322371,-0.13302496039039569,0.3959502514288338,-0.734858404748957,-0.15618097086557686,0.029187259437471066,-0.04438857942514361,1.772969754840296,0.1891501607035779,-0.1729963194748397,0.0,2.511643409729004,-5.943867087364197,7.9891979694366455,0.0,0.0,0.0,0.0,0.0,0.4093634366845452,0.0,0.0,0.07477419118067714,0.0,0.0,0.0,0.0,0.0,0.0
0.24500000000000013,0.010936884855943489,0.035896199484593126,0.8297337394504273,0.16946594324152367,-0.09214179774351208,-0.5756856062803045,0.008996614057047552,0.027059122011137818,0.4492192612322371,-0.13302496039039569,0.3959502514288338,-0.734858404748957,-0.14258868619029752,0.030301889829076632,-0.04530184577607822,3.4448516142266055,0.30365047065410483,-0.1224651550338162,0.0,2.511643409729004,-5.943867087364197,7.9891979694366455,0.0,0.0,0.0,0.0,0.0,0.40974052765474867,0.0,0.0,0.0760602810001935,0.0,0.0,0.0,0.0,0.0,0.0
0.2500000000000001,0.011859182967174281,0.035319980811375835,0.8269786598103304,0.22356825286562415,-0.13157721647360454,-0.575493625541268,0.008996614057047552,0.027059122011137818,0.4492192612322371,-0.13302496039039569,0.3959502514288338,-0.734858404748957,-0.12398197671647367,0.033266562272654336,-0.04622092344912084,4.0842176725919375,1.0887502167591974,-0.09976920489377923,0.0,2.511643409729004,-5.943867087364197,7.9891979694366455,0.0,0.0,0.0,0.0,0.0,0.41012402039493323,0.0,0.0,0.07733491103852384,0.0,0.0,0.0,0.0,0.0,0.0
0.2550000000000001,0.013161714797501374,0.03467812836339114,0.8239940029406905,0.27579224408573116,-0.11121293781635738,-0.5959656183017787,0.013161714797501374,0.03467812836339114,0.4134801451568374,0.27579224408573116,-0.11121293781635738,-0.674563770597265,-0.10358184612773327,0.04094619644772475,-0.04752490765552067,3.8239911340582204,1.802221091495572,-0.06677153946873496,0.0,2.511643409729004,-5.943867087364197,7.9891979694366455,0.0,0.0,0.0,0.0,0.0,0.4105138577838531,0.0,0.0,0.0785981522954863,0.0,0.0,0.0,0.0,0.0,0.0
0.2600000000000001,0.014534757100176914,0.03426063481597578,0.8208986384656272,0.24767242455658844,-0.0466688924818847,-0.6138124528103688,0.013161714797501374,0.03467812836339114,0.4134801451568374,0.27579224408573116,-0.11121293781635738,-0.674563770597265,-0.0861706667983231,0.04942852470709058,-0.04859417087777023,2.9639502293441007,1.3404874556679005,-0.040899029558190844,0.0,-2.466777205467224,1.9626994729042053,4.0820900201797485,0.0,0.0,0.0,0.0,0.0,0.4109099830542998,0.0,0.0,0.07985007538665972,0.0,0.0,0.0,0.0,0.0,0.0
0.2650000000000001,0.015574370415346935,0.0342341796383364,0.8179348121311255,0.18994560396797458,0.029529901296331693,-0.620555915515358,0.013161714797501374,0.03467812836339114,0.4134801451568374,0.27579224408573116,-0.11121293781635738,-0.674563770597265,-0.07462995860290449,0.053535393107096214,-0.04914008279352155,1.9482245117646795,0.4576318671511234,-0.0527846563214866,0.0,-2.466777205467224,1.9626994729042053,4.0820900201797485,0.0,0.0,0.0,0.0,0.0,0.41131233979118653,0.0,0.0,0.08109075054532004,0.0,0.0,0.0,0.0,0.0,0.0
0.27000000000000013,0.016378081448217577,0.03459360924609295,0.8147562056265754,0.12709028886326634,0.10915217346857259,-0.6245121934341104,0.013161714797501374,0.03467812836339114,0.4134801451568374,0.27579224408573116,-0.11121293781635738,-0.674563770597265,-0.06752279262309636,0.05332008336091296,-0.049482319672144316,0.8819327399760913,-0.5071178461428681,-0.08619466311530395,0.0,-2.466777205467224,1.9626994729042053,4.0820900201797485,0.0,0.0,0.0,0.0,0.0,0.41172087192964124,0.0,0.0,0.08232024762436707,0.0,0.0,0.0,0.0,0.0,0.0
0.27500000000000013,0.01683863390025201,0.035389498240828945,0.8115684819908539,0.057624510874934365,0.19891089471836518,-0.6254566480301844,0.013161714797501374,0.03467812836339114,0.4134801451568374,0.27579224408573116,-0.11121293781635738,-0.674563770597265,-0.06628898556000065,0.04780288960743867,-0.04967332107915123,-0.3406898982538866,-1.5910726371848571,-0.12926647024392135,0.0,-2.466777205467224,1.9626994729042053,4.0820900201797485,0.0,0.0,0.0,0.0,0.0,0.41213552375310925,0.0,0.0,0.0835386360982424,0.0,0.0,0.0,0.0,0.0,0.0
0.28000000000000014,0.016942517023507957,0.036558660561334416,0.8085607856150678,-0.009721293049738445,0.2818672368812787,-0.6279869930929194,0.013161714797501374,0.03467812836339114,0.4134801451568374,0.27579224408573116,-0.11121293781635738,-0.674563770597265,-0.07082306343458754,0.037482498454833854,-0.04968024896970178,-1.4639388334816397,-2.636163457659562,-0.16389031925965758,0.0,-2.466777205467224,1.9626994729042053,4.0820900201797485,0.0,0.0,0.0,0.0,0.0,0.4125562398914657,0.0,0.0,0.08474598506483777,0.0,0.0,0.0,0.0,0.0,0.0
0.28500000000000014,0.016776404960162035,0.03812978636566801,0.8053082137873622,-0.044007738655273146,0.3213767379707346,-0.6500953351103899,0.013161714797501374,0.03467812836339114,0.4134801451568374,0.27579224408573116,-0.11121293781635738,-0.674563770597265,-0.08004107218903682,0.02229030827292793,-0.04941593101778409,-1.991236500870467,-3.1530822784468104,-0.17441677308278822,0.0,-2.466777205467224,1.9626994729042053,4.0820900201797485,0.0,0.0,0.0,0.0,0.0,0.41298296531913825,0.0,0.0,0.08594236324739417,0.0,0.0,0.0,0.0,0.0,0.0
0.29000000000000015,0.016546589450647662,0.03977555376236959,0.8019037712151448,-0.039727093302096936,0.3176873636173668,-0.6822823604053326,0.013161714797501374,0.03467812836339114,0.4134801451568374,0.27579224408573116,-0.11121293781635738,-0.674563770597265,-0.09023388886201626,0.006180539372750728,-0.04889557476605901,-1.932158030824983,-3.082297626811648,-0.1583827124972027,0.0,-2.466777205467224,1.9626994729042053,4.0820900201797485,0.0,0.0,0.0,0.0,0.0,0.4134156453532377,0.0,0.0,0.0871278389963921,0.0,0.0,0.0,0.0,0.0,0.0
0.29500000000000015,0.016408420846986276,0.041246941361541126,0.7985711267769678,-0.0165739671364028,0.29406553374155675,-0.70348446342936,0.013161714797501374,0.03467812836339114,0.4134801451568374,0.27579224408573116,-0.11121293781635738,-0.674563770597265,-0.09870096094358018,-0.007783126330967786,-0.048287363011045366,-1.5869742235152986,-2.732011074586391,-0.13950670226730785,0.0,-2.466777205467224,1.9626994729042053,4.0820900201797485,0.0,0.0,0.0,0.0,0.0,0.4138542256516995,0.0,0.0,0.08830248029143234,0.0,0.0,0.0,0.0,0.0,0.0
0.30000000000000016,0.016379049131094645,0.0426927280712495,0.7949219702447993,0.0023689325668015543,0.27638633190399653,-0.7275949484146946,0.013161714797501374,0.03467812836339114,0.4134801451568374,0.27579224408573116,-0.11121293781635738,-0.674563770597265,-0.10598275204338824,-0.020836910958764346,-0.04760156536083615,-1.3237277463172623,-2.443424187234398,-0.11714603650651616,0.0,-2.466777205467224,1.9626994729042053,4.0820900201797485,0.0,0.0,0.0,0.0,0.0,0.41429865221143347,0.0,0.0,0.08946635474310793,0.0,0.0,0.0,0.0,0.0,0.0
0.30500000000000016,0.01639199874037792,0.04411000479377463,0.7911221388286311,0.0007013889710021058,0.28202092242759075,-0.7614165670032899,0.01639199874037792,0.04411000479377463,0.37637326746214694,0.0007013889710021058,0.28202092242759075,-0.8520360965981568,-0.11280081641099958,-0.03321317928885123,-0.046770909756391366,-1.3861713781026401,-2.461939653148892,-0.09013697426077621,0.0,-2.466777205467224,1.9626994729042053,4.0820900201797485,0.0,0.0,0.0,0.0,0.0,0.4147488713664842,0.0,0.0,0.09061952959486701,0.0,0.0,0.0,0.0,0.0,0.0
0.31000000000000016,0.016421826824328887,0.0454516292510787,0.7874284018804943,0.020956963633619652,0.26789786796493376,-0.7687832343903421,0.01639199874037792,0.04411000479377463,0.37637326746214694,0.0007013889710021058,0.28202092242759075,-0.8520360965981568,-0.1191886146847535,-0.04450721930229212,-0.04581578450814291,-1.1344391215043867,-2.1301205771293175,-0.06200676207290447,0.0,-0.45614831149578094,-5.951862573623657,13.81561028957367,0.0,0.0,0.0,0.0,0.0,0.41520482978619944,0.0,0.0,0.09176207172486651,0.0,0.0,0.0,0.0,0.0,0.0
0.31500000000000017,0.016652742502805302,0.04666742262054167,0.7835670012187895,0.06630038230495333,0.20858514626528513,-0.7453362401329988,0.01639199874037792,0.04411000479377463,0.37637326746214694,0.0007013889710021058,0.28202092242759075,-0.8520360965981568,-0.12263411744326189,-0.05326936520317987,-0.04498771753474274,-0.20402138492088928,-1.3792833801470874,-0.03256467712710701,0.0,-0.45614831149578094,-5.951862573623657,13.81561028957367,0.0,0.0,0.0,0.0,0.0,0.415666474473408,0.0,0.0,0.09289404764781724,0.0,0.0,0.0,0.0,0.0,0.0
0.3200000000000002,0.01703082852446368,0.04747622128012966,0.7798510958104319,0.0749382713182844,0.10627204446796439,-0.7118905535256133,0.01639199874037792,0.04411000479377463,0.37637326746214694,0.0007013889710021058,0.28202092242759075,-0.8520360965981568,-0.11976833696434239,-0.059299004830566014,-0.044314942445563735,1.3787042440146562,-1.1068149701219103,0.006363978606872789,0.0,-0.45614831149578094,-5.951862573623657,13.81561028957367,0.0,0.0,0.0,0.0,0.0,0.41613375276260767,0.0,0.0,0.09401552351681979,0.0,0.0,0.0,0.0,0.0,0.0
0.3250000000000002,0.017459084210365673,0.0477528647134361,0.7765113435015312,0.11139925523417933,0.021396545090401814,-0.6816132865284993,0.01639199874037792,0.04411000479377463,0.37637326746214694,0.0007013889710021058,0.28202092242759075,-0.8520360965981568,-0.10963500585543773,-0.06320604196326673,-0.04373660865300606,2.6837251729202287,-0.4435722853800876,0.038091769514164035,0.0,-0.45614831149578094,-5.951862573623657,13.81561028957367,0.0,0.0,0.0,0.0,0.0,0.41660661231816165,0.0,0.0,0.09512656512519153,0.0,0.0,0.0,0.0,0.0,0.0
0.3300000000000002,0.018208134145457015,0.047778697191807676,0.7730826686588776,0.1797928709161299,0.004754429077802436,-0.6663199197794459,0.01639199874037792,0.04411000479377463,0.37637326746214694,0.0007013889710021058,0.28202092242759075,-0.8520360965981568,-0.09463266482637628,-0.06260441120132106,-0.04353708192056201,2.983449708724655,0.6159039161552469,0.06049891288532525,0.0,-0.45614831149578094,-5.951862573623657,13.81561028957367,0.0,0.0,0.0,0.0,0.0,0.4170850011325039,0.0,0.0,0.09622723790828512,0.0,0.0,0.0,0.0,0.0,0.0
0.3350000000000002,0.019122807661150393,0.047934266179975524,0.7696750723087726,0.15926584217985146,0.06549808078702984,-0.6706586929268741,0.01639199874037792,0.04411000479377463,0.37637326746214694,0.0007013889710021058,0.28202092242759075,-0.8520360965981568,-0.08115005993071865,-0.05944294413823836,-0.04340981170433593,2.196078849355493,0.32988882219962734,0.0984751251262068,0.0,-0.45614831149578094,-5.951862573623657,13.81561028957367,0.0,0.0,0.0,0.0,0.0,0.41756886752435407,0.0,0.0,0.09731760694529785,0.0,0.0,0.0,0.0,0.0,0.0
0.3400000000000002,0.019768132588018385,0.04835016987883046,0.766452851063638,0.11768172159240398,0.09303950851498091,-0.6704942748137065,0.01639199874037792,0.04411000479377463,0.37637326746214694,0.0007013889710021058,0.28202092242759075,-0.8520360965981568,-0.07189601641063216,-0.05943465720280051,-0.04285691575211308,1.883496845842426,-0.2209824492585061,0.12693836017069443,0.0,-0.45614831149578094,-5.951862573623657,13.81561028957367,0.0,0.0,0.0,0.0,0.0,0.4180581601369411,0.0,0.0,0.09839773696107249,0.0,0.0,0.0,0.0,0.0,0.0
0.3450000000000002,0.02038122476710413,0.04875761016015448,0.7630509982746254,0.1320861754604516,0.06289344406228575,-0.6623308976060939,0.01639199874037792,0.04411000479377463,0.37637326746214694,0.0007013889710021058,0.28202092242759075,-0.8520360965981568,-0.06131213061498251,-0.060104996513505204,-0.04210638280378867,2.34219421100181,0.06851661318119295,0.14598735783337632,0.0,-0.45614831149578094,-5.951862573623657,13.81561028957367,0.0,0.0,0.0,0.0,0.0,0.41855282793623594,0.0,0.0,0.09946769232788925,0.0,0.0,0.0,0.0,0.0,0.0
0.3500000000000002,0.021103461723648617,0.049045830505444414,0.7596870532048603,0.1458147407994334,0.05954582704783335,-0.6578821825055735,0.01639199874037792,0.04411000479377463,0.37637326746214694,0.0007013889710021058,0.28202092242759075,-0.8520360965981568,-0.048954841474710915,-0.05888094389491997,-0.04138049122918698,2.400169771348502,0.3102934139312062,0.16244488216622327,0.0,-0.45614831149578094,-5.951862573623657,13.81561028957367,0.0,0.0,0.0,0.0,0.0,0.41905282020919365,0.0,0.0,0.1005275370672493,0.0,0.0,0.0,0.0,0.0,0.0
0.3550000000000002,0.021781797695405784,0.049374791809073344,0.7565395634964189,0.13341076140530256,0.07946504837712766,-0.6539024472779564,0.021781797695405784,0.049374791809073344,0.33698147693441616,0.13341076140530256,0.07946504837712766,-0.755479782129606,-0.038088197690482724,-0.057601455276748474,-0.040631470188395476,2.1308382593869335,0.15910366054744915,0.16889443741469903,0.0,-0.45614831149578094,-5.951862573623657,13.81561028957367,0.0,0.0,0.0,0.0,0.0,0.4195580865620028,0.0,0.0,0.10157733485164956,0.0,0.0,0.0,0.0,0.0,0.0
0.3600000000000002,0.022293701488923814,0.04992675409140681,0.7531979789803936,0.06103239772983475,0.14199214662472204,-0.6572372913534159,0.021781797695405784,0.049374791809073344,0.33698147693441616,0.13341076140530256,0.07946504837712766,-0.755479782129606,-0.029293851000540095,-0.05912943601033961,-0.0397569804874438,1.2794166144794512,-0.8621770832020185,0.1506436205916468,0.0,-2.5314103960990906,-2.319883346557617,10.00829815864563,0.0,0.0,0.0,0.0,0.0,0.42006857691834654,0.0,0.0,0.10261714900634873,0.0,0.0,0.0,0.0,0.0,0.0
0.3650000000000002,0.02245302296648839,0.05077750257284613,0.7498156446323212,0.01661990033876558,0.18154740968017846,-0.6692881644509283,0.021781797695405784,0.049374791809073344,0.33698147693441616,0.13341076140530256,0.07946504837712766,-0.755479782129606,-0.02456911988662153,-0.06555992634841559,-0.03888467942323984,0.7336868089835836,-1.4571772484682974,0.12864577803686317,0.0,-2.5314103960990906,-2.319883346557617,10.00829815864563,0.0,0.0,0.0,0.0,0.0,0.42058424151766893,0.0,0.0,0.10364704251112512,0.0,0.0,0.0,0.0,0.0,0.0
0.3700000000000002,0.02258114403363331,0.05161368646156222,0.746571253765603,0.04645414535973313,0.15885379349743528,-0.6804019717243398,0.021781797695405784,0.049374791809073344,0.33698147693441616,0.13341076140530256,0.07946504837712766,-0.755479782129606,-0.020662195310110276,-0.07168207025040156,-0.038136340784242655,1.0304608735200382,-0.9685604184157032,0.12589660353071358,0.0,-2.5314103960990906,-2.319883346557617,10.00829815864563,0.0,0.0,0.0,0.0,0.0,0.4211050309134535,0.0,0.0,0.10466707800202579,0.0,0.0,0.0,0.0,0.0,0.0
0.3750000000000002,0.02291029640591435,0.05234611551801693,0.7430726565088382,0.0737253567428103,0.13560066354319367,-0.6918580717610826,0.021781797695405784,0.049374791809073344,0.33698147693441616,0.13341076140530256,0.07946504837712766,-0.755479782129606,-0.014448968240718446,-0.07513314946554639,-0.03741987361342612,1.3361479621033667,-0.5272172380567435,0.13142935442738807,0.0,-2.5314103960990906,-2.319883346557617,10.00829815864563,0.0,0.0,0.0,0.0,0.0,0.4216308959715084,0.0,0.0,0.10567731777310717,0.0,0.0,0.0,0.0,0.0,0.0
0.3800000000000002,0.02325025147387153,0.053057356190933956,0.7395028312428605,0.05380382771126148,0.14866360158408626,-0.7070755725075797,0.021781797695405784,0.049374791809073344,0.33698147693441616,0.13341076140530256,0.07946504837712766,-0.755479782129606,-0.008005748505463683,-0.07821639410586298,-0.03667707337494967,1.1489299654411838,-0.7739686352914968,0.14470557639726883,0.0,-2.5314103960990906,-2.319883346557617,10.00829815864563,0.0,0.0,0.0,0.0,0.0,0.42216178786826,0.0,0.0,0.10667782377816744,0.0,0.0,0.0,0.0,0.0,0.0
0.38500000000000023,0.023450384361980707,0.053808306342258826,0.7360754888776547,0.034732440933845185,0.1610698522285426,-0.7199053936818663,0.021781797695405784,0.049374791809073344,0.33698147693441616,0.13341076140530256,0.07946504837712766,-0.755479782129606,-0.0030765278886408795,-0.08262366257674429,-0.03594233956549058,0.979279638711081,-0.9960883808733172,0.14927416051017597,0.0,-2.5314103960990906,-2.319883346557617,10.00829815864563,0.0,0.0,0.0,0.0,0.0,0.42269765808905746,0.0,0.0,0.10766865763247033,0.0,0.0,0.0,0.0,0.0,0.0
0.39000000000000024,0.023632755624423345,0.054618237956935156,0.7323707757990164,0.04052107774261584,0.15503216105328577,-0.7315857149494693,0.021781797695405784,0.049374791809073344,0.33698147693441616,0.13341076140530256,0.07946504837712766,-0.755479782129606,0.0019942848247976653,-0.08742960587449913,-0.03517037141914397,1.0602580347834367,-0.8433659440803442,0.1508237137757119,0.0,-2.5314103960990906,-2.319883346557617,10.00829815864563,0.0,0.0,0.0,0.0,0.0,0.4232384584264828,0.0,0.0,0.10864988061446078,0.0,0.0,0.0,0.0,0.0,0.0
0.39500000000000024,0.023856435971465674,0.05539408407121635,0.7286066590654857,0.0449572376180027,0.15178857233660953,-0.7439163865918809,0.021781797695405784,0.049374791809073344,0.33698147693441616,0.13341076140530256,0.07946504837712766,-0.755479782129606,0.0074945727533056415,-0.09129753726962232,-0.03441306901774525,1.0938710316625988,-0.7140958207680156,0.1519294688681395,0.0,-2.5314103960990906,-2.319883346557617,10.00829815864563,0.0,0.0,0.0,0.0,0.0,0.42378414097867234,0.0,0.0,0.10962155366747216,0.0,0.0,0.0,0.0,0.0,0.0
0.40000000000000024,0.024059922278878806,0.05613228985114357,0.7250047121026206,0.038657691412905766,0.15713324721309913,-0.7562275184223384,0.021781797695405784,0.049374791809073344,0.33698147693441616,0.13341076140530256,0.07946504837712766,-0.755479782129606,0.01249176923896484,-0.09475314845986706,-0.033714339379058635,1.0038729064160554,-0.748483344591428,0.15235560906088977,0.0,-2.5314103960990906,-2.319883346557617,10.00829815864563,0.0,0.0,0.0,0.0,0.0,0.42433465814764426,0.0,0.0,0.11058373740142523,0.0,0.0,0.0,0.0,0.0,0.0
0.40500000000000025,0.024234764955544774,0.056943464853213326,0.7211130309447262,0.031564936221312685,0.16022645923129486,-0.7690766822740432,0.024234764955544774,0.056943464853213326,0.29622306830708933,0.031564936221312685,0.16022645923129486,-0.8806131743685622,0.017344476169465894,-0.0987245433025417,-0.032992235953826964,0.9440170639428425,-0.7885857408100959,0.15279598405767938,0.0,-2.5314103960990906,-2.319883346557617,10.00829815864563,0.0,0.0,0.0,0.0,0.0,0.4248899626376369,0.0,0.0,0.11153649209451899,0.0,0.0,0.0,0.0,0.0,0.0
0.41000000000000025,0.024535420120633828,0.05769678430561457,0.7171968119789082,0.10010464717495153,0.13053596579652976,-0.7610289036833218,0.024234764955544774,0.056943464853213326,0.29622306830708933,0.031564936221312685,0.16022645923129486,-0.8806131743685622,0.022859218036739754,-0.10049763971168024,-0.03224059972643452,1.3153709362304364,0.29705818414659796,0.15281593706623803,0.0,-0.742663711309433,-4.698683738708496,15.671428799629211,0.0,0.0,0.0,0.0,0.0,0.4254500074534532,0.0,0.0,0.11247987769491316,0.0,0.0,0.0,0.0,0.0,0.0
0.41500000000000026,0.025152561832495653,0.05825730329336917,0.7135738726637613,0.13836346219853274,0.11085850998738768,-0.7507373735039186,0.024234764955544774,0.056943464853213326,0.29622306830708933,0.031564936221312685,0.16022645923129486,-0.8806131743685622,0.029880024601492396,-0.09692005299340008,-0.03139071218087517,1.5513988536300825,0.9304932048806491,0.1621130183977865,0.0,-0.742663711309433,-4.698683738708496,15.671428799629211,0.0,0.0,0.0,0.0,0.0,0.42601474589881594,0.0,0.0,0.11341395382240269,0.0,0.0,0.0,0.0,0.0,0.0
0.42000000000000026,0.025743386011382173,0.0588619954274211,0.7097670211077272,0.08220642927199051,0.13265079542635436,-0.7423968490041316,0.024234764955544774,0.056943464853213326,0.29622306830708933,0.031564936221312685,0.16022645923129486,-0.8806131743685622,0.037069310454449014,-0.09363958884826025,-0.030408593241819305,1.2280899482124854,0.20968627519948618,0.1750592505758773,0.0,-0.742663711309433,-4.698683738708496,15.671428799629211,0.0,0.0,0.0,0.0,0.0,0.42658413157472885,0.0,0.0,0.11433877977008415,0.0,0.0,0.0,0.0,0.0,0.0
0.42500000000000027,0.02604043192876842,0.05958229421687488,0.7060051240159322,0.048188449548219624,0.14411375887626443,-0.7328041549405672,0.024234764955544774,0.056943464853213326,0.29622306830708933,0.031564936221312685,0.16022645923129486,-0.8806131743685622,0.04255213100122063,-0.09407032764725977,-0.02953517705646039,1.0375492495203276,-0.17006453205994823,0.17217682818394725,0.0,-0.742663711309433,-4.698683738708496,15.671428799629211,0.0,0.0,0.0,0.0,0.0,0.42715811837784845,0.0,0.0,0.11525441450601379,0.0,0.0,0.0,0.0,0.0,0.0
0.43000000000000027,0.026301944292285464,0.060247391665090654,0.7025201385075376,0.06661448310056067,0.13101066175483692,-0.7193640582824166,0.024234764955544774,0.056943464853213326,0.29622306830708933,0.031564936221312685,0.16022645923129486,-0.8806131743685622,0.047683705835420045,-0.09423200724621605,-0.028717146842434062,1.167198901439087,0.19346261061792722,0.17080138153909832,0.0,-0.742663711309433,-4.698683738708496,15.671428799629211,0.0,0.0,0.0,0.0,0.0,0.42773666049886183,0.0,0.0,0.11616091667485798,0.0,0.0,0.0,0.0,0.0,0.0
0.4350000000000003,0.026683064154310245,0.06088272866220875,0.6988839645020697,0.07654869623694392,0.12198954240805107,-0.7073599996450463,0.024234764955544774,0.056943464853213326,0.29622306830708933,0.031564936221312685,0.16022645923129486,-0.8806131743685622,0.05381921865513604,-0.09247783475046828,-0.027723757259972268,1.2336367027446526,0.41907516282125834,0.18218762579549638,0.0,-0.742663711309433,-4.698683738708496,15.671428799629211,0.0,0.0,0.0,0.0,0.0,0.42831971242087463,0.0,0.0,0.11705834459953526,0.0,0.0,0.0,0.0,0.0,0.0
0.4400000000000003,0.027026610345000188,0.06150912017692023,0.695304253295064,0.0550655268196269,0.12536294036447926,-0.6969318743852458,0.024234764955544774,0.056943464853213326,0.29622306830708933,0.031564936221312685,0.16022645923129486,-0.8806131743685622,0.059801570018886835,-0.0908463690832887,-0.026681586358076347,1.1368809974058884,0.1972545494394741,0.18517565781161258,0.0,-0.742663711309433,-4.698683738708496,15.671428799629211,0.0,0.0,0.0,0.0,0.0,0.42890722891780586,0.0,0.0,0.11794675628285083,0.0,0.0,0.0,0.0,0.0,0.0
0.4450000000000003,0.02724445979849812,0.06211662213263792,0.6919840878597173,0.040219175347908656,0.1270763696931699,-0.6864237839638625,0.024234764955544774,0.056943464853213326,0.29622306830708933,0.031564936221312685,0.16022645923129486,-0.8806131743685622,0.06495576256284367,-0.09038724923766744,-0.02576797936503085,1.061648198008265,0.07890841378408138,0.1819058355189049,0.0,-0.742663711309433,-4.698683738708496,15.671428799629211,0.0,0.0,0.0,0.0,0.0,0.4294991650527923,0.0,0.0,0.11882620940912263,0.0,0.0,0.0,0.0,0.0,0.0
0.4500000000000003,0.027447467387639805,0.06275201085552722,0.688516539585952,0.04174359423657098,0.12234920758173885,-0.6736373102826257,0.024234764955544774,0.056943464853213326,0.29622306830708933,0.031564936221312685,0.16022645923129486,-0.8806131743685622,0.07026439609034679,-0.08980035567978847,-0.02480075040339041,1.0580932242426841,0.20387338925528126,0.18007067340592164,0.0,-0.742663711309433,-4.698683738708496,15.671428799629211,0.0,0.0,0.0,0.0,0.0,0.4300954761765987,0.0,0.0,0.1196967613458,0.0,0.0,0.0,0.0,0.0,0.0
0.4550000000000003,0.027659132575471125,0.06335810246179006,0.6851146833938908,0.03961442751715837,0.11641078087572848,-0.6611262256258362,0.027659132575471125,0.06335810246179006,0.25441856546785213,0.03961442751715837,0.11641078087572848,-0.7816846947709105,0.07559898880666295,-0.08859081168075905,-0.023787633265068324,1.0636941806118108,0.2703370330908629,0.1798284945761279,0.0,-0.742663711309433,-4.698683738708496,15.671428799629211,0.0,0.0,0.0,0.0,0.0,0.4306961179260387,0.0,0.0,0.12055846914507425,0.0,0.0,0.0,0.0,0.0,0.0
0.4600000000000003,0.02780383281537551,0.0639485745542531,0.6819694245017248,0.018804862014104258,0.13442484735355226,-0.6499001474932434,0.027659132575471125,0.06335810246179006,0.25441856546785213,0.03961442751715837,0.11641078087572848,-0.7816846947709105,0.0799667104611968,-0.0877974268434459,-0.022874076305018223,0.7311122575378195,0.05669534535006074,0.17090926366349043,0.0,-1.1969387233257294,-3.7144378423690796,15.61429214477539,0.0,0.0,0.0,0.0,0.0,0.43130104622240206,0.0,0.0,0.12141138954548139,0.0,0.0,0.0,0.0,0.0,0.0
0.4650000000000003,0.027844248979256504,0.06467156210067125,0.6786825397066971,0.002052821141362425,0.14328193748103404,-0.6398382341060482,0.027659132575471125,0.06335810246179006,0.25441856546785213,0.03961442751715837,0.11641078087572848,-0.7816846947709105,0.08287081693843039,-0.08812597643115878,-0.022072002741395154,0.5246424384283039,-0.09286282262604452,0.15283055118142702,0.0,-1.1969387233257294,-3.7144378423690796,15.61429214477539,0.0,0.0,0.0,0.0,0.0,0.4319102172698901,0.0,0.0,0.12225557897349741,0.0,0.0,0.0,0.0,0.0,0.0
0.4700000000000003,0.027851487815424666,0.06536301604652452,0.6754437890635532,0.0035070959424509385,0.1256844145718254,-0.6310504452195418,0.027659132575471125,0.06335810246179006,0.25441856546785213,0.03961442751715837,0.11641078087572848,-0.7816846947709105,0.0857987722494057,-0.0884604470676602,-0.021354394035877675,0.6870179930201388,0.01887828411728969,0.1397985547696601,0.0,-1.1969387233257294,-3.7144378423690796,15.61429214477539,0.0,0.0,0.0,0.0,0.0,0.4325235875540602,0.0,0.0,0.12309109354512524,0.0,0.0,0.0,0.0,0.0,0.0
0.4750000000000003,0.027873658380707277,0.06592657081708174,0.6724352496863704,0.004248639073468827,0.11282725873345706,-0.6227956786127833,0.027659132575471125,0.06335810246179006,0.25441856546785213,0.03961442751715837,0.11641078087572848,-0.7816846947709105,0.08937455728355614,-0.08813997597747379,-0.02066228395302554,0.785464925135921,0.11276018561214454,0.13526609943880366,0.0,-1.1969387233257294,-3.7144378423690796,15.61429214477539,0.0,0.0,0.0,0.0,0.0,0.4331411138402762,0.0,0.0,0.12391798906747456,0.0,0.0,0.0,0.0,0.0,0.0
0.4800000000000003,0.02786617965405104,0.06649779414074967,0.6692850711227387,-0.008128345986538846,0.11331787970566698,-0.6126613045340285,0.027659132575471125,0.06335810246179006,0.25441856546785213,0.03961442751715837,0.11641078087572848,-0.7816846947709105,0.09313695264217373,-0.08781082579564838,-0.019944530137370024,0.6936429730522653,0.02371591268210338,0.13223396044917637,0.0,-1.1969387233257294,-3.7144378423690796,15.61429214477539,0.0,0.0,0.0,0.0,0.0,0.4337627531721694,0.0,0.0,0.12473632104033379,0.0,0.0,0.0,0.0,0.0,0.0
0.4850000000000003,0.027793891976688165,0.06707899911196169,0.6661890879068841,-0.018395241927376946,0.1137645454523822,-0.6019058439898202,0.027659132575471125,0.06335810246179006,0.25441856546785213,0.03961442751715837,0.11641078087572848,-0.7816846947709105,0.09633546896393506,-0.08795072676185078,-0.019286613730945586,0.6026397412234068,-0.0334501043785993,0.1289769122402171,0.0,-1.1969387233257294,-3.7144378423690796,15.61429214477539,0.0,0.0,0.0,0.0,0.0,0.43438846287010413,0.0,0.0,0.1255461446577342,0.0,0.0,0.0,0.0,0.0,0.0
0.4900000000000003,0.027701213002336793,0.06760995033073905,0.6633283199899354,-0.019674832967010683,0.10699999634931698,-0.5908901165686472,0.027659132575471125,0.06335810246179006,0.25441856546785213,0.03961442751715837,0.11641078087572848,-0.7816846947709105,0.09916196083766037,-0.0880264068458958,-0.018680644994975102,0.6113111024087191,0.02800524855523445,0.12427977414979392,0.0,-1.1969387233257294,-3.7144378423690796,15.61429214477539,0.0,0.0,0.0,0.0,0.0,0.4350182005296541,0.0,0.0,0.12634751480950682,0.0,0.0,0.0,0.0,0.0,0.0
0.49500000000000033,0.027599032925836438,0.06812940928430539,0.6603449171672213,-0.02122555940964868,0.09751052894724133,-0.5799470708778116,0.027659132575471125,0.06335810246179006,0.25441856546785213,0.03961442751715837,0.11641078087572848,-0.7816846947709105,0.10232416194455729,-0.08776393432817267,-0.01802623765389912,0.6490038159380597,0.08342557447259923,0.11986945423276427,0.0,-1.1969387233257294,-3.7144378423690796,15.61429214477539,0.0,0.0,0.0,0.0,0.0,0.4356519240200851,0.0,0.0,0.12714048608283146,0.0,0.0,0.0,0.0,0.0,0.0
0.5000000000000003,0.027472424682221733,0.068612259250688,0.6574162877152945,-0.029276125714387362,0.09345007525813862,-0.5692593926768951,0.027659132575471125,0.06335810246179006,0.25441856546785213,0.03961442751715837,0.11641078087572848,-0.7816846947709105,0.10551390960478947,-0.0874606752095321,-0.017397284427864482,0.609420039489807,0.044070691793392305,0.1116674441786953,0.0,-1.1969387233257294,-3.7144378423690796,15.61429214477539,0.0,0.0,0.0,0.0,0.0,0.4362895914828451,0.0,0.0,0.12792511276377846,0.0,0.0,0.0,0.0,0.0,0.0
0.5050000000000003,0.027312450558659142,0.06905117069159296,0.6547115978350119,-0.03704354025274059,0.08944951489272636,-0.5587253017510339,0.027312450558659142,0.06905117069159296,0.21778043650494883,-0.03704354025274059,0.08944951489272636,-0.6874267505898767,0.1082825405126321,-0.08739249764276759,-0.01687477077218002,0.571685768243746,0.007652310548144371,0.10165314664478123,0.0,-1.1969387233257294,-3.7144378423690796,15.61429214477539,0.0,0.0,0.0,0.0,0.0,0.43693116133006304,0.0,0.0,0.12870144883884282,0.0,0.0,0.0,0.0,0.0,0.0
0.5100000000000003,0.02727628269493764,0.06952610082621624,0.65188892073895,0.034463515847380784,0.09827915550118305,-0.5488150811433434,0.027312450558659142,0.06905117069159296,0.21778043650494883,-0.03704354025274059,0.08944951489272636,-0.6874267505898767,0.11057662698684181,-0.08503771926083338,-0.016130265687515546,0.33993318986317783,1.1022262452521205,0.08710392129607733,0.0,1.3255259692668915,-2.793832540512085,12.770420491695404,0.0,0.0,0.0,0.0,0.0,0.43757659224305434,0.0,0.0,0.12946954799647076,0.0,0.0,0.0,0.0,0.0,0.0
0.5150000000000003,0.0275681423511318,0.07002191536925059,0.6490843797675857,0.05944720547986304,0.0917245822239343,-0.5527533718200404,0.027312450558659142,0.06905117069159296,0.21778043650494883,-0.03704354025274059,0.08944951489272636,-0.6874267505898767,0.11206399673331205,-0.07775189133658131,-0.014883879332549848,0.356419602956739,1.5010294937317343,0.08177481996047982,0.0,1.3255259692668915,-2.793832540512085,12.770420491695404,0.0,0.0,0.0,0.0,0.0,0.4382258431708349,0.0,0.0,0.13022946362857926,0.0,0.0,0.0,0.0,0.0,0.0
0.5200000000000004,0.02774791329304891,0.07041461980707958,0.6464148734574352,0.009416727779190656,0.07320442268421135,-0.558937373059307,0.027312450558659142,0.06905117069159296,0.21778043650494883,-0.03704354025274059,0.08944951489272636,-0.6874267505898767,0.11420276704219628,-0.07203152579064633,-0.013837568192303338,0.5551594843519403,0.835612611323115,0.08139190415722239,0.0,1.3255259692668915,-2.793832540512085,12.770420491695404,0.0,0.0,0.0,0.0,0.0,0.43887887332864206,0.0,0.0,0.13098124883206777,0.0,0.0,0.0,0.0,0.0,0.0
0.5250000000000004,0.0277037410265257,0.0707689406319365,0.6435532773751149,-0.015484171593149083,0.06912398943643187,-0.5622480609522899,0.027312450558659142,0.06905117069159296,0.21778043650494883,-0.03704354025274059,0.08944951489272636,-0.6874267505898767,0.11703686783636574,-0.06898799758664668,-0.013083153555204972,0.5340815271454783,0.5424362331247554,0.07271742463917054,0.0,1.3255259692668915,-2.793832540512085,12.770420491695404,0.0,0.0,0.0,0.0,0.0,0.4395356421964631,0.0,0.0,0.13172495641032286,0.0,0.0,0.0,0.0,0.0,0.0
0.5300000000000004,0.027664170191184508,0.07112681416091482,0.6406856824296168,0.003708248479732147,0.07086043856390425,-0.5619255326783303,0.027312450558659142,0.06905117069159296,0.21778043650494883,-0.03704354025274059,0.08944951489272636,-0.6874267505898767,0.11939840864393741,-0.06559385907271739,-0.012336072784209305,0.4237881348873913,0.8652306031305871,0.061924151254093035,0.0,1.3255259692668915,-2.793832540512085,12.770420491695404,0.0,0.0,0.0,0.0,0.0,0.4401961095175717,0.0,0.0,0.13246063887471551,0.0,0.0,0.0,0.0,0.0,0.0
0.5350000000000004,0.027706539694326043,0.0714579552610873,0.6379854402015535,0.007860813911676031,0.06603855750676198,-0.5637612639819084,0.027312450558659142,0.06905117069159296,0.21778043650494883,-0.03704354025274059,0.08944951489272636,-0.6874267505898767,0.12130794245195652,-0.061074680963098316,-0.011500831629704262,0.416689044559392,0.9615253776303044,0.05802609113852684,0.0,1.3255259692668915,-2.793832540512085,12.770420491695404,0.0,0.0,0.0,0.0,0.0,0.4408602352970713,0.0,0.0,0.13318834844609095,0.0,0.0,0.0,0.0,0.0,0.0
0.5400000000000004,0.02770592815861239,0.07176692741313764,0.6351000565825182,-0.009453330893926817,0.05614362090881836,-0.5675360034457915,0.027312450558659142,0.06905117069159296,0.21778043650494883,-0.03704354025274059,0.08944951489272636,-0.6874267505898767,0.1235545170443783,-0.05671247703383273,-0.010664192401061819,0.4752983511210629,0.7595767589145441,0.05875501107639368,0.0,1.3255259692668915,-2.793832540512085,12.770420491695404,0.0,0.0,0.0,0.0,0.0,0.44152797980044656,0.0,0.0,0.13390813705625157,0.0,0.0,0.0,0.0,0.0,0.0
0.5450000000000004,0.027627399498929273,0.07203813362428954,0.6322005550228345,-0.017877510897009664,0.05170621696878207,-0.5692065455957768,0.027312450558659142,0.06905117069159296,0.21778043650494883,-0.03704354025274059,0.08944951489272636,-0.6874267505898767,0.12590428569207868,-0.05320975119235055,-0.009919969355794589,0.4474332010799625,0.6895798695645086,0.059421003730652816,0.0,1.3255259692668915,-2.793832540512085,12.770420491695404,0.0,0.0,0.0,0.0,0.0,0.44219930355212145,0.0,0.0,0.13462005634943225,0.0,0.0,0.0,0.0,0.0,0.0
0.5500000000000004,0.027538761669270162,0.07228049267340013,0.629465475749568,-0.018405043292636647,0.04922434651783958,-0.5702040843679773,0.027312450558659142,0.06905117069159296,0.21778043650494883,-0.03704354025274059,0.08944951489272636,-0.6874267505898767,0.12786385768822092,-0.049895974408085804,-0.009209857304644303,0.3919456791258275,0.7267074191270436,0.05882671263517699,0.0,1.3255259692668915,-2.793832540512085,12.770420491695404,0.0,0.0,0.0,0.0,0.0,0.4428741673340253,0.0,0.0,0.13532415768376888,0.0,0.0,0.0,0.0,0.0,0.0
0.5550000000000004,0.027447108650973315,0.07251264665182372,0.6265533813228903,-0.01903738501428175,0.04167781630323664,-0.5720189664545534,0.027447108650973315,0.07251264665182372,0.1830008491387244,-0.01903738501428175,0.04167781630323664,-0.7080394585873129,0.12982621170031436,-0.04612464706524696,-0.008419507026755932,0.40262670371720827,0.7581032310729081,0.058310817504894426,0.0,1.3255259692668915,-2.793832540512085,12.770420491695404,0.0,0.0,0.0,0.0,0.0,0.4435525321841659,0.0,0.0,0.13602049213275952,0.0,0.0,0.0,0.0,0.0,0.0
