time,pos_x,pos_y,pos_z,vel_x,vel_y,vel_z,pos_xo,pos_yo,pos_zo,vel_xo,vel_yo,vel_zo,roll,pitch,yaw,roll_vel,pitch_vel,yaw_vel,thrust_z,force_x,force_y,force_z,torque_x,torque_y,torque_z,pos_xd,pos_yd,pos_zd,vel_xd,vel_yd,vel_zd,roll_d,pitch_d,yaw_d,roll_vel_d,pitch_vel_d,yaw_vel_d
0.005,0.0,0.0,0.2,0.0,0.0,-0.037014772727272736,0.0,0.0,0.0,0.0,0.0,-0.037014772727272736,0.0,0.0,0.0,0.0,0.0,0.0,0.0,0.0,0.0,0.0,0.0,0.0,0.0,0.0,0.0,0.2,0.0,0.0,0.0,0.0,0.0,0.0,0.0,0.0,0.0
0.01,0.0,0.0,0.19981492613636365,-0.00198143591824919,0.002239393876679242,-0.054615285766783955,0.0,0.0,0.0,0.0,0.0,-0.037014772727272736,-1.1300093017834028e-05,-1.0044320932251305e-05,5.675088041902813e-11,-0.004520037206943602,-0.004017728373007403,-3.43651796192105e-24,0.0,-5.23099082417786,5.911999834433198,27.312854774594303,0.0,0.0,0.0,0.0,0.0,0.20000000195129441,0.0,0.0,1.170410614013672e-06,0.0,0.0,0.0,0.0,0.0,0.0
0.015,-9.90717959124595e-06,1.1196969383396209e-05,0.19954184970752972,-0.005448948775185272,0.006158333160867915,-0.05765510803936311,0.0,0.0,0.0,0.0,0.0,-0.037014772727272736,-5.353445644172886e-05,-4.758520661063092e-05,1.2737206305809855e-09,-0.012373708146174823,-0.010998625907591824,-1.382162995610028e-12,0.0,-5.23099082417786,5.911999834433198,27.312854774594303,0.0,0.0,0.0,0.0,0.0,0.20000001559571778,0.0,0.0,4.67578857421875e-06,0.0,0.0,0.0,0.0,0.0,0.0
0.02,-3.715192346717231e-05,4.198863518773579e-05,0.19925357416733291,-0.010031019336136524,0.01133693150068866,-0.049774418905565006,0.0,0.0,0.0,0.0,0.0,-0.037014772727272736,-0.00014103603165110235,-0.00012536278699243087,8.840244542452684e-09,-0.02262692165669388,-0.020112406403124665,-3.342892427655767e-11,0.0,-5.23099082417786,5.911999834433198,27.312854774594303,0.0,0.0,0.0,0.0,0.0,0.20000005258617082,0.0,0.0,1.0507361297607422e-05,0.0,0.0,0.0,0.0,0.0,0.0
0.025,-8.730702014785494e-05,9.86732926911791e-05,0.1990047020728051,-0.015449008175099152,0.017460274132233465,-0.033703355558974225,0.0,0.0,0.0,0.0,0.0,-0.037014772727272736,-0.00028396879469328124,-0.0002524115163818972,3.5837642189042194e-08,-0.03454618144015552,-0.03070708654516109,-2.724955042400883e-10,0.0,-5.23099082417786,5.911999834433198,27.312854774594303,0.0,0.0,0.0,0.0,0.0,0.20000012453171875,0.0,0.0,1.8656367187500002e-05,0.0,0.0,0.0,0.0,0.0,0.0
0.030000000000000002,-0.0001645520610233507,0.0001859746633523464,0.19883618529501024,-0.021493935722570315,0.02429217498257131,-0.011489523571146187,0.0,0.0,0.0,0.0,0.0,-0.037014772727272736,-0.0004892277919829528,-0.00043486017761755827,1.0636800360785632e-07,-0.04755740754759606,-0.04227238353344267,-1.3223935242877507e-09,0.0,-5.23099082417786,5.911999834433198,27.312854774594303,0.0,0.0,0.0,0.0,0.0,0.20000024299764635,0.0,0.0,2.9114055633544923e-05,0.0,0.0,0.0,0.0,0.0,0.0
0.035,-0.0002720217396362023,0.00030743553826520297,0.1987787376771545,-0.028009067301422875,0.03165549449700393,0.015331370199724297,0.0,0.0,0.0,0.0,0.0,-0.037014772727272736,-0.0007611542731455953,-0.0006765675208089017,2.5746627984334183e-07,-0.06121315079285007,-0.05441057293656443,-4.6895638348814025e-09,0.0,-5.23099082417786,5.911999834433198,27.312854774594303,0.0,0.0,0.0,0.0,0.0,0.2000004195055127,0.0,0.0,4.187168701171876e-05,0.0,0.0,0.0,0.0,0.0,0.0
0.04,-0.00041206707614331665,0.00046571301075022263,0.19885539452815312,-0.034876851903811484,0.03941737800950764,0.04560754292733869,0.0,0.0,0.0,0.0,0.0,-0.037014772727272736,-0.0011021036141271845,-0.0009796270393098625,5.397601350392602e-07,-0.0751664910391577,-0.0668132876463698,-1.3446948897146402e-08,0.0,-5.23099082417786,5.911999834433198,27.312854774594303,0.0,0.0,0.0,0.0,0.0,0.20000066553320633,0.0,0.0,5.6920532684326184e-05,0.0,0.0,0.0,0.0,0.0,0.0
0.045,-0.0005864513356623741,0.0006627999007977609,0.19908343224278982,-0.04200912627385213,0.04747818452056467,0.07847515480623363,0.0,0.0,0.0,0.0,0.0,-0.037014772727272736,-0.0015128960467703418,-0.0013447675641852861,1.0170656589884558e-06,-0.08915025829218798,-0.07924304812063088,-3.304989626664261e-08,0.0,-5.23099082417786,5.911999834433198,27.312854774594303,0.0,0.0,0.0,0.0,0.0,0.200000992515,0.0,0.0,7.4251875e-05,0.0,0.0,0.0,0.0,0.0,0.0
0.049999999999999996,-0.0007964969670316347,0.0009001908234005842,0.199475808016821,-0.049339767969631805,0.05576318328053668,0.11328632329352203,0.0,0.0,0.0,0.0,0.0,-0.037014772727272736,-0.0019931740972075145,-0.0017716709259653141,1.7651806451979372e-06,-0.1029604926644303,-0.09151856043707754,-7.22493725540658e-08,0.0,-5.23099082417786,5.911999834433198,27.312854774594303,0.0,0.0,0.0,0.0,0.0,0.2000014118416057,0.0,0.0,9.385700729370117e-05,0.0,0.0,0.0,0.0,0.0,0.0
0.05499999999999999,-0.0010431958068797937,0.0011790067398032675,0.2000422396332886,-0.05681918515971575,0.06421632622719492,0.14955513379023597,-0.0010431958068797937,0.0011790067398032675,4.0304773059107735e-05,-0.05681918515971575,0.06421632622719492,0.14943940655634924,-0.0025416857666746154,-0.0022592236060123686,2.870135585741873e-06,-0.11644327997980385,-0.10350301485917902,-1.4404106057259532e-07,0.0,-5.23099082417786,5.911999834433198,27.312854774594303,0.0,0.0,0.0,0.0,0.0,0.2000019348602295,0.0,0.0,0.00011572723388671873,0.0,0.0,0.0,0.0,0.0,0.0
0.05999999999999999,-0.0013272917326783724,0.0015000883709392421,0.20079001530223978,-0.06604982561394498,0.0722245668546819,0.18192715704110957,-0.0010431958068797937,0.0011790067398032675,4.0304773059107735e-05,-0.05681918515971575,0.06421632622719492,0.14943940655634924,-0.0031558560889050936,-0.002819011239222443,4.465171606487639e-06,-0.12922322250112153,-0.12041295088872449,-2.665907379930038e-07,0.0,-9.733231905698776,4.600718221083283,14.698763013035057,0.0,0.0,0.0,0.0,0.0,0.20000257287462664,0.0,0.0,0.0001398538700866699,0.0,0.0,0.0,0.0,0.0,0.0
0.06499999999999999,-0.0016575408607480972,0.0018612112052126515,0.20169965108744534,-0.0765938835162832,0.07989913074279043,0.2113765590182363,-0.0010431958068797937,0.0011790067398032675,4.0304773059107735e-05,-0.05681918515971575,0.06421632622719492,0.14943940655634924,-0.0038321356748555534,-0.003471986134127996,6.747311410941027e-06,-0.14128573089107938,-0.14077860720895316,-4.6503461080606617e-07,0.0,-9.733231905698776,4.600718221083283,14.698763013035057,0.0,0.0,0.0,0.0,0.0,0.20000333714515625,0.0,0.0,0.00016622824218749996,0.0,0.0,0.0,0.0,0.0,0.0
0.06999999999999999,-0.0020405102783295132,0.002260706858926604,0.2027565338825365,-0.08812300450470315,0.08732343707636511,0.23863396150006538,-0.0010431958068797937,0.0011790067398032675,4.0304773059107735e-05,-0.05681918515971575,0.06421632622719492,0.14943940655634924,-0.0045669279590062044,-0.004232548313696902,9.94160735252671e-06,-0.15262624653136267,-0.16344895450454708,-7.743245052120437e-07,0.0,-9.733231905698776,4.600718221083283,14.698763013035057,0.0,0.0,0.0,0.0,0.0,0.20000423888883653,0.0,0.0,0.00019484168746948237,0.0,0.0,0.0,0.0,0.0,0.0
0.075,-0.002481125300853029,0.0026973240443084294,0.20394970369003684,-0.10039092280768439,0.09456005024403942,0.26424732811694707,-0.0010431958068797937,0.0011790067398032675,4.0304773059107735e-05,-0.05681918515971575,0.06421632622719492,0.14943940655634924,-0.005356633845829788,-0.005109975278870693,1.4294289031542326e-05,-0.16324795503337114,-0.18752615895857364,-1.2419622229730648e-06,0.0,-9.733231905698776,4.600718221083283,14.698763013035057,0.0,0.0,0.0,0.0,0.0,0.20000528927939942,0.0,0.0,0.00022568555419921868,0.0,0.0,0.0,0.0,0.0,0.0
0.08,-0.002983079914891451,0.0031701242955286266,0.20527094033062157,-0.1132129390965866,0.10165589353728843,0.288627628885328,-0.0010431958068797937,0.0011790067398032675,4.0304773059107735e-05,-0.05681918515971575,0.06421632622719492,0.14943940655634924,-0.006197686109715076,-0.006109557501522956,2.0065816867669954e-05,-0.1731599719656963,-0.21231340634049364,-1.9304606546368893e-06,0.0,-9.733231905698776,4.600718221083283,14.698763013035057,0.0,0.0,0.0,0.0,0.0,0.20000649944734575,0.0,0.0,0.00025875120162963865,0.0,0.0,0.0,0.0,0.0,0.0
0.085,-0.0035491446103743836,0.0036784037632150686,0.20671407847504822,-0.12645052887492955,0.10864615942471849,0.3120830886084345,-0.0010431958068797937,0.0011790067398032675,4.0304773059107735e-05,-0.05681918515971575,0.06421632622719492,0.14943940655634924,-0.007086575652664224,-0.007233499650403548,2.7524266185258883e-05,-0.1823759045126616,-0.23727336600271512,-2.9194098280284735e-06,0.0,-9.733231905698776,4.600718221083283,14.698763013035057,0.0,0.0,0.0,0.0,0.0,0.20000788048,0.0,0.0,0.00029403000000000003,0.0,0.0,0.0,0.0,0.0,0.0
0.09000000000000001,-0.004181397254749032,0.004221634560338661,0.2082744939180904,-0.13999979877035304,0.11555724225778433,0.3348448731768213,-0.0010431958068797937,0.0011790067398032675,4.0304773059107735e-05,-0.05681918515971575,0.06421632622719492,0.14943940655634924,-0.008019871293310965,-0.008481635334014364,3.6939289807287766e-05,-0.19091271238401658,-0.2619951280719943,-4.3070678950051135e-06,0.0,-9.733231905698776,4.600718221083283,14.698763013035057,0.0,0.0,0.0,0.0,0.0,0.2000094434215654,0.0,0.0,0.0003315133305358888,0.0,0.0,0.0,0.0,0.0,0.0
0.09500000000000001,-0.004881396248600797,0.0047994207716275826,0.2099487182839745,-0.15378282875358695,0.12240893780007699,0.35708635429382013,-0.0010431958068797937,0.0011790067398032675,4.0304773059107735e-05,-0.05681918515971575,0.06421632622719492,0.14943940655634924,-0.008994234419448148,-0.009851993412789898,4.857678551691311e-05,-0.19878980691038053,-0.28616788829490386,-6.2114351620712285e-06,0.0,-9.733231905698776,4.600718221083283,14.698763013035057,0.0,0.0,0.0,0.0,0.0,0.20001119927317873,0.0,0.0,0.00037119258544921884,0.0,0.0,0.0,0.0,0.0,0.0
0.10000000000000002,-0.005650310392368732,0.005411465460627967,0.21173415005544358,-0.16774117880267866,0.12921609287428978,0.3789375580196617,-0.0010431958068797937,0.0011790067398032675,4.0304773059107735e-05,-0.05681918515971575,0.06421632622719492,0.14943940655634924,-0.010006429565550637,-0.01134124618288517,6.269431344554248e-05,-0.206028339694854,-0.3095600063405301,-8.770801292969767e-06,0.0,-9.733231905698776,4.600718221083283,14.698763013035057,0.0,0.0,0.0,0.0,0.0,0.20001315899296526,0.0,0.0,0.0004130591679382326,0.0,0.0,0.0,0.0,0.0,0.0
0.10500000000000002,-0.006489016286382125,0.006057545924999416,0.21362883784554187,-0.18183101890116374,0.13598984259744268,0.40049600117960427,-0.006489016286382125,0.006057545924999416,0.013613504349448108,-0.18183101890116374,0.13598984259744268,0.40003889668741677,-0.01105333176188283,-0.012945063561874241,7.953725616991279e-05,-0.21265064209543613,-0.33200234316904176,-1.2143781019325558e-05,0.0,-9.733231905698776,4.600718221083283,14.698763013035057,0.0,0.0,0.0,0.0,0.0,0.20001533349609377,0.0,0.0,0.0004571044921875002,0.0,0.0,0.0,0.0,0.0,0.0
0.11000000000000003,-0.007398171380887944,0.006737495137986629,0.2156313178514399,-0.19399580019754853,0.1401720453323547,0.4105529524622777,-0.006489016286382125,0.006057545924999416,0.013613504349448108,-0.18183101890116374,0.13598984259744268,0.40003889668741677,-0.01210528385585497,-0.014664009780723904,9.938627302962305e-05,-0.20802049508891335,-0.35562200407570926,-1.6508872302555165e-05,0.0,-4.782099333018064,-1.9448670661076901,-14.292845706403254,0.0,0.0,0.0,0.0,0.0,0.20001773365483141,0.0,0.0,0.0005033199833679202,0.0,0.0,0.0,0.0,0.0,0.0
0.11500000000000003,-0.008368150381875687,0.007438355364648402,0.2176840826137513,-0.20471678739235813,0.14241058782608604,0.41198372686684237,-0.006489016286382125,0.006057545924999416,0.013613504349448108,-0.18183101890116374,0.13598984259744268,0.40003889668741677,-0.013113093206280216,-0.016502289762836863,0.00012249321497191472,-0.19495910903229605,-0.37974809133460424,-2.2064815739988305e-05,0.0,-4.782099333018064,-1.9448670661076901,-14.292845706403254,0.0,0.0,0.0,0.0,0.0,0.20002037029859865,0.0,0.0,0.0005516970776367191,0.0,0.0,0.0,0.0,0.0,0.0
0.12000000000000004,-0.009391734318837478,0.008150408303778833,0.21974400124808552,-0.21435492901098632,0.1431913851389319,0.4069448079150302,-0.006489016286382125,0.006057545924999416,0.013613504349448108,-0.18183101890116374,0.13598984259744268,0.40003889668741677,-0.014040186525781075,-0.018461144383698704,0.00014899084898792686,-0.1756928242992804,-0.4038654440326357,-2.902999144730373e-05,0.0,-4.782099333018064,-1.9448670661076901,-14.292845706403254,0.0,0.0,0.0,0.0,0.0,0.2000232542140242,0.0,0.0,0.0006022272221374515,0.0,0.0,0.0,0.0,0.0,0.0
0.12500000000000003,-0.01046350896389241,0.008866365229473493,0.22177872528766068,-0.22318093644747847,0.14287887356611362,0.3970535555179991,-0.006489016286382125,0.006057545924999416,0.013613504349448108,-0.18183101890116374,0.13598984259744268,0.40003889668741677,-0.014859939097450564,-0.02053954860450221,0.00017889364127184136,-0.15197486086306294,-0.42758227091443884,-3.7638900241678676e-05,0.0,-4.782099333018064,-1.9448670661076901,-14.292845706403254,0.0,0.0,0.0,0.0,0.0,0.200026396145,0.0,0.0,0.0006549018750000005,0.0,0.0,0.0,0.0,0.0,0.0
0.13000000000000003,-0.011579413646129803,0.009580759597304062,0.2237639930652507,-0.23139784324736856,0.14174638032904727,0.3835229868765106,-0.006489016286382125,0.006057545924999416,0.013613504349448108,-0.18183101890116374,0.13598984259744268,0.40003889668741677,-0.01555355066299929,-0.022734764168736012,0.0002121027605946381,-0.12518226328542492,-0.4506043914462789,-4.813650600193008e-05,0.0,-4.782099333018064,-1.9448670661076901,-14.292845706403254,0.0,0.0,0.0,0.0,0.0,0.20002980679273608,0.0,0.0,0.0007097125053405766,0.0,0.0,0.0,0.0,0.0,0.0
0.13500000000000004,-0.012736402862366646,0.010289491498949298,0.22568160799963324,-0.23915792456980714,0.13999890084379485,0.3672628621560984,-0.006489016286382125,0.006057545924999416,0.013613504349448108,-0.18183101890116374,0.13598984259744268,0.40003889668741677,-0.016108356639299534,-0.025042776516796754,0.00024841469561425096,-0.09639309190500475,-0.4727147392191592,-6.0771143088917876e-05,0.0,-4.782099333018064,-1.9448670661076901,-14.292845706403254,0.0,0.0,0.0,0.0,0.0,0.20003349681581545,0.0,0.0,0.0007666505932617191,0.0,0.0,0.0,0.0,0.0,0.0
0.14000000000000004,-0.013932192485215681,0.010989486003168273,0.22751792231041373,-0.24657538678415705,0.13779018167240287,0.3489554987434808,-0.006489016286382125,0.006057545924999416,0.013613504349448108,-0.18183101890116374,0.13598984259744268,0.40003889668741677,-0.016516485998227064,-0.027458639551996997,0.00028753251594977906,-0.06644788260651706,-0.49375705585869223,-7.578661718378105e-05,0.0,-4.782099333018064,-1.9448670661076901,-14.292845706403254,0.0,0.0,0.0,0.0,0.0,0.2000374768302492,0.0,0.0,0.0008257076298522955,0.0,0.0,0.0,0.0,0.0,0.0
0.14500000000000005,-0.015165069419136467,0.011678436911530287,0.22926269980413114,-0.2537358846674405,0.13523553273640623,0.3291126319389063,-0.006489016286382125,0.006057545924999416,0.013613504349448108,-0.18183101890116374,0.13598984259744268,0.40003889668741677,-0.01677379520125166,-0.02997674709315324,0.00032907877749303454,-0.035998578539048885,-0.5136229218575356,-9.341404225729216e-05,0.0,-4.782099333018064,-1.9448670661076901,-14.292845706403254,0.0,0.0,0.0,0.0,0.0,0.20004175740953126,0.0,0.0,0.0008868751171875003,0.0,0.0,0.0,0.0,0.0,0.0
0.15000000000000005,-0.01643374884247367,0.012354614575212319,0.23090826296382566,-0.26070365930242406,0.1324214364769561,0.30811806047544776,-0.006489016286382125,0.006057545924999416,0.013613504349448108,-0.18183101890116374,0.13598984259744268,0.40003889668741677,-0.016879021957210336,-0.03259104602433895,0.0003726091956751367,-0.005547484899300077,-0.532241444555989,-0.00011386386316178837,0.0,-4.782099333018064,-1.9448670661076901,-14.292845706403254,0.0,0.0,0.0,0.0,0.0,0.20004634908469346,0.0,0.0,0.0009501445683288579,0.0,0.0,0.0,0.0,0.0,0.0
0.15500000000000005,-0.01773726713898579,0.0130167217575971,0.2324488532662029,-0.26752689150118275,0.12941275472491584,0.28625963065850957,-0.01773726713898579,0.0130167217575971,0.03239759092184255,-0.26752689150118275,0.12941275472491584,0.28524412315118536,-0.016833114019192175,-0.03529520310310954,0.0004176263874052785,0.024521721550028828,-0.5495710619153532,-0.00013731841822503223,0.0,-4.782099333018064,-1.9448670661076901,-14.292845706403254,0.0,0.0,0.0,0.0,0.0,0.20005126234436035,0.0,0.0,0.0010155075073242194,0.0,0.0,0.0,0.0,0.0,0.0
0.16000000000000006,-0.0190749015964917,0.013663785531221679,0.23388015141949545,-0.2702323866741573,0.12560666318007868,0.26438193486105277,-0.01773726713898579,0.0130167217575971,0.03239759092184255,-0.26752689150118275,0.12941275472491584,0.28524412315118536,-0.016630483215742262,-0.03801822946093202,0.0004625065959056546,0.05718844441839817,-0.5397871789757009,-0.0001639253048154114,0.0,5.511700020968914,-3.663603379882872,-12.921082336217165,0.0,0.0,0.0,0.0,0.0,0.20005650763480423,0.0,0.0,0.0010829554692077645,0.0,0.0,0.0,0.0,0.0,0.0
0.16500000000000006,-0.02042606352986249,0.014291818847122072,0.2352020610938007,-0.2698495790777937,0.12120251429064383,0.24248970422337068,-0.01773726713898579,0.0130167217575971,0.03239759092184255,-0.26752689150118275,0.12941275472491584,0.28524412315118536,-0.01626072802151372,-0.04064152708028333,0.0005048326194844876,0.09137922347727473,-0.5096681856845189,-0.00019376526414074783,0.0,5.511700020968914,-3.663603379882872,-12.921082336217165,0.0,0.0,0.0,0.0,0.0,0.20006209536,0.0,0.0,0.0011524800000000006,0.0,0.0,0.0,0.0,0.0,0.0
0.17000000000000007,-0.021775311425251458,0.014897831418575291,0.23641450961491756,-0.26715054440442654,0.11634982239276072,0.2205864843496351,-0.01773726713898579,0.0130167217575971,0.03239759092184255,-0.26752689150118275,0.12941275472491584,0.28524412315118536,-0.015718213724303088,-0.043076147025769645,0.0005427915738593531,0.12626174451967362,-0.46429787815807866,-0.00022680932700195266,0.0,5.511700020968914,-3.663603379882872,-12.921082336217165,0.0,0.0,0.0,0.0,0.0,0.20006803588168015,0.0,0.0,0.0012240726567077647,0.0,0.0,0.0,0.0,0.0,0.0
0.17500000000000007,-0.02311106414727359,0.015479580530539095,0.23751744203666572,-0.2627143394233067,0.11116072323854141,0.19867493168978176,-0.01773726713898579,0.0130167217575971,0.03239759092184255,-0.26752689150118275,0.12941275472491584,0.28524412315118536,-0.015000998961197071,-0.0452553753968999,0.00057512213310212,0.16119499798622644,-0.4074891072323345,-0.000262902307332629,0.0,5.511700020968914,-3.663603379882872,-12.921082336217165,0.0,0.0,0.0,0.0,0.0,0.20007433951938966,0.0,0.0,0.0012977250073242198,0.0,0.0,0.0,0.0,0.0,0.0
0.18000000000000008,-0.024424635844390124,0.016035384146731804,0.23851081669511462,-0.25697525671137234,0.10571931864206996,0.1767570358259598,-0.01773726713898579,0.0130167217575971,0.03239759092184255,-0.26752689150118275,0.12941275472491584,0.28524412315118536,-0.014109985076225504,-0.04712917315663781,0.0006010652070409268,0.19568960534699634,-0.34210151471423866,-0.00030176492125282966,0.0,5.511700020968914,-3.663603379882872,-12.921082336217165,0.0,0.0,0.0,0.0,0.0,0.20008101655054095,0.0,0.0,0.0013734286308288584,0.0,0.0,0.0,0.0,0.0,0.0
0.18500000000000008,-0.025709512127946987,0.01656398073994215,0.2393946018742444,-0.2502590157013271,0.1000886849639094,0.15483428618740425,-0.01773726713898579,0.0130167217575971,0.03239759092184255,-0.26752689150118275,0.12941275472491584,0.28524412315118536,-0.01304824308592697,-0.04866181371425769,0.0006203414081159928,0.22937624234426676,-0.27100280750903816,-0.0003430086624606916,0.0,5.511700020968914,-3.663603379882872,-12.921082336217165,0.0,0.0,0.0,0.0,0.0,0.20008807721046876,0.0,0.0,0.0014511751171875013,0.0,0.0,0.0,0.0,0.0,0.0
0.19000000000000009,-0.02696080720645362,0.0170644241647617,0.24016877330518144,-0.24280990596769866,0.094316129474482,0.13290779708662553,-0.01773726713898579,0.0130167217575971,0.03239759092184255,-0.26752689150118275,0.12941275472491584,0.28524412315118536,-0.01182048001840109,-0.04983039312491156,0.0006331191604157912,0.2619805108227702,-0.19645634099730697,-0.00038615957399322064,0.0,5.511700020968914,-3.663603379882872,-12.921082336217165,0.0,0.0,0.0,0.0,0.0,0.2000955316924852,0.0,0.0,0.0015309560673522965,0.0,0.0,0.0,0.0,0.0,0.0
0.1950000000000001,-0.028174856736292116,0.017536004812134107,0.24083331229061455,-0.23481114469138287,0.08843713262660446,0.11097840149658703,-0.01773726713898579,0.0130167217575971,0.03239759092184255,-0.26752689150118275,0.12941275472491584,0.28524412315118536,-0.010432614152095808,-0.05062205831078945,0.0006399488240847967,0.29330294638424576,-0.12022053261345944,-0.0004306877165227046,0.0,5.511700020968914,-3.663603379882872,-12.921082336217165,0.0,0.0,0.0,0.0,0.0,0.20010339014793457,0.0,0.0,0.0016127630932617203,0.0,0.0,0.0,0.0,0.0,0.0
0.2000000000000001,-0.02934891245974903,0.01797819047526713,0.2413882042980975,-0.22640014475805154,0.08247830475988935,0.0890467213836231,-0.01773726713898579,0.0130167217575971,0.03239759092184255,-0.26752689150118275,0.12941275472491584,0.28524412315118536,-0.00889143776638287,-0.05103174448676513,0.0006416969584711805,0.3232031155678785,-0.04365307259811754,-0.0004760390561367714,0.0,5.511700020968914,-3.663603379882872,-12.921082336217165,0.0,0.0,0.0,0.0,0.0,0.20011166268624833,0.0,0.0,0.0016965878178405776,0.0,0.0,0.0,0.0,0.0,0.0
0.2050000000000001,-0.030480913183539286,0.018390581999066576,0.2418334379050156,-0.21767996583195856,0.07645960362904604,0.06711322045716293,-0.030480913183539286,0.018390581999066576,0.0417130785300156,-0.21767996583195856,0.07645960362904604,0.06533079858216294,-0.007204349621510422,-0.051060380527693704,0.0006394838562659708,0.3515869694545172,0.03220611827796234,-0.0005216672955378697,0.0,5.511700020968914,-3.663603379882872,-12.921082336217165,0.0,0.0,0.0,0.0,0.0,0.200120359375,0.0,0.0,0.0017824218750000017,0.0,0.0,0.0,0.0,0.0,0.0
0.2100000000000001,-0.03156931301269908,0.018772880017211807,0.24216900400730143,-0.2117262570058687,0.070811799450633,0.04898951057361654,-0.030480913183539286,0.018390581999066576,0.0417130785300156,-0.21767996583195856,0.07645960362904604,0.06533079858216294,-0.005391197294819642,-0.050758733546661584,0.0006348960321114736,0.37358057135382045,0.08846181568860724,-0.0005670638709662663,0.0,-2.2926456098333,-2.7086242350563405,-3.49113138538599,0.0,0.0,0.0,0.0,0.0,0.20012949023996018,0.0,0.0,0.0018702569096374529,0.0,0.0,0.0,0.0,0.0,0.0
0.2150000000000001,-0.032627944297728424,0.019126939014464973,0.2424139515601695,-0.20784740075478114,0.06544216798654265,0.033723031014649595,-0.030480913183539286,0.018390581999066576,0.0417130785300156,-0.21767996583195856,0.07645960362904604,0.06533079858216294,-0.0034809299345044276,-0.05021440373530791,0.0006295560272050924,0.39041856524360485,0.129277437380527,-0.0006117914931164785,0.0,-2.2926456098333,-2.7086242350563405,-3.49113138538599,0.0,0.0,0.0,0.0,0.0,0.20013906526515138,0.0,0.0,0.0019600845776367205,0.0,0.0,0.0,0.0,0.0,0.0
0.2200000000000001,-0.03366718130150233,0.019454149854397685,0.24258256671524275,-0.20552468393494533,0.060281166058194335,0.020599358470599065,-0.030480913183539286,0.018390581999066576,0.0417130785300156,-0.21767996583195856,0.07645960362904604,0.06533079858216294,-0.001496915233525201,-0.04949631256794499,0.0006246142677665608,0.4030887803828838,0.15796307454779013,-0.0006555095852760404,0.0,-2.2926456098333,-2.7086242350563405,-3.49113138538599,0.0,0.0,0.0,0.0,0.0,0.200149094392903,0.0,0.0,0.002051896545867922,0.0,0.0,0.0,0.0,0.0,0.0
0.22500000000000012,-0.03469480472117705,0.019755555684688657,0.24268556350759574,-0.20436907168854831,0.05527663628165254,0.009082672686511617,-0.030480913183539286,0.018390581999066576,0.0417130785300156,-0.21767996583195856,0.07645960362904604,0.06533079858216294,0.0005419477492069795,-0.04865853320695768,0.0006208390234803148,0.4123822927294861,0.1771493835272952,-0.0006979810498346851,0.0,-2.2926456098333,-2.7086242350563405,-3.49113138538599,0.0,0.0,0.0,0.0,0.0,0.20015958752390625,0.0,0.0,0.0021456844921875023,0.0,0.0,0.0,0.0,0.0,0.0
0.23000000000000012,-0.03571665007961979,0.02003193886609692,0.2427309768710283,-0.20408878787223042,0.05038946061896563,-0.0012288943032928504,-0.030480913183539286,0.018390581999066576,0.0417130785300156,-0.21767996583195856,0.07645960362904604,0.06533079858216294,0.0026203399724589287,-0.04774334015200449,0.0006186986663641391,0.41893329844314625,0.18892606849526147,-0.0007390671579379802,0.0,-2.2926456098333,-2.7086242350563405,-3.49113138538599,0.0,0.0,0.0,0.0,0.0,0.20017055451726914,0.0,0.0,0.002241440105438235,0.0,0.0,0.0,0.0,0.0,0.0
0.23500000000000013,-0.03673709401898095,0.02028388616919175,0.24272483239951184,-0.20446500037847185,0.04559030054166989,-0.010636746249263848,-0.030480913183539286,0.018390581999066576,0.0417130785300156,-0.21767996583195856,0.07645960362904604,0.06533079858216294,0.004725813110709198,-0.04678363723121587,0.0006184325256680445,0.42325087397025174,0.19495216488997077,-0.0007787155742996425,0.0,-2.2926456098333,-2.7086242350563405,-3.49113138538599,0.0,0.0,0.0,0.0,0.0,0.2001820051905713,0.0,0.0,0.0023391550854492214,0.0,0.0,0.0,0.0,0.0,0.0
0.24000000000000013,-0.037759419020873305,0.020511837671900096,0.24267164866826552,-0.20533358512663277,0.04085715215341752,-0.019366938742117625,-0.030480913183539286,0.018390581999066576,0.0417130785300156,-0.21767996583195856,0.07645960362904604,0.06533079858216294,0.006848223512806245,-0.04580489058259561,0.0006201095835849607,0.42574427480657967,0.19654386528613815,-0.0008169450586066354,0.0,-2.2926456098333,-2.7086242350563405,-3.49113138538599,0.0,0.0,0.0,0.0,0.0,0.200193949319919,0.0,0.0,0.002438821143035891,0.0,0.0,0.0,0.0,0.0,0.0
0.24500000000000013,-0.03878608694650647,0.020716123432667183,0.24257481397455494,-0.20657144905623331,0.036173512531947685,-0.02758901625442558,-0.030480913183539286,0.018390581999066576,0.0417130785300156,-0.21767996583195856,0.07645960362904604,0.06533079858216294,0.008979280514431634,-0.044826667453375664,0.0006236757504911467,0.4267430886177674,0.19474446035572887,-0.0008538292329619598,0.0,-2.2926456098333,-2.7086242350563405,-3.49113138538599,0.0,0.0,0.0,0.0,0.0,0.20020639664,0.0,0.0,0.002540430000000003,0.0,0.0,0.0,0.0,0.0,0.0
0.2500000000000001,-0.039818944191787636,0.020896990995326922,0.2424368688932828,-0.20808627237191357,0.03152700448556475,-0.03543013992177107,-0.030480913183539286,0.018390581999066576,0.0417130785300156,-0.21767996583195856,0.07645960362904604,0.06533079858216294,0.011112185965116168,-0.04386386109651292,0.0006289911153015615,0.42651329046979425,0.19038003650482088,-0.0008894809380680149,0.0,-2.2926456098333,-2.7086242350563405,-3.49113138538599,0.0,0.0,0.0,0.0,0.0,0.20021935684413866,0.0,0.0,0.0026439733891296417,0.0,0.0,0.0,0.0,0.0,0.0
0.2550000000000001,-0.0408593755536472,0.021054626017754745,0.24225971819367395,-0.2098088152271536,0.02690834512049699,-0.04298568337858253,-0.0408593755536472,0.021054626017754745,0.04202687860932336,-0.2098088152271536,0.02690834512049699,-0.04573512643278175,0.013241346473274586,-0.042927665687901226,0.0006358587597518779,0.42527003454654144,0.18410383030547323,-0.0009240380715237604,0.0,-2.2926456098333,-2.7086242350563405,-3.49113138538599,0.0,0.0,0.0,0.0,0.0,0.2002328395843506,0.0,0.0,0.0027494430541992214,0.0,0.0,0.0,0.0,0.0,0.0
0.2600000000000001,-0.04190841962978297,0.021189167743357232,0.24204478977678104,-0.20997871998279438,0.023049813700273192,-0.04860662030940494,-0.0408593755536472,0.021054626017754745,0.04202687860932336,-0.2098088152271536,0.02690834512049699,-0.04573512643278175,0.015353631291581014,-0.04200968819842685,0.0006442885358729396,0.419787000702772,0.18309784619342748,-0.0009576513604854491,0.0,2.210081726141274,-0.8976884931419044,0.7188888593092561,0.0,0.0,0.0,0.0,0.0,0.20024685447139787,0.0,0.0,0.002856830749969485,0.0,0.0,0.0,0.0,0.0,0.0
0.2650000000000001,-0.04295831322969694,0.021304416811858597,0.24180175667523401,-0.20898414616373567,0.019761378238682365,-0.05277674308902609,-0.0408593755536472,0.021054626017754745,0.04202687860932336,-0.2098088152271536,0.02690834512049699,-0.04573512643278175,0.017430419374217482,-0.04108694109731795,0.0006545593352320104,0.41109882721316676,0.18601873394944896,-0.0009904801140666662,0.0,2.210081726141274,-0.8976884931419044,0.7188888593092561,0.0,0.0,0.0,0.0,0.0,0.20026141107484377,0.0,0.0,0.002966128242187503,0.0,0.0,0.0,0.0,0.0,0.0
0.27000000000000013,-0.04400323396051562,0.021403223703052008,0.24153787295978887,-0.20711621341365238,0.01690051474606627,-0.05585889878583001,-0.0408593755536472,0.021054626017754745,0.04202687860932336,-0.2098088152271536,0.02690834512049699,-0.04573512643278175,0.01945772347492026,-0.040142441797274185,0.000666967412899772,0.4000242863466541,0.1918082319086395,-0.001022695516229892,0.0,2.210081726141274,-0.8976884931419044,0.7188888593092561,0.0,0.0,0.0,0.0,0.0,0.20027651892310777,0.0,0.0,0.003077327307586673,0.0,0.0,0.0,0.0,0.0,0.0
0.27500000000000013,-0.04503881502758388,0.02148772627678234,0.2412585784658597,-0.20459326146530063,0.014360330230181219,-0.05812522548984681,-0.0408593755536472,0.021054626017754745,0.04202687860932336,-0.2098088152271536,0.02690834512049699,-0.04573512643278175,0.02142522215124648,-0.03916393303565947,0.0006818016336972444,0.38721035823881067,0.19963473265359155,-0.001054483419392388,0.0,2.210081726141274,-0.8976884931419044,0.7188888593092561,0.0,0.0,0.0,0.0,0.0,0.2002921875035205,0.0,0.0,0.0031904197338867217,0.0,0.0,0.0,0.0,0.0,0.0
0.28000000000000014,-0.04606178133491039,0.021559527927933246,0.24096795233841048,-0.20157904511824756,0.012060654946844454,-0.059779829558755965,-0.0408593755536472,0.021054626017754745,0.04202687860932336,-0.2098088152271536,0.02690834512049699,-0.04573512643278175,0.023325489308686997,-0.038142865609231816,0.0006993258953025171,0.37316732916614676,0.20884675696492763,-0.001086046136826723,0.0,2.210081726141274,-0.8976884931419044,0.7188888593092561,0.0,0.0,0.0,0.0,0.0,0.2003084262623787,0.0,0.0,0.0033053973197937044,0.0,0.0,0.0,0.0,0.0,0.0
0.28500000000000014,-0.04706967656050162,0.02161983120266747,0.2406690531906167,-0.19819638047216848,0.009941361587918904,-0.06097579355235463,-0.0408593755536472,0.021054626017754745,0.04202687860932336,-0.2098088152271536,0.02690834512049699,-0.04573512643278175,0.0251533810400501,-0.03707359002496424,0.0007197676393558491,0.3582967416995711,0.21893591113404107,-0.0011176030405356601,0.0,2.210081726141274,-0.8976884931419044,0.7188888593092561,0.0,0.0,0.0,0.0,0.0,0.200325244605,0.0,0.0,0.0034222518750000037,0.0,0.0,0.0,0.0,0.0,0.0
0.29000000000000015,-0.04806065846286246,0.021669538010607062,0.24036417422285494,-0.19453737960181988,0.007957354672301763,-0.06182793218337494,-0.0408593755536472,0.021054626017754745,0.04202687860932336,-0.2098088152271536,0.02690834512049699,-0.04573512643278175,0.026905547724054128,-0.035952714506947106,0.0007433112213191103,0.3429136521387927,0.22950739649079602,-0.0011493899779650297,0.0,2.210081726141274,-0.8976884931419044,0.7188888593092561,0.0,0.0,0.0,0.0,0.0,0.20034265189577805,0.0,0.0,0.0035409752201843296,0.0,0.0,0.0,0.0,0.0,0.0
0.29500000000000015,-0.04903334536087156,0.021709324783968573,0.24005503456193808,-0.19067112656326918,0.00607481258916593,-0.06242235928056295,-0.0408593755536472,0.021054626017754745,0.04202687860932336,-0.2098088152271536,0.02690834512049699,-0.04573512643278175,0.028580045878580963,-0.03477859546064173,0.0007700949790527369,0.32726435430799244,0.24025653321233986,-0.001181657645951935,0.0,2.210081726141274,-0.8976884931419044,0.7188888593092561,0.0,0.0,0.0,0.0,0.0,0.2003606574582373,0.0,0.0,0.0036615591870117225,0.0,0.0,0.0,0.0,0.0,0.0
0.30000000000000016,-0.049986700993687905,0.0217396988469144,0.23974292276553527,-0.18664943439856688,0.004268369130391079,-0.06282366301095398,-0.0408593755536472,0.021054626017754745,0.04202687860932336,-0.2098088152271536,0.02690834512049699,-0.04573512643278175,0.03017602946199263,-0.03355093339351032,0.0008002109988520137,0.3115404928022449,0.2509500736284525,-0.001214669124694684,0.0,2.210081726141274,-0.8976884931419044,0.7188888593092561,0.0,0.0,0.0,0.0,0.0,0.20037927057508806,0.0,0.0,0.003783995618133549,0.0,0.0,0.0,0.0,0.0,0.0
0.30500000000000016,-0.05091994816568074,0.021761040692566357,0.2394288044504805,-0.18251116288925087,0.0025189996398869634,-0.06308028729654527,-0.05091994816568074,0.021761040692566357,0.03903030396219925,-0.18251116288925087,0.0025189996398869634,-0.06698856366373278,0.03169350445305418,-0.03227045278499133,0.0008337067613624112,0.295890300830679,0.2614113296262431,-0.001248696796734351,0.0,2.210081726141274,-0.8976884931419044,0.7188888593092561,0.0,0.0,0.0,0.0,0.0,0.20039850048828126,0.0,0.0,0.003908276367187504,0.0,0.0,0.0,0.0,0.0,0.0
0.31000000000000016,-0.051832503980126995,0.02177363569076579,0.23911340301399778,-0.1765434900734634,0.0005774547981885327,-0.06281701388647408,-0.05091994816568074,0.021761040692566357,0.03903030396219925,-0.18251116288925087,0.0025189996398869634,-0.06698856366373278,0.03313498035899694,-0.030923776348906473,0.0008710750035101305,0.2811721999811637,0.27746049105996295,-0.001284018870772155,0.0,6.860585312068462,-1.5890866698883472,1.7326413580477236,0.0,0.0,0.0,0.0,0.0,0.20041835639906358,0.0,0.0,0.0040343932987976115,0.0,0.0,0.0,0.0,0.0,0.0
0.31500000000000017,-0.05271522143049431,0.021776522964756732,0.2387993179445654,-0.16920376627782233,-0.001508221556905634,-0.06216398588199549,-0.05091994816568074,0.021761040692566357,0.03903030396219925,-0.18251116288925087,0.0025189996398869634,-0.06698856366373278,0.03450483174387891,-0.02948713084845134,0.0009132036198317779,0.26727720172935865,0.2974386705194805,-0.0013209275690772178,0.0,6.860585312068462,-1.5890866698883472,1.7326413580477236,0.0,0.0,0.0,0.0,0.0,0.20043884746803223,0.0,0.0,0.004162338288574223,0.0,0.0,0.0,0.0,0.0,0.0
0.3200000000000002,-0.05356124026188343,0.021768981856972205,0.23848849801515543,-0.16083500424729102,-0.0037019965470466024,-0.06121881340930419,-0.05091994816568074,0.021761040692566357,0.03903030396219925,-0.18251116288925087,0.0025189996398869634,-0.06698856366373278,0.03580694873943031,-0.027944135689303328,0.0009608059005752176,0.2541162053724228,0.3200470360277791,-0.0013597447772939384,0.0,6.860585312068462,-1.5890866698883472,1.7326413580477236,0.0,0.0,0.0,0.0,0.0,0.20045998281518998,0.0,0.0,0.004292103223114018,0.0,0.0,0.0,0.0,0.0,0.0
0.3250000000000002,-0.05436541528311988,0.02175047187423697,0.2381824039481089,-0.15169446354059207,-0.005976845513472672,-0.06005470686440984,-0.05091994816568074,0.021761040692566357,0.03903030396219925,-0.18251116288925087,0.0025189996398869634,-0.06698856366373278,0.03704482562144139,-0.026284187399896564,0.0010144326099519306,0.24161599754068902,0.34427275454877587,-0.0014008292844761598,0.0,6.860585312068462,-1.5890866698883472,1.7326413580477236,0.0,0.0,0.0,0.0,0.0,0.20048177152000002,0.0,0.0,0.004423680000000005,0.0,0.0,0.0,0.0,0.0,0.0
0.3300000000000002,-0.05512388760082284,0.02172058764666961,0.23788213041378686,-0.14197508882676738,-0.008312499962112568,-0.05872657684676007,-0.05091994816568074,0.021761040692566357,0.03903030396219925,-0.18251116288925087,0.0025189996398869634,-0.06698856366373278,0.03822163126806844,-0.024501176800495333,0.0010744867075263098,0.22971606528339827,0.3693300339568629,-0.0014445779454325025,0.0,6.860585312068462,-1.5890866698883472,1.7326413580477236,0.0,0.0,0.0,0.0,0.0,0.2005042226214409,0.0,0.0,0.004557060527801519,0.0,0.0,0.0,0.0,0.0,0.0
0.3350000000000002,-0.05583376304495668,0.021679025146859047,0.23758849752955305,-0.13182158860759838,-0.010693758522412833,-0.05727560910942429,-0.05091994816568074,0.021761040692566357,0.03903030396219925,-0.18251116288925087,0.0025189996398869634,-0.06698856366373278,0.039340265192726674,-0.022592471021060222,0.0011412390775028224,0.2183660571413273,0.394613188854455,-0.001491422631347395,0.0,6.860585312068462,-1.5890866698883472,1.7326413580477236,0.0,0.0,0.0,0.0,0.0,0.20052734511806153,0.0,0.0,0.004692236726074224,0.0,0.0,0.0,0.0,0.0,0.0
0.3400000000000002,-0.05649287098799467,0.021625556354246983,0.23730211948400592,-0.12134249425942116,-0.013109220166458376,-0.055732695771698156,-0.05091994816568074,0.021761040692566357,0.03903030396219925,-0.18251116288925087,0.0025189996398869634,-0.06698856366373278,0.04040340210387891,-0.020558106341657664,0.0012148442317918852,0.2075237603328415,0.4196592816623338,-0.0015418244291766014,0.0,6.860585312068462,-1.5890866698883472,1.7326413580477236,0.0,0.0,0.0,0.0,0.0,0.20055114796803605,0.0,0.0,0.0048292005253601136,0.0,0.0,0.0,0.0,0.0,0.0
0.3450000000000002,-0.05709958345929178,0.02156001025341469,0.23702345600514743,-0.11061920431448777,-0.015550334123312876,-0.054121008728523594,-0.05091994816568074,0.021761040692566357,0.03903030396219925,-0.18251116288925087,0.0025189996398869634,-0.06698856366373278,0.04141352735046103,-0.018400148830950393,0.0012953553590807532,0.19715348902822868,0.44411838897544864,-0.001596266208455748,0.0,6.860585312068462,-1.5890866698883472,1.7326413580477236,0.0,0.0,0.0,0.0,0.0,0.20057564008921877,0.0,0.0,0.004967943867187505,0.0,0.0,0.0,0.0,0.0,0.0
0.3500000000000002,-0.05765267948086422,0.021482258582798126,0.2367528509615048,-0.09971276767198725,-0.018010687314774097,-0.052457929707520515,-0.05091994816568074,0.021761040692566357,0.03903030396219925,-0.18251116288925087,0.0025189996398869634,-0.06698856366373278,0.042372965135610494,-0.016122188520360313,0.0013827383642889992,0.18722480006832895,0.46772994022887515,-0.0016552443928343902,0.0,6.860585312068462,-1.5890866698883472,1.7326413580477236,0.0,0.0,0.0,0.0,0.0,0.20060083035919907,0.0,0.0,0.00510845870407105,0.0,0.0,0.0,0.0,0.0,0.0
0.3550000000000002,-0.05815124331922416,0.021392205146224256,0.2364905613129672,-0.08866897100631138,-0.020485469932190355,-0.0507564978117274,-0.05815124331922416,0.021392205146224256,0.03586383369761073,-0.08866897100631138,-0.020485469932190355,-0.05600723481123912,0.04328390099968859,-0.013728939829670744,0.0014768847226087137,0.17771146951067207,0.4903038919249373,-0.0017192605467682075,0.0,6.860585312068462,-1.5890866698883472,1.7326413580477236,0.0,0.0,0.0,0.0,0.0,0.20062672761535646,0.0,0.0,0.005250736999511725,0.0,0.0,0.0,0.0,0.0,0.0
0.3600000000000002,-0.05859458817425572,0.021289777796563304,0.23623677882390856,-0.0771165841799203,-0.023068804059831534,-0.04931799846803613,-0.05815124331922416,0.021392205146224256,0.03586383369761073,-0.08866897100631138,-0.020485469932190355,-0.05600723481123912,0.04414934214487769,-0.011221851942720068,0.001577802740094125,0.1689684411288404,0.5133371639490443,-0.0017888132080870224,0.0,8.191123180657625,-1.917212308846414,0.9865172444824128,0.0,0.0,0.0,0.0,0.0,0.20065334065491533,0.0,0.0,0.005394770727996833,0.0,0.0,0.0,0.0,0.0,0.0
0.3650000000000002,-0.05898017109515532,0.021174433776264146,0.2359901888315684,-0.06518275473299281,-0.0257335518201414,-0.0480768952642475,-0.05815124331922416,0.021392205146224256,0.03586383369761073,-0.08866897100631138,-0.020485469932190355,-0.05600723481123912,0.044972886542714204,-0.00859993106031959,0.0016855957772360607,0.1608765096217002,0.5363107246348013,-0.0018643946325910198,0.0,8.191123180657625,-1.917212308846414,0.9865172444824128,0.0,0.0,0.0,0.0,0.0,0.20068067823500002,0.0,0.0,0.005540551875000008,0.0,0.0,0.0,0.0,0.0,0.0
0.3700000000000002,-0.05930608486882028,0.021045766017163438,0.23574980435524714,-0.05296284332066302,-0.02845935980495278,-0.046984038701067286,-0.05815124331922416,0.021392205146224256,0.03586383369761073,-0.08866897100631138,-0.020485469932190355,-0.05600723481123912,0.045757598355638834,-0.005864462756712169,0.0018002580825531424,0.15333978645999827,0.5588307795686425,-0.0019464907217839266,0.0,8.191123180657625,-1.917212308846414,0.9865172444824128,0.0,0.0,0.0,0.0,0.0,0.20070874907268968,0.0,0.0,0.005688072436981207,0.0,0.0,0.0,0.0,0.0,0.0
0.3750000000000002,-0.059570899085423595,0.020903469218138675,0.2355148841617418,-0.040528370434281494,-0.0312309629581403,-0.046002569464657916,-0.05815124331922416,0.021392205146224256,0.03586383369761073,-0.08866897100631138,-0.020485469932190355,-0.05600723481123912,0.04650611120653454,-0.003018451534775442,0.001921693645531189,0.14628096576005076,0.5806025833708932,-0.0020355783672826974,0.0,8.191123180657625,-1.917212308846414,0.9865172444824128,0.0,0.0,0.0,0.0,0.0,0.20073756184507324,0.0,0.0,0.0058373244213867255,0.0,0.0,0.0,0.0,0.0,0.0
0.3800000000000002,-0.059773540937595,0.020747314403347972,0.2352848713144185,-0.02793297644236117,-0.03403691248760993,-0.045104845881019276,-0.05815124331922416,0.021392205146224256,0.03586383369761073,-0.08866897100631138,-0.020485469932190355,-0.05600723481123912,0.047220710339012366,-6.617793559718062e-05,0.002049732425485305,0.13963755410674666,0.6014096029190381,-0.0021321213384556566,0.0,8.191123180657625,-1.917212308846414,0.9865172444824128,0.0,0.0,0.0,0.0,0.0,0.20076712518930437,0.0,0.0,0.005988299846649177,0.0,0.0,0.0,0.0,0.0,0.0
0.38500000000000023,-0.05991320581980681,0.02057712984090992,0.23505934708501341,-0.01521689162128675,-0.03686862179929113,-0.04427013950674152,-0.05815124331922416,0.021392205146224256,0.03586383369761073,-0.08866897100631138,-0.020485469932190355,-0.05600723481123912,0.04790339799496179,0.002987150835053781,0.0021841442366489047,0.13335886811160202,0.6210969420121161,-0.002236565507078587,0.0,8.191123180657625,-1.917212308846414,0.9865172444824128,0.0,0.0,0.0,0.0,0.0,0.20079744770265626,0.0,0.0,0.0061409907421875074,0.0,0.0,0.0,0.0,0.0,0.0
0.39000000000000024,-0.05998929027791324,0.020392786731913467,0.2348379963874797,-0.0024102886783467555,-0.03971965094763101,-0.043482906822036864,-0.05815124331922416,0.021392205146224256,0.03586383369761073,-0.08866897100631138,-0.020485469932190355,-0.05600723481123912,0.0485559454534686,0.006135675903113791,0.0023246505758432712,0.1274036434321618,0.639558159415768,-0.0023493339531799637,0.0,8.191123180657625,-1.917212308846414,0.9865172444824128,0.0,0.0,0.0,0.0,0.0,0.20082853794257677,0.0,0.0,0.006295389148406991,0.0,0.0,0.0,0.0,0.0,0.0
0.39500000000000024,-0.060001341721304974,0.02019418847717531,0.23462058185336954,0.010464202855992418,-0.042585169973464905,-0.04273149300048073,-0.05815124331922416,0.021392205146224256,0.03586383369761073,-0.08866897100631138,-0.020485469932190355,-0.05600723481123912,0.0491799344718858,0.009373102585163603,0.002470934665434552,0.12173813078818609,0.6567247889781175,-0.002470822311288425,0.0,8.191123180657625,-1.917212308846414,0.9865172444824128,0.0,0.0,0.0,0.0,0.0,0.2008604044267432,0.0,0.0,0.0064514871166992255,0.0,0.0,0.0,0.0,0.0,0.0
0.40000000000000024,-0.059949020707025014,0.019981262627307986,0.23440692438836713,0.023389610833880976,-0.04546155640741931,-0.04200715973628499,-0.05815124331922416,0.021392205146224256,0.03586383369761073,-0.08866897100631138,-0.020485469932190355,-0.05600723481123912,0.0497767903094795,0.012692869243966428,0.002622649960862036,0.11633457984336276,0.6725580112686739,-0.0026013945810978104,0.0,8.191123180657625,-1.917212308846414,0.9865172444824128,0.0,0.0,0.0,0.0,0.0,0.20089305563311724,0.0,0.0,0.006609276709442147,0.0,0.0,0.0,0.0,0.0,0.0
0.40500000000000025,-0.05983207265285561,0.01975395484527089,0.2341968885896857,0.03635320614443158,-0.048346093397464096,-0.04130335611472027,-0.05983207265285561,0.01975395484527089,0.0332703885896857,0.03635320614443158,-0.048346093397464096,-0.04807210611472028,0.050347808067753165,0.016088278801569954,0.002779427344735097,0.11117003199725521,0.6870420382935921,-0.002741379529285662,0.0,8.191123180657625,-1.917212308846414,0.9865172444824128,0.0,0.0,0.0,0.0,0.0,0.2009265,0.0,0.0,0.00676875000000001,0.0,0.0,0.0,0.0,0.0,0.0
0.41000000000000025,-0.05965030662213345,0.01951222437828357,0.2339903718091121,0.04883257651721228,-0.05113233437154943,-0.04080590233201436,-0.05983207265285561,0.01975395484527089,0.0332703885896857,0.03635320614443158,-0.048346093397464096,-0.04807210611472028,0.050893380929170055,0.01954853843621572,0.002940674056669801,0.10590984899862746,0.6985518877082345,-0.002891067740557254,0.0,7.207182469725608,-1.7300693469531834,0.4990135980667546,0.0,0.0,0.0,0.0,0.0,0.2009607459260869,0.0,0.0,0.006929899072723397,0.0,0.0,0.0,0.0,0.0,0.0
0.41500000000000026,-0.05940614373954739,0.019256562706425822,0.23378634229745204,0.06094877818666557,-0.05384485333366518,-0.04046343578390105,-0.05983207265285561,0.01975395484527089,0.0332703885896857,0.03635320614443158,-0.048346093397464096,-0.04807210611472028,0.051413221383983035,0.023059904645067006,0.0031056220116762543,0.10062076153418802,0.7075301885414442,-0.003050704283702565,0.0,7.207182469725608,-1.7300693469531834,0.4990135980667546,0.0,0.0,0.0,0.0,0.0,0.20099580177052248,0.0,0.0,0.0070927160229492265,0.0,0.0,0.0,0.0,0.0,0.0
0.42000000000000026,-0.05910139984861406,0.018987338439757497,0.23358402511853255,0.07279260332862329,-0.05650208078680373,-0.04023743733334184,-0.05983207265285561,0.01975395484527089,0.0332703885896857,0.03635320614443158,-0.048346093397464096,-0.04807210611472028,0.05190733006917762,0.02661064464915993,0.0032735795797756246,0.09535435213403276,0.7143390682214461,-0.0032204793261891847,0.0,7.207182469725608,-1.7300693469531834,0.4990135980667546,0.0,0.0,0.0,0.0,0.0,0.20103167585295548,0.0,0.0,0.007257192957000742,0.0,0.0,0.0,0.0,0.0,0.0
0.42500000000000027,-0.05873743683197094,0.01870482803582348,0.23338283793186584,0.08443214607495934,-0.05911783960820939,-0.04009902044417072,-0.05983207265285561,0.01975395484527089,0.0332703885896857,0.03635320614443158,-0.048346093397464096,-0.04807210611472028,0.05237592852587002,0.030190674032337578,0.0034439198035150845,0.0901501786946339,0.7192761538718184,-0.00340052342098356,0.0,7.207182469725608,-1.7300693469531834,0.4990135980667546,0.0,0.0,0.0,0.0,0.0,0.20106837645359377,0.0,0.0,0.007423321992187509,0.0,0.0,0.0,0.0,0.0,0.0
0.43000000000000027,-0.05831527610159614,0.01840923883778243,0.23318234282964498,0.09591847702457913,-0.06170249695581538,-0.040026523031295544,-0.05983207265285561,0.01975395484527089,0.0332703885896857,0.03635320614443158,-0.048346093397464096,-0.04807210611472028,0.052819405919238206,0.033791266238794145,0.0036160708964628435,0.08503826177742645,0.7225873280249281,-0.0035909060521333693,0.0,7.207182469725608,-1.7300693469531834,0.4990135980667546,0.0,0.0,0.0,0.0,0.0,0.20110591181325913,0.0,0.0,0.007591095256805429,0.0,0.0,0.0,0.0,0.0,0.0
0.4350000000000003,-0.05783568371647325,0.018100726353003353,0.2329822102144885,0.10728989912666173,-0.06426382819807161,-0.040003701348316774,-0.05983207265285561,0.01975395484527089,0.0332703885896857,0.03635320614443158,-0.048346093397464096,-0.04807210611472028,0.053238276870134146,0.0374048193601231,0.0037895085694116763,0.08004106516824917,0.7244768992856941,-0.003791636406334501,0.0,7.207182469725608,-1.7300693469531834,0.4990135980667546,0.0,0.0,0.0,0.0,0.0,0.2011442901334424,0.0,0.0,0.007760504890136729,0.0,0.0,0.0,0.0,0.0,0.0
0.4400000000000003,-0.05729923422083994,0.017779407212012995,0.23278219170774692,0.11857513959309145,-0.06680766486131554,-0.04001837540320943,-0.05983207265285561,0.01975395484527089,0.0332703885896857,0.03635320614443158,-0.048346093397464096,-0.04807210611472028,0.05363314813028978,0.041024668607580174,0.003963749822902258,0.07517507282386855,0.7251157139906348,-0.004002665621113526,0.0,7.207182469725608,-1.7300693469531834,0.4990135980667546,0.0,0.0,0.0,0.0,0.0,0.2011835195763582,0.0,0.0,0.00793154304244996,0.0,0.0,0.0,0.0,0.0,0.0
0.4450000000000003,-0.056706358522874485,0.017445368887706418,0.23258209983073086,0.12979574383278147,-0.06933838059030022,-0.040061413020052464,-0.05983207265285561,0.01975395484527089,0.0332703885896857,0.03635320614443158,-0.048346093397464096,-0.04807210611472028,0.05400469229610149,0.044644935226515726,0.004138347916519924,0.07045204433918027,0.7246476278025085,-0.004223889970491246,0.0,7.207182469725608,-1.7300693469531834,0.4990135980667546,0.0,0.0,0.0,0.0,0.0,0.20122360826500002,0.0,0.0,0.008104201875000008,0.0,0.0,0.0,0.0,0.0,0.0
0.4500000000000003,-0.056057379803710575,0.017098676984754917,0.2323817927656306,0.14096787090241678,-0.07185925561859047,-0.04012596788529375,-0.05983207265285561,0.01975395484527089,0.0332703885896857,0.03635320614443158,-0.048346093397464096,-0.04807210611472028,0.05435362712409519,0.048260404490454094,0.004312888282232771,0.06588001434991296,0.7231946708839753,-0.004455154604281444,0.0,7.207182469725608,-1.7300693469531834,0.4990135980667546,0.0,0.0,0.0,0.0,0.0,0.20126456428319506,0.0,0.0,0.008278473560028086,0.0,0.0,0.0,0.0,0.0,0.0
0.4550000000000003,-0.05535254044919849,0.016739380706661963,0.2321811629262041,0.152103640094511,-0.07437275012135991,-0.040206908082416934,-0.05535254044919849,0.016739380706661963,0.030874767250544916,0.152103640094511,-0.07437275012135991,-0.04866125836317867,0.05468069930391516,0.05186642690995715,0.0044869851943598865,0.06146408797061867,0.7208611723642996,-0.004696257571299708,0.0,7.207182469725608,-1.7300693469531834,0.4990135980667546,0.0,0.0,0.0,0.0,0.0,0.2013063956756592,0.0,0.0,0.008454350280761731,0.0,0.0,0.0,0.0,0.0,0.0
0.4600000000000003,-0.05459202224872593,0.016367516956055164,0.23198012838579202,0.16239616356172146,-0.07640760848857846,-0.040230386839287466,-0.05535254044919849,0.016739380706661963,0.030874767250544916,0.152103640094511,-0.07437275012135991,-0.04866125836317867,0.0549823620343877,0.05545141808329147,0.004659865599706682,0.05549230638897086,0.7147645263199808,-0.004946953940119535,0.0,5.413692252025008,-0.5682070822175592,0.6748610028661787,0.0,0.0,0.0,0.0,0.0,0.20134911044805193,0.0,0.0,0.008631824231414805,0.0,0.0,0.0,0.0,0.0,0.0
0.4650000000000003,-0.05378004143091732,0.015985478913612274,0.2317789764515956,0.17205625273526912,-0.07808348975413383,-0.04021102254949664,-0.05535254044919849,0.016739380706661963,0.030874767250544916,0.152103640094511,-0.07437275012135991,-0.04866125836317867,0.055251887804977654,0.05899874214891185,0.004830447414628457,0.04841568688534902,0.7057630766412398,-0.005206949822042384,0.0,5.413692252025008,-0.5682070822175592,0.6748610028661787,0.0,0.0,0.0,0.0,0.0,0.20139271656703125,0.0,0.0,0.008810887617187511,0.0,0.0,0.0,0.0,0.0,0.0
0.4700000000000003,-0.05291976016724098,0.015595061464841605,0.2315779213388481,0.18124201618856967,-0.07949013819344182,-0.04015978182747157,-0.05535254044919849,0.016739380706661963,0.030874767250544916,0.152103640094511,-0.07437275012135991,-0.04866125836317867,0.05548455881280039,0.062495611579177775,0.004997831921068981,0.04058816572720995,0.6945395777039542,-0.005475890774445719,0.0,5.413692252025008,-0.5682070822175592,0.6748610028661787,0.0,0.0,0.0,0.0,0.0,0.2014372219603087,0.0,0.0,0.008991532654266369,0.0,0.0,0.0,0.0,0.0,0.0
0.4750000000000003,-0.052013550086298134,0.015197610773874395,0.23137712242971076,0.19007203535168488,-0.08069486201306428,-0.04008489245339803,-0.05535254044919849,0.016739380706661963,0.030874767250544916,0.152103640094511,-0.07437275012135991,-0.04866125836317867,0.05567723304922885,0.06593229893314995,0.0051612741953953505,0.03228653076686833,0.6816368940634713,-0.0057533580778643045,0.0,5.413692252025008,-0.5682070822175592,0.6748610028661787,0.0,0.0,0.0,0.0,0.0,0.20148263451670412,0.0,0.0,0.00917375156982423,0.0,0.0,0.0,0.0,0.0,0.0
0.4800000000000003,-0.05106318990953971,0.014794136463809074,0.23117669796744378,0.1986352462971611,-0.08174814236792259,-0.03999252808188099,-0.05535254044919849,0.016739380706661963,0.030874767250544916,0.152103640094511,-0.07437275012135991,-0.04866125836317867,0.05582799960143612,0.06930150886475693,0.005320159107547604,0.023726291657372486,0.6674864352582667,-0.006038870232486117,0.0,5.413692252025008,-0.5682070822175592,0.6748610028661787,0.0,0.0,0.0,0.0,0.0,0.20152896208620072,0.0,0.0,0.009357536602020275,0.0,0.0,0.0,0.0,0.0,0.0
0.4850000000000003,-0.0500700136780539,0.014385395751969461,0.23097673532703436,0.20699835107940803,-0.08268784012420778,-0.03988732177340831,-0.05535254044919849,0.016739380706661963,0.030874767250544916,0.152103640094511,-0.07437275012135991,-0.04866125836317867,0.05593590494721895,0.07259787778784642,0.0054739816115261354,0.015074314810479352,0.6524308047786654,-0.0063318877736447746,0.0,5.413692252025008,-0.5682070822175592,0.6748610028661787,0.0,0.0,0.0,0.0,0.0,0.20157621248000002,0.0,0.0,0.00954288000000001,0.0,0.0,0.0,0.0,0.0,0.0
0.4900000000000003,-0.04903502192265686,0.013971956551348422,0.23077729871816732,0.21521137623923303,-0.08354235093156315,-0.03977275114291719,-0.05535254044919849,0.016739380706661963,0.030874767250544916,0.152103640094511,-0.07437275012135991,-0.04866125836317867,0.05600073574519805,0.07581757523036319,0.005622330412642804,0.006458881824406149,0.6367418411050384,-0.006631820056613006,0.0,5.413692252025008,-0.5682070822175592,0.6748610028661787,0.0,0.0,0.0,0.0,0.0,0.20162439347057665,0.0,0.0,0.009729774023895278,0.0,0.0,0.0,0.0,0.0,0.0
0.49500000000000033,-0.047958965041460695,0.013554244796690606,0.23057843496245273,0.22331184168224158,-0.08433297152722113,-0.03965142722118732,-0.05535254044919849,0.016739380706661963,0.030874767250544916,0.152103640094511,-0.07437275012135991,-0.04866125836317867,0.056022846583450074,0.07895798619293744,0.005764874337770756,-0.0020223040011796735,0.6206349888870203,-0.00693803306345395,0.0,5.413692252025008,-0.5682070822175592,0.6748610028661787,0.0,0.0,0.0,0.0,0.0,0.2016735127917334,0.0,0.0,0.009918210944824231,0.0,0.0,0.0,0.0,0.0,0.0
0.5000000000000003,-0.04684240583304949,0.013132579939054501,0.2303801778263468,0.2313278873376378,-0.08507567446410609,-0.039525311100854534,-0.05535254044919849,0.016739380706661963,0.030874767250544916,0.152103640094511,-0.07437275012135991,-0.04866125836317867,0.0560030235046132,0.08201745803600248,0.005901350898093248,-0.010295745250781304,0.6042807473354234,-0.007249857578321746,0.0,5.413692252025008,-0.5682070822175592,0.6748610028661787,0.0,0.0,0.0,0.0,0.0,0.20172357813865618,0.0,0.0,0.01010818304489137,0.0,0.0,0.0,0.0,0.0,0.0
0.5050000000000003,-0.0456857663963613,0.01270720156673397,0.23018255127084253,0.23928061815232476,-0.08578243915691126,-0.039395876420889556,-0.0456857663963613,0.01270720156673397,0.02840795410287375,0.23928061815232476,-0.08578243915691126,-0.04969555903807707,0.05594237599893385,0.08499509877233659,0.006031556647897145,-0.01830707932725712,0.5878137907887533,-0.00756659729106174,0.0,5.413692252025008,-0.5682070822175592,0.6748610028661787,0.0,0.0,0.0,0.0,0.0,0.20177459716796878,0.0,0.0,0.010299682617187514,0.0,0.0,0.0,0.0,0.0,0.0
0.5100000000000003,-0.044489363305599675,0.012278289370949413,0.22998557188873808,0.24636675846063474,-0.08601943279036643,-0.03918696773330462,-0.0456857663963613,0.01270720156673397,0.02840795410287375,0.23928061815232476,-0.08578243915691126,-0.04969555903807707,0.05583815594726371,0.08788309134932772,0.006154912545006713,-0.027640407979373453,0.5683254876902893,-0.007887536543219326,0.0,3.541787956126034,0.5545051866620778,0.8683332924786954,0.0,0.0,0.0,0.0,0.0,0.20182657749778796,0.0,0.0,0.01049270196578981,0.0,0.0,0.0,0.0,0.0,0.0
0.5150000000000003,-0.0432575295132965,0.011848192206997581,0.22978963705007155,0.25280295588916196,-0.08590409812930909,-0.03891873476801604,-0.0456857663963613,0.01270720156673397,0.02840795410287375,0.23928061815232476,-0.08578243915691126,-0.04969555903807707,0.055684758667670683,0.0906685410449567,0.006270556978062346,-0.037842381778091946,0.5466904632543106,-0.008211937154203876,0.0,3.541787956126034,0.5545051866620778,0.8683332924786954,0.0,0.0,0.0,0.0,0.0,0.20187952670777834,0.0,0.0,0.010687233405761732,0.0,0.0,0.0,0.0,0.0,0.0
0.5200000000000004,-0.04199351473385069,0.011418671716351036,0.22959504337623146,0.25875169615785215,-0.08552451724736737,-0.038606292641596124,-0.0456857663963613,0.01270720156673397,0.02840795410287375,0.23928061815232476,-0.08578243915691126,-0.04969555903807707,0.05547861117636724,0.09334245304209901,0.006377856403005914,-0.048559559090918664,0.5235968996572422,-0.008539029346023002,0.0,3.541787956126034,0.5545051866620778,0.8683332924786954,0.0,0.0,0.0,0.0,0.0,0.20193345233920731,0.0,0.0,0.01088326926315309,0.0,0.0,0.0,0.0,0.0,0.0
0.5250000000000004,-0.04069975625306143,0.010991049130114198,0.22940201191302348,0.26433484355666453,-0.08494675169976236,-0.03826098051042729,-0.0456857663963613,0.01270720156673397,0.02840795410287375,0.23928061815232476,-0.08578243915691126,-0.04969555903807707,0.055217724057873,0.09589889656356539,0.006476366220694724,-0.05951781286964956,0.4995847083467181,-0.008868010753230267,0.0,3.541787956126034,0.5545051866620778,0.8683332924786954,0.0,0.0,0.0,0.0,0.0,0.20198836189500002,0.0,0.0,0.011080801875000015,0.0,0.0,0.0,0.0,0.0,0.0
0.5300000000000004,-0.03937808203527811,0.010566315371615386,0.22921070701047133,0.26964379630306856,-0.0842203476529099,-0.037891305560536666,-0.0456857663963613,0.01270720156673397,0.02840795410287375,0.23928061815232476,-0.08578243915691126,-0.04969555903807707,0.05490133555278931,0.09833434031961397,0.006565798468335173,-0.07050593740331662,0.4750759267953603,-0.009198050555269227,0.0,3.541787956126034,0.5545051866620778,0.8683332924786954,0.0,0.0,0.0,0.0,0.0,0.20204426283979418,0.0,0.0,0.011279823589324965,0.0,0.0,0.0,0.0,0.0,0.0
0.5350000000000004,-0.03802986305376277,0.010145213633350835,0.22902125048266864,0.27474710306016636,-0.08338246473162182,-0.03750365099994108,-0.0456857663963613,0.01270720156673397,0.02840795410287375,0.23928061815232476,-0.08578243915691126,-0.04969555903807707,0.05452962903569429,0.10064712437372142,0.006645994919070717,-0.08136259974981559,0.4503989228588281,-0.009528296630427155,0.0,3.541787956126034,0.5545051866620778,0.8683332924786954,0.0,0.0,0.0,0.0,0.0,0.20210116259999514,0.0,0.0,0.01148032676513673,0.0,0.0,0.0,0.0,0.0,0.0
0.5400000000000004,-0.03665612753846194,0.009728301309692726,0.22883373222766892,0.27969617532528446,-0.08246097265450705,-0.03710280705287487,-0.0456857663963613,0.01270720156673397,0.02840795410287375,0.23928061815232476,-0.08578243915691126,-0.04969555903807707,0.05410350890790775,0.1028370406313811,0.006716904555976119,-0.09196595469685097,0.4258076675506401,-0.009857884261088511,0.0,3.541787956126034,0.5545051866620778,0.8683332924786954,0.0,0.0,0.0,0.0,0.0,0.20215906856383073,0.0,0.0,0.011682303772430437,0.0,0.0,0.0,0.0,0.0,0.0
0.5450000000000004,-0.035257646661835514,0.00931599644642019,0.22864821819240455,0.2845295717214178,-0.08147677371052227,-0.03669236920542994,-0.0456857663963613,0.01270720156673397,0.02840795410287375,0.23928061815232476,-0.08578243915691126,-0.04969555903807707,0.05362442299009856,0.10490499981298795,0.006778564635312141,-0.10222538078483935,0.4014970803329009,-0.010185945380396614,0.0,3.541787956126034,0.5545051866620778,0.8683332924786954,0.0,0.0,0.0,0.0,0.0,0.20221798808140626,0.0,0.0,0.011885746992187515,0.0,0.0,0.0,0.0,0.0,0.0
0.5500000000000004,-0.033834998803228426,0.00890861257786758,0.2284647563463774,0.28927621121581254,-0.08044554461638496,-0.03627503688975499,-0.0456857663963613,0.01270720156673397,0.02840795410287375,0.23928061815232476,-0.08578243915691126,-0.04969555903807707,0.053094221931978804,0.10685276727811488,0.006831084725565571,-0.1120749053707439,0.3776152465787044,-0.010511617685380689,0.0,3.541787956126034,0.5545051866620778,0.8683332924786954,0.0,0.0,0.0,0.0,0.0,0.2022779284647594,0.0,0.0,0.012090648816375749,0.0,0.0,0.0,0.0,0.0,0.0
0.5550000000000004,-0.032388617747149365,0.008506384854785654,0.22828338116192862,0.29395778303390335,-0.07937904290963327,-0.03585283749717426,-0.032388617747149365,0.008506384854785654,0.02594448417401357,0.29395778303390335,-0.07937904290963327,-0.048149839145123496,0.052515048090340535,0.10868275365816792,0.0068746332317213285,-0.12146797467175498,0.3542731440459382,-0.010834053183736557,0.0,3.541787956126034,0.5545051866620778,0.8683332924786954,0.0,0.0,0.0,0.0,0.0,0.20233889698791505,0.0,0.0,0.012297001647949236,0.0,0.0,0.0,0.0,0.0,0.0
