time,pos_x,pos_y,pos_z,vel_x,vel_y,vel_z,pos_xo,pos_yo,pos_zo,vel_xo,vel_yo,vel_zo,roll,pitch,yaw,roll_vel,pitch_vel,yaw_vel,thrust_z,force_x,force_y,force_z,torque_x,torque_y,torque_z,pos_xd,pos_yd,pos_zd,vel_xd,vel_yd,vel_zd,roll_d,pitch_d,yaw_d,roll_vel_d,pitch_vel_d,yaw_vel_d
0.005,0.0,0.0,0.0,0.0,0.0,-0.03678750000000001,0.0,0.0,0.0,0.0,0.0,-0.03678750000000001,0.0,0.0,0.0,0.0,0.0,0.0,0.0,0.0,0.0,0.0,0.0,0.0,0.0,0.0,0.0,0.0,0.0,0.0,0.0,0.0,0.0,0.0,0.0,0.0,0.0
0.01,0.0,0.0,-0.00018393750000000005,-1.4147495300858282e-05,0.0018402583681046965,-0.05356862034809298,0.0,0.0,0.0,0.0,0.0,-0.03678750000000001,-9.070622418662429e-06,-6.988055144185507e-08,3.1693004827066505e-13,-0.0036282489674649646,-2.7952220577221154e-05,0.0,0.0,-0.03734938759426586,4.858282091796398,28.426736375570297,0.0,0.0,0.0,0.0,0.0,3.658677005767823e-09,0.0,0.0,2.1945199012756347e-06,0.0,0.0,0.0,0.0,0.0,0.0
0.015,-7.073747650429141e-08,9.201291840523482e-06,-0.000451780601740465,-3.890561207736028e-05,0.005060710512287915,-0.0553449634551727,0.0,0.0,0.0,0.0,0.0,-0.03678750000000001,-4.297228835183116e-05,-3.3106076607657466e-07,7.113200055682422e-12,-0.009932417405801891,-7.651986531812053e-05,-7.718805094702745e-15,0.0,-0.03734938759426586,4.858282091796398,28.426736375570297,0.0,0.0,0.0,0.0,0.0,2.9241970825195318e-08,0.0,0.0,8.767103576660157e-06,0.0,0.0,0.0,0.0,0.0,0.0
0.02,-2.652655368910928e-07,3.450484440196306e-05,-0.0007285054190163285,-7.162169496059506e-05,0.009316307988530025,-0.04586773613553332,0.0,0.0,0.0,0.0,0.0,-0.03678750000000001,-0.00011321010179853126,-8.721765680467744e-07,4.936909377958376e-11,-0.018162707972867228,-0.0001399264561782206,-1.8668664011811364e-13,0.0,-0.03734938759426586,4.858282091796398,28.426736375570297,0.0,0.0,0.0,0.0,0.0,9.859907026290893e-08,0.0,0.0,1.9701302433013915e-05,0.0,0.0,0.0,0.0,0.0,0.0
0.025,-6.233740116940681e-07,8.108638434461319e-05,-0.0009578440996939952,-0.00011030625242387943,0.014348264463816304,-0.027950348512086384,0.0,0.0,0.0,0.0,0.0,-0.03678750000000001,-0.00022794272584755648,-1.7560827169231935e-06,2.001383651270675e-10,-0.027730341646660488,-0.00021363600871804176,-1.5217741762345451e-12,0.0,-0.03734938759426586,4.858282091796398,28.426736375570297,0.0,0.0,0.0,0.0,0.0,2.3349697265625005e-07,0.0,0.0,3.4980688476562504e-05,0.0,0.0,0.0,0.0,0.0,0.0
0.030000000000000002,-1.1749052738134654e-06,0.0001528277066636947,-0.001097595842254427,-0.00015346716582220098,0.01996249018838571,-0.0037028631952036074,0.0,0.0,0.0,0.0,0.0,-0.03678750000000001,-0.00039270483882855394,-3.0254186285385157e-06,5.940212319525097e-10,-0.038174503545352755,-0.00029409838096137753,-7.38501898544328e-12,0.0,-0.03734938759426586,4.858282091796398,28.426736375570297,0.0,0.0,0.0,0.0,0.0,4.556205868721009e-07,0.0,0.0,5.458885431289673e-05,0.0,0.0,0.0,0.0,0.0,0.0
0.035,-1.9422411029244704e-06,0.00025264015760562326,-0.001116110158230445,-0.00019998534617180044,0.02601341784991746,0.025292167833220726,0.0,0.0,0.0,0.0,0.0,-0.03678750000000001,-0.0006109811621672069,-4.707030677782536e-06,1.4378426035658227e-09,-0.04913602578878256,-0.000378546524776092,-2.6189269666134008e-11,0.0,-0.03734938759426586,4.858282091796398,28.426736375570297,0.0,0.0,0.0,0.0,0.0,7.865728363037112e-07,0.0,0.0,7.850941314697268e-05,0.0,0.0,0.0,0.0,0.0,0.0
0.04,-2.9421678337834725e-06,0.00038270724685521057,-0.0009896493190643414,-0.0002490214767348583,0.03239187196417097,0.057847825556792624,0.0,0.0,0.0,0.0,0.0,-0.03678750000000001,-0.0008846623154897831,-6.815484070858371e-06,3.0143369678758524e-09,-0.06033643553657392,-0.0004648350708592721,-7.509563911172554e-11,0.0,-0.03734938759426586,4.858282091796398,28.426736375570297,0.0,0.0,0.0,0.0,0.0,1.2478747618675235e-06,0.0,0.0,0.00010672599878311159,0.0,0.0,0.0,0.0,0.0,0.0
0.045,-4.187275217457764e-06,0.0005446666066760654,-0.0007004101912803782,-0.00029994606995800997,0.0390159709179658,0.0930739156774551,0.0,0.0,0.0,0.0,0.0,-0.03678750000000001,-0.001214406593524873,-9.355849913956871e-06,5.679890261980309e-09,-0.07156127566876959,-0.0005513118303877799,-1.845699859633133e-10,0.0,-0.03734938759426586,4.858282091796398,28.426736375570297,0.0,0.0,0.0,0.0,0.0,1.8609656250000006e-06,0.0,0.0,0.000139222265625,0.0,0.0,0.0,0.0,0.0,0.0
0.049999999999999996,-5.687005567247813e-06,0.0007397464612658943,-0.0002350406128931027,-0.000352287010176232,0.04582430350141661,0.13030278743018497,0.0,0.0,0.0,0.0,0.0,-0.03678750000000001,-0.0015999268528172,-1.232591530853234e-05,9.857800076343196e-09,-0.08264682802993056,-0.0006367155102011809,-4.0348282430982274e-10,0.0,-0.03734938759426586,4.858282091796398,28.426736375570297,0.0,0.0,0.0,0.0,0.0,2.6472030106544494e-06,0.0,0.0,0.0001759818886756897,0.0,0.0,0.0,0.0,0.0,0.0
0.05499999999999999,-7.448440618128974e-06,0.0009688679787729774,0.00041647332425782214,-0.0004056902106407568,0.05277081130710942,0.169033697694085,-7.448440618128974e-06,0.0009688679787729774,0.0004128454613275243,-0.0004056902106407568,0.05277081130710942,0.1688167091305474,-0.002040217788773349,-1.5717934201937e-05,1.6028506857806027e-08,-0.09346954631774985,-0.000720094303235029,-8.04409600021065e-10,0.0,-0.03734938759426586,4.858282091796398,28.426736375570297,0.0,0.0,0.0,0.0,0.0,3.627862930297851e-06,0.0,0.0,0.00021698856353759763,0.0,0.0,0.0,0.0,0.0,0.0
0.05999999999999999,-9.476891671332757e-06,0.0012327220353085244,0.001261641812728247,-0.002618107973430818,0.06027094379545256,0.2057759293047682,-7.448440618128974e-06,0.0009688679787729774,0.0004128454613275243,-0.0004056902106407568,0.05277081130710942,0.1688167091305474,-0.002537610813199883,-3.180680957346817e-05,5.3803609357891955e-08,-0.10548766308932304,-0.005715473639083132,-1.488798457527781e-09,0.0,-5.736283972799778,6.207483351811766,20.820778943896293,0.0,0.0,0.0,0.0,0.0,4.824139924907683e-06,0.0,0.0,0.00026222600641250606,0.0,0.0,0.0,0.0,0.0,0.0
0.06499999999999999,-2.2567431538486846e-05,0.0015340767542857871,0.002290521459252088,-0.006449786657965031,0.06818629479578345,0.2410265941017264,-7.448440618128974e-06,0.0009688679787729774,0.0004128454613275243,-0.0004056902106407568,0.05277081130710942,0.1688167091305474,-0.003096899051023436,-8.192616705483293e-05,1.9673302342320969e-07,-0.11822762874099005,-0.014332351123848298,-3.3000900212146084e-09,0.0,-5.736283972799778,6.207483351811766,20.820778943896293,0.0,0.0,0.0,0.0,0.0,6.257147167968748e-06,0.0,0.0,0.0003116779541015624,0.0,0.0,0.0,0.0,0.0,0.0
0.06999999999999999,-5.4816364828312e-05,0.0018750082282647045,0.00349565442976072,-0.011495911033807357,0.07641305968010514,0.2751585209009143,-7.448440618128974e-06,0.0009688679787729774,0.0004128454613275243,-0.0004056902106407568,0.05277081130710942,0.1688167091305474,-0.0037207735804951005,-0.0001816432514861017,5.389949316169709e-07,-0.13132216479606576,-0.025554718235574873,-9.422636822884206e-09,0.0,-5.736283972799778,6.207483351811766,20.820778943896293,0.0,0.0,0.0,0.0,0.0,7.947916568469997e-06,0.0,0.0,0.00036532816400527946,0.0,0.0,0.0,0.0,0.0,0.0
0.075,-0.00011229591999734879,0.00225707352666523,0.004871447034265291,-0.01745286967813077,0.08487338497741995,0.30845132624526045,-7.448440618128974e-06,0.0009688679787729774,0.0004128454613275243,-0.0004056902106407568,0.05277081130710942,0.1688167091305474,-0.004410299905737949,-0.0003419906944705129,1.1936696913199349e-06,-0.1444882961432514,-0.03858479480401566,-2.7064012540003377e-08,0.0,-5.736283972799778,6.207483351811766,20.820778943896293,0.0,0.0,0.0,0.0,0.0,9.917398873901365e-06,0.0,0.0,0.000423160414123535,0.0,0.0,0.0,0.0,0.0,0.0
0.08,-0.00019956026838800263,0.00268144045155233,0.006413703665491594,-0.024092954023814995,0.09350888058447958,0.3411147174676186,-7.448440618128974e-06,0.0009688679787729774,0.0004128454613275243,-0.0004056902106407568,0.05277081130710942,0.1688167091305474,-0.005165295812046645,-0.0005704456164697606,2.2904654132782488e-06,-0.15750986490958854,-0.052798229273710404,-6.914357677613499e-08,0.0,-5.736283972799778,6.207483351811766,20.820778943896293,0.0,0.0,0.0,0.0,0.0,1.218646377325058e-05,0.0,0.0,0.0004851585030555724,0.0,0.0,0.0,0.0,0.0,0.0
0.085,-0.0003200250385070776,0.003148984854474728,0.008119277252829687,-0.031245382645519834,0.10227575392384783,0.3733059699880504,-7.448440618128974e-06,0.0009688679787729774,0.0004128454613275243,-0.0004056902106407568,0.05277081130710942,0.1688167091305474,-0.005984630726936869,-0.0008717075582456449,3.9729391515762144e-06,-0.1702236132868458,-0.06770843000933177,-1.559160152386022e-07,0.0,-5.736283972799778,6.207483351811766,20.820778943896293,0.0,0.0,0.0,0.0,0.0,1.4775900000000002e-05,0.0,0.0,0.00055130625,0.0,0.0,0.0,0.0,0.0,0.0
0.09000000000000001,-0.00047625195173467676,0.0036603636240939673,0.00998580710276994,-0.03878206947424013,0.11114116056244755,0.40514303528685525,-7.448440618128974e-06,0.0009688679787729774,0.0004128454613275243,-0.0004056902106407568,0.05277081130710942,0.1688167091305474,-0.006866462609542186,-0.0012483162511223874,6.395377753557905e-06,-0.18250810846446264,-0.08293816828818192,-3.164646435976035e-07,0.0,-5.736283972799778,6.207483351811766,20.820778943896293,0.0,0.0,0.0,0.0,0.0,1.7706415435123446e-05,0.0,0.0,0.0006215874947547914,0.0,0.0,0.0,0.0,0.0,0.0
0.09500000000000001,-0.0006701622991058774,0.004216069426906205,0.012011522279204215,-0.04660694995822202,0.12008046717547087,0.4367143718844119,-7.448440618128974e-06,0.0009688679787729774,0.0004128454613275243,-0.0004056902106407568,0.05277081130710942,0.1688167091305474,-0.00780842512600966,-0.0017011418848934033,9.719526114157514e-06,-0.19427493081820496,-0.09819697221521811,-5.900083659122991e-07,0.0,-5.736283972799778,6.207483351811766,20.820778943896293,0.0,0.0,0.0,0.0,0.0,2.0998637210083016e-05,0.0,0.0,0.0006959860977172852,0.0,0.0,0.0,0.0,0.0,0.0
0.10000000000000002,-0.0009031970488969875,0.0048164717627835595,0.014195094138626276,-0.0546479756836501,0.1290751987693119,0.468086318576127,-7.448440618128974e-06,0.0009688679787729774,0.0004128454613275243,-0.0004056902106407568,0.05277081130710942,0.1688167091305474,-0.008807775269013949,-0.0022297738816301994,1.4111330041855056e-05,-0.20546166436598082,-0.11326313230001282,-1.0269780573980398e-06,0.0,-5.736283972799778,6.207483351811766,20.820778943896293,0.0,0.0,0.0,0.0,0.0,2.4673111809825903e-05,0.0,0.0,0.0007744859398841861,0.0,0.0,0.0,0.0,0.0,0.0
0.10500000000000002,-0.001176436927315238,0.005461847756630119,0.01653552573150691,-0.06285111034016283,0.1381114990987662,0.49930862435871504,-0.001176436927315238,0.005461847756630119,0.016506775426331128,-0.06285111034016283,0.1381114990987662,0.49845155343586345,-0.009861509509862552,-0.0028328288870687205,1.973782420476127e-05,-0.21602632236650193,-0.12796937954855397,-1.6898315021361536e-06,0.0,-5.736283972799778,6.207483351811766,20.820778943896293,0.0,0.0,0.0,0.0,0.0,2.8750305175781266e-05,0.0,0.0,0.0008570709228515628,0.0,0.0,0.0,0.0,0.0,0.0
0.11000000000000003,-0.0014906924790160521,0.00615240525212395,0.019032068853300485,-0.07223016558451971,0.14749837930536583,0.5159514924649148,-0.001176436927315238,0.005461847756630119,0.016506775426331128,-0.06285111034016283,0.1381114990987662,0.49845155343586345,-0.010997841430653216,-0.0035564016831358897,2.7282995881784774e-05,-0.2384967846605822,-0.16147548926034225,-2.6535894807253993e-06,0.0,-8.7105818670094,7.320209133669733,-16.335187735855577,0.0,0.0,0.0,0.0,0.0,3.3250602808856985e-05,0.0,0.0,0.0009437249688148503,0.0,0.0,0.0,0.0,0.0,0.0
0.11500000000000003,-0.0018518433069386506,0.006889897148650779,0.021611826315625058,-0.08249116126975971,0.15714819441982447,0.5216596736197792,-0.001176436927315238,0.005461847756630119,0.016506775426331128,-0.06285111034016283,0.1381114990987662,0.49845155343586345,-0.012268038346884506,-0.004481602727792379,3.8042673144781926e-05,-0.26956464845829475,-0.20862997784265488,-4.018721932308772e-06,0.0,-8.7105818670094,7.320209133669733,-16.335187735855577,0.0,0.0,0.0,0.0,0.0,3.819430987243655e-05,0.0,0.0,0.0010344320205688483,0.0,0.0,0.0,0.0,0.0,0.0
0.12000000000000004,-0.0022642991132874493,0.007675638120749902,0.024220124683723955,-0.09341361228566204,0.16699521071517737,0.5191667257527757,-0.001176436927315238,0.005461847756630119,0.016506775426331128,-0.06285111034016283,0.1381114990987662,0.49845155343586345,-0.013708607965461344,-0.005666538965214726,5.3424946014083396e-05,-0.3066319115330378,-0.2653844917628275,-5.935502898206539e-06,0.0,-8.7105818670094,7.320209133669733,-16.335187735855577,0.0,0.0,0.0,0.0,0.0,4.3601651295375865e-05,0.0,0.0,0.0011291760415077217,0.0,0.0,0.0,0.0,0.0,0.0
0.12500000000000003,-0.0027313671747157594,0.008510614174325788,0.026815958312487835,-0.10483215479956114,0.17699012789620097,0.510522812191991,-0.001176436927315238,0.005461847756630119,0.016506775426331128,-0.06285111034016283,0.1381114990987662,0.49845155343586345,-0.015344488966348754,-0.007151262244547436,7.497608201094732e-05,-0.34766512172386066,-0.3285674432281841,-8.62459739300787e-06,0.0,-8.7105818670094,7.320209133669733,-16.335187735855577,0.0,0.0,0.0,0.0,0.0,4.949277187500005e-05,0.0,0.0,0.0012279410156250008,0.0,0.0,0.0,0.0,0.0,0.0
0.13000000000000003,-0.003255527948713565,0.009395564813806793,0.02936857237344779,-0.11662276593695779,0.1870959707414776,0.4972655503098518,-0.001176436927315238,0.005461847756630119,0.016506775426331128,-0.06285111034016283,0.1381114990987662,0.49845155343586345,-0.017191587445262724,-0.008961701008348635,0.00010439827352334605,-0.3910792542104334,-0.39570378123571115,-1.2395277329812702e-05,0.0,-8.7105818670094,7.320209133669733,-16.335187735855577,0.0,0.0,0.0,0.0,0.0,5.588773638010029e-05,0.0,0.0,0.001330710947513581,0.0,0.0,0.0,0.0,0.0,0.0
0.13500000000000004,-0.003838641778398354,0.01033104466751418,0.031854900124997046,-0.12869242854197763,0.197285007834944,0.4805481480074829,-0.001176436927315238,0.005461847756630119,0.016506775426331128,-0.06285111034016283,0.1381114990987662,0.49845155343586345,-0.019258792528365067,-0.01111278255843589,0.00014355291155680104,-0.4356452629053363,-0.464871503504618,-1.7662136158673598e-05,0.0,-8.7105818670094,7.320209133669733,-16.335187735855577,0.0,0.0,0.0,0.0,0.0,6.28065296539307e-05,0.0,0.0,0.0014374698623657233,0.0,0.0,0.0,0.0,0.0,0.0
0.14000000000000004,-0.004482103921108242,0.0113174697066889,0.03425764086503446,-0.14097137974771484,0.20753644061455268,0.4612355060780433,-0.001176436927315238,0.005461847756630119,0.016506775426331128,-0.06285111034016283,0.1381114990987662,0.49845155343586345,-0.021549577239587243,-0.013610911006376125,0.00019444947561586762,-0.4804164848904354,-0.5345874276624907,-2.4960615113754608e-05,0.0,-8.7105818670094,7.320209133669733,-16.335187735855577,0.0,0.0,0.0,0.0,0.0,7.026905671720513e-05,0.0,0.0,0.001548201805973054,0.0,0.0,0.0,0.0,0.0,0.0
0.14500000000000005,-0.005186960819846816,0.012355151909761664,0.03656381839542468,-0.1534072974039901,0.21783467015876812,0.439976294979295,-0.001176436927315238,0.005461847756630119,0.016506775426331128,-0.06285111034016283,0.1381114990987662,0.49845155343586345,-0.024063269006346626,-0.016455932412296093,0.0002592228512550856,-0.5246700584468694,-0.6037162634237114,-3.496123570495225e-05,0.0,-8.7105818670094,7.320209133669733,-16.335187735855577,0.0,0.0,0.0,0.0,0.0,7.829514287109383e-05,0.0,0.0,0.0016628908447265632,0.0,0.0,0.0,0.0,0.0,0.0
0.15000000000000005,-0.005953997306866767,0.013444325260555504,0.038763699870321154,-0.16596093989816885,0.22816799727643863,0.4172570124130973,-0.001176436927315238,0.005461847756630119,0.016506775426331128,-0.06285111034016283,0.1381114990987662,0.49845155343586345,-0.026796056927633923,-0.019642691851153637,0.0003401026712460191,-0.5678602969928072,-0.6713982406827418,-4.848218860270499e-05,0.0,-8.7105818670094,7.320209133669733,-16.335187735855577,0.0,0.0,0.0,0.0,0.0,8.690453380022056e-05,0.0,0.0,0.0017815210656166086,0.0,0.0,0.0,0.0,0.0,0.0
0.15500000000000005,-0.006783802006357612,0.014585165246937697,0.04084998493238664,-0.17860287602077526,0.23852764757420042,0.39344252651009376,-0.006783802006357612,0.014585165246937697,0.04075386803671098,-0.17860287602077526,0.23852764757420042,0.39153844993386083,-0.029741789208992703,-0.023162265823774245,0.0004393781138939828,-0.6095815838440485,-0.7369915146030308,-6.64998361527964e-05,0.0,-8.7105818670094,7.320209133669733,-16.335187735855577,0.0,0.0,0.0,0.0,0.0,9.611689567565928e-05,0.0,0.0,0.0019040765762329114,0.0,0.0,0.0,0.0,0.0,0.0
0.16000000000000006,-0.007676816386461488,0.0157778034848087,0.042817197564937105,-0.18748009238251764,0.2434314428908459,0.3690860296680405,-0.006783802006357612,0.014585165246937697,0.04075386803671098,-0.17860287602077526,0.23852764757420042,0.39153844993386083,-0.03281392017122874,-0.026930499946798216,0.0005569540012501584,-0.6180915550195838,-0.7710357748132262,-9.015670341633365e-05,0.0,1.039022293679416,-6.806749515160917,-15.845183141201733,0.0,0.0,0.0,0.0,0.0,0.0001059518152579309,0.0,0.0,0.0020305415047645586,0.0,0.0,0.0,0.0,0.0,0.0
0.16500000000000006,-0.008614216848374077,0.01699496069926293,0.04466262771327731,-0.193533768923612,0.24424334697165412,0.34432286458138184,-0.006783802006357612,0.014585165246937697,0.04075386803671098,-0.17860287602077526,0.23852764757420042,0.39153844993386083,-0.03586721788609648,-0.030807831295561805,0.0006897228425028239,-0.6016930777758294,-0.7808055626484985,-0.00012070799643141444,0.0,1.039022293679416,-6.806749515160917,-15.845183141201733,0.0,0.0,0.0,0.0,0.0,0.0001164288000000001,0.0,0.0,0.002160900000000001,0.0,0.0,0.0,0.0,0.0,0.0
0.17000000000000007,-0.009581885692992136,0.0182161774341212,0.046384242036184214,-0.19746979059922032,0.2419863326255844,0.3192545331127356,-0.006783802006357612,0.014585165246937697,0.04075386803671098,-0.17860287602077526,0.23852764757420042,0.39153844993386083,-0.03879271240849132,-0.03468732357312731,0.0008340341066897724,-0.5666133071797503,-0.7720639526492514,-0.00015940715397392912,0.0,1.039022293679416,-6.806749515160917,-15.845183141201733,0.0,0.0,0.0,0.0,0.0,0.00012756727815027252,0.0,0.0,0.0022951362313270588,0.0,0.0,0.0,0.0,0.0,0.0
0.17500000000000007,-0.010569234645988237,0.019426109097249122,0.04798051470174789,-0.19981757112571413,0.23742762945935622,0.29395715649682813,-0.006783802006357612,0.014585165246937697,0.04075386803671098,-0.17860287602077526,0.23852764757420042,0.39153844993386083,-0.041508612233223836,-0.03848787960715644,0.000985947017265875,-0.517522612545856,-0.7493711661564115,-0.0002074067630890486,0.0,1.039022293679416,-6.806749515160917,-15.845183141201733,0.0,0.0,0.0,0.0,0.0,0.000139386598855591,0.0,0.0,0.002433234388732912,0.0,0.0,0.0,0.0,0.0,0.0
0.18000000000000008,-0.011568322501616808,0.020613247244545902,0.04945030048423203,-0.20097417079037208,0.2311426596780092,0.26848782049351166,-0.006783802006357612,0.014585165246937697,0.04075386803671098,-0.17860287602077526,0.23852764757420042,0.39153844993386083,-0.043953499855785005,-0.042148835773256385,0.0011414788163239462,-0.4579237716289261,-0.7163303278528957,-0.0002656780015963171,0.0,1.039022293679416,-6.806749515160917,-15.845183141201733,0.0,0.0,0.0,0.0,0.0,0.00015190603226423284,0.0,0.0,0.0025751786828041093,0.0,0.0,0.0,0.0,0.0,0.0
0.18500000000000008,-0.012573193355568668,0.021768960542935947,0.05079273958669959,-0.2012373848086531,0.22356298993532306,0.24288933425259382,-0.006783802006357612,0.014585165246937697,0.04075386803671098,-0.17860287602077526,0.23852764757420042,0.39153844993386083,-0.046081235805616044,-0.04562565784468747,0.0012968104905321447,-0.39044386585801183,-0.6757831640568677,-0.0003349507130355439,0.0,1.039022293679416,-6.806749515160917,-15.845183141201733,0.0,0.0,0.0,0.0,0.0,0.00016514476962890644,0.0,0.0,0.002720953344726565,0.0,0.0,0.0,0.0,0.0,0.0
0.19000000000000009,-0.013579380279611933,0.022886775492612563,0.05200718625796256,-0.20083055959215146,0.21501229522163257,0.21719379946252568,-0.006783802006357612,0.014585165246937697,0.04075386803671098,-0.17860287602077526,0.23852764757420042,0.39153844993386083,-0.047857142588062965,-0.0488865149341572,0.001448439733223578,-0.317053201601681,-0.629965835701261,-0.0004156744823375272,0.0,1.039022293679416,-6.806749515160917,-15.845183141201733,0.0,0.0,0.0,0.0,0.0,0.00017912192340974832,0.0,0.0,0.0028705426262855558,0.0,0.0,0.0,0.0,0.0,0.0
0.1950000000000001,-0.01458353307757269,0.023961836968720725,0.053093155255275186,-0.19992120494956278,0.2057333317796888,0.19142528721198399,-0.006783802006357612,0.014585165246937697,0.04075386803671098,-0.17860287602077526,0.23852764757420042,0.39153844993386083,-0.04925514696760151,-0.05190955357009953,0.001593283884004647,-0.23922950119071734,-0.5806330235991384,-0.0005079995248816773,0.0,1.039022293679416,-6.806749515160917,-15.845183141201733,0.0,0.0,0.0,0.0,0.0,0.0001938565273773196,0.0,0.0,0.0030239307998657255,0.0,0.0,0.0,0.0,0.0,0.0
0.2000000000000001,-0.015583139102320504,0.02499050362761917,0.054050281691335106,-0.19863495323740885,0.1959081667915551,0.16560184563612357,-0.006783802006357612,0.014585165246937697,0.04075386803671098,-0.17860287602077526,0.23852764757420042,0.39153844993386083,-0.05025563952915303,-0.054680730022748605,0.0017287407261757065,-0.15808104645248572,-0.5291567307743428,-0.0006117751112428057,0.0,1.039022293679416,-6.806749515160917,-15.845183141201733,0.0,0.0,0.0,0.0,0.0,0.00020936753671560318,0.0,0.0,0.003181102158451083,0.0,0.0,0.0,0.0,0.0,0.0
0.2050000000000001,-0.01657631386850755,0.025970044461576944,0.054878290919515724,-0.19706602872308096,0.18567335064377893,0.13973700565133254,-0.01657631386850755,0.025970044461576944,0.05465261709139072,-0.19706602872308096,0.18567335064377893,0.13639496463570755,-0.0508438709486447,-0.05719208771410221,0.001852716225253185,-0.07443903677167622,-0.47660495031280814,-0.0007265626431050074,0.0,1.039022293679416,-6.806749515160917,-15.845183141201733,0.0,0.0,0.0,0.0,0.0,0.0002256738281250003,0.0,0.0,0.003342041015625003,0.0,0.0,0.0,0.0,0.0,0.0
0.2100000000000001,-0.017561644012122953,0.026898411214795838,0.05557697594777239,-0.1957494923338124,0.17648734472178082,0.11752010476438783,-0.01657631386850755,0.025970044461576944,0.05465261709139072,-0.19706602872308096,0.18567335064377893,0.13639496463570755,-0.051039514619074244,-0.05945058868178753,0.0019641717359110155,-0.0012198680977156123,-0.4278897426529672,-0.0008516602862725247,0.0,-0.271741498474963,-3.3511894761621948,-6.855843848749995,0.0,0.0,0.0,0.0,0.0,0.00024279419992532768,0.0,0.0,0.003506731705570224,0.0,0.0,0.0,0.0,0.0,0.0
0.2150000000000001,-0.018540391473792016,0.027780847938404744,0.05616457647159433,-0.1946222470383383,0.1680879464691162,0.0980389464053168,-0.01657631386850755,0.025970044461576944,0.05465261709139072,-0.19706602872308096,0.18567335064377893,0.13639496463570755,-0.05089040252336116,-0.061474348320782066,0.002063039535882102,0.06325425805197014,-0.3825739920028446,-0.000986149392567576,0.0,-0.271741498474963,-3.3511894761621948,-6.855843848749995,0.0,0.0,0.0,0.0,0.0,0.0002607473721588139,0.0,0.0,0.003675158583068851,0.0,0.0,0.0,0.0,0.0,0.0
0.2200000000000001,-0.019513502708983707,0.028621287670750326,0.05665477120362091,-0.1936369700632101,0.16027850396845175,0.08060937795117948,-0.01657631386850755,0.025970044461576944,0.05465261709139072,-0.19706602872308096,0.18567335064377893,0.13639496463570755,-0.05043680980232558,-0.06327947157076806,0.002149496629361696,0.12033846882094235,-0.34029678427948346,-0.0011289548189846962,0.0,-0.271741498474963,-3.3511894761621948,-6.855843848749995,0.0,0.0,0.0,0.0,0.0,0.00027955198669309654,0.0,0.0,0.0038473060235023537,0.0,0.0,0.0,0.0,0.0,0.0
0.22500000000000012,-0.020481687559299758,0.029422680190592583,0.05705781809337681,-0.19275816932834128,0.1529115282817874,0.06471827973594702,-0.01657631386850755,0.025970044461576944,0.05465261709139072,-0.19706602872308096,0.18567335064377893,0.13639496463570755,-0.04971290215668145,-0.06488039922750076,0.002223901419141606,0.17113028500116106,-0.3007582691972834,-0.0012788974752833216,0.0,-0.271741498474963,-3.3511894761621948,-6.855843848749995,0.0,0.0,0.0,0.0,0.0,0.0002992266073242193,0.0,0.0,0.004023158422851567,0.0,0.0,0.0,0.0,0.0,0.0
0.23000000000000012,-0.021445478405941465,0.03018723783200152,0.05738140949205654,-0.19195922577366703,0.1458764027056231,0.04998080680797569,-0.01657631386850755,0.025970044461576944,0.05465261709139072,-0.19706602872308096,0.18567335064377893,0.13639496463570755,-0.048747891212884614,-0.06629018580883864,0.0022867463851035785,0.21652145560785555,-0.2637075970309663,-0.0014347390506587758,0.0,-0.271741498474963,-3.3511894761621948,-6.855843848749995,0.0,0.0,0.0,0.0,0.0,0.0003197897198796277,0.0,0.0,0.004202700197696691,0.0,0.0,0.0,0.0,0.0,0.0
0.23500000000000013,-0.0224052745348098,0.030916619845529635,0.05763131352609642,-0.1912201751041387,0.13909016471233387,0.03610832024817753,-0.01657631386850755,0.025970044461576944,0.05465261709139072,-0.19706602872308096,0.18567335064377893,0.13639496463570755,-0.04756695730516117,-0.06752072282046724,0.002338622203989896,0.2572392554978563,-0.2289333039278837,-0.0015952193389395354,0.0,-0.271741498474963,-3.3511894761621948,-6.855843848749995,0.0,0.0,0.0,0.0,0.0,0.0003412597323211675,0.0,0.0,0.00438591578521729,0.0,0.0,0.0,0.0,0.0,0.0
0.24000000000000013,-0.023361375410330492,0.0316120706690913,0.05781185512733731,-0.19052604409846977,0.13249059240620095,0.022884335658713235,-0.01657631386850755,0.025970044461576944,0.05465261709139072,-0.19706602872308096,0.18567335064377893,0.13639496463570755,-0.04619198700019488,-0.06858291846585265,0.0023801901362683945,0.2938793910653312,-0.19625564715334162,-0.001759086818762042,0.0,-0.271741498474963,-3.3511894761621948,-6.855843848749995,0.0,0.0,0.0,0.0,0.0,0.0003636549748480803,0.0,0.0,0.004572789643192296,0.0,0.0,0.0,0.0,0.0,0.0
0.24500000000000013,-0.02431400563082284,0.03227452363112231,0.05792627680563087,-0.18986560284069542,0.12603101936543526,0.01014648452957664,-0.01657631386850755,0.025970044461576944,0.05465261709139072,-0.19706602872308096,0.18567335064377893,0.13639496463570755,-0.04464216304437214,-0.0694868426056713,0.002412160461686008,0.3269322222968075,-0.16552049320062223,-0.001925123240101508,0.0,-0.271741498474963,-3.3511894761621948,-6.855843848749995,0.0,0.0,0.0,0.0,0.0,0.0003869937000000006,0.0,0.0,0.004763306250000005,0.0,0.0,0.0,0.0,0.0,0.0
0.2500000000000001,-0.02526333364502632,0.032904678727949485,0.05797700922827875,-0.189230428893842,0.11967644577369498,-0.0022270147364021053,-0.01657631386850755,0.025970044461576944,0.05465261709139072,-0.19706602872308096,0.18567335064377893,0.13639496463570755,-0.042934436736647194,-0.07024184398404278,0.002435275404334541,0.35680366164631594,-0.1365944425680128,-0.0020921629793282854,0.0,-0.271741498474963,-3.3511894761621948,-6.855843848749995,0.0,0.0,0.0,0.0,0.0,0.00041129408275995317,0.0,0.0,0.004957450104618078,0.0,0.0,0.0,0.0,0.0,0.0
0.2550000000000001,-0.02620948578949553,0.03350306095681796,0.057965874154596746,-0.1886142054301793,0.11340062176872376,-0.014327503554739628,-0.02620948578949553,0.03350306095681796,0.0575292999339394,-0.1886142054301793,0.11340062176872376,-0.019482709281363166,-0.04108390661926229,-0.07085664531280397,0.0024502954443121347,0.3838318331930095,-0.10936093940755476,-0.0022591078885839215,0.0,-0.271741498474963,-3.3511894761621948,-6.855843848749995,0.0,0.0,0.0,0.0,0.0,0.0004365742206573493,0.0,0.0,0.0051552057266235395,0.0,0.0,0.0,0.0,0.0,0.0
0.2600000000000001,-0.027152556816646425,0.03407006406566158,0.05789423663682305,-0.18924086023518588,0.1073950998618045,-0.023831653467469648,-0.02620948578949553,0.03350306095681796,0.0575292999339394,-0.1886142054301793,0.11340062176872376,-0.019482709281363166,-0.03910982176544929,-0.07135155507235305,0.002458473243601553,0.40603445554265,-0.08857477059688094,-0.00242493830492736,0.0,-3.518962216928601,-2.9877352562472224,-1.0003899079710243,0.0,0.0,0.0,0.0,0.0,0.0004628521338709837,0.0,0.0,0.005356557656192784,0.0,0.0,0.0,0.0,0.0,0.0
0.2650000000000001,-0.028098761117822356,0.0346070395649706,0.0577750783694857,-0.19079967374169446,0.1015923045284242,-0.03138881309466378,-0.02620948578949553,0.03350306095681796,0.0575292999339394,-0.1886142054301793,0.11340062176872376,-0.019482709281363166,-0.0370343254872698,-0.07175534929489502,0.0024613346742528098,0.4242458478701238,-0.07286945841291516,-0.002588732627073623,0.0,-3.518962216928601,-2.9877352562472224,-1.0003899079710243,0.0,0.0,0.0,0.0,0.0,0.0004901457653320319,0.0,0.0,0.005561490454101568,0.0,0.0,0.0,0.0,0.0,0.0
0.27000000000000013,-0.029052759486530827,0.035115001087612716,0.05761813430401238,-0.19305760627432952,0.09594155412519813,-0.03748599912755044,-0.02620948578949553,0.03350306095681796,0.0575292999339394,-0.1886142054301793,0.11340062176872376,-0.019482709281363166,-0.034875772525147,-0.07209068269111242,0.0024600514230611625,0.4391384224365034,-0.061158934009763,-0.0027496878220538076,0.0,-3.518962216928601,-2.9877352562472224,-1.0003899079710243,0.0,0.0,0.0,0.0,0.0,0.0005184729808270461,0.0,0.0,0.005769988701725012,0.0,0.0,0.0,0.0,0.0,0.0
0.27500000000000013,-0.030018047517902473,0.035594708858238705,0.057430704308374624,-0.19583987807655945,0.09040483741958771,-0.04248847931344239,-0.02620948578949553,0.03350306095681796,0.0575292999339394,-0.1886142054301793,0.11340062176872376,-0.019482709281363166,-0.03264946054273316,-0.0723753456530432,0.00245551351343931,0.45125534719222765,-0.05258037453961041,-0.0029071251757426166,0.0,-3.518962216928601,-2.9877352562472224,-1.0003899079710243,0.0,0.0,0.0,0.0,0.0,0.0005478515691009529,0.0,0.0,0.005982037001037603,0.0,0.0,0.0,0.0,0.0,0.0
0.28000000000000014,-0.030997246908285273,0.03604673304533664,0.057218261911807414,-0.19901540433098552,0.08495364598718906,-0.04667020969436835,-0.02620948578949553,0.03350306095681796,0.0575292999339394,-0.1886142054301793,0.11340062176872376,-0.019482709281363166,-0.030368214675113858,-0.07262326487492012,0.002448389435732624,0.4610365660422465,-0.04644868068284488,-0.003060486688678603,0.0,-3.518962216928601,-2.9877352562472224,-1.0003899079710243,0.0,0.0,0.0,0.0,0.0,0.0005782992419600495,0.0,0.0,0.006197619974613195,0.0,0.0,0.0,0.0,0.0,0.0
0.28500000000000014,-0.0319923239299402,0.036471501275272586,0.05698491086333557,-0.2024858714245587,0.07956659850969922,-0.05023666253598281,-0.02620948578949553,0.03350306095681796,0.0575292999339394,-0.1886142054301793,0.11340062176872376,-0.019482709281363166,-0.028042854795854853,-0.07284529986963148,0.002439175171794243,0.4688395292792814,-0.04222022450699831,-0.003209325947957378,0.0,-3.518962216928601,-2.9877352562472224,-1.0003899079710243,0.0,0.0,0.0,0.0,0.0,0.0006098336343750008,0.0,0.0,0.006416722265625006,0.0,0.0,0.0,0.0,0.0,0.0
0.29000000000000015,-0.03300475328706299,0.03686933426782108,0.05673372755065566,-0.20617754414749223,0.07422765899839098,-0.05334194727418457,-0.02620948578949553,0.03350306095681796,0.0575292999339394,-0.1886142054301793,0.11340062176872376,-0.019482709281363166,-0.02568256921093173,-0.07304987698387638,0.002428233649835222,0.47495571126983616,-0.03946398014105752,-0.003353296126143679,0.0,-3.518962216928601,-2.9877352562472224,-1.0003899079710243,0.0,0.0,0.0,0.0,0.0,0.0006424723045838365,0.0,0.0,0.006639328537845618,0.0,0.0,0.0,0.0,0.0,0.0
0.29500000000000015,-0.03403564100780045,0.037240472562813036,0.05646701781428474,-0.210035121092446,0.06892480046171895,-0.05610165122501707,-0.02620948578949553,0.03350306095681796,0.0575292999339394,-0.1886142054301793,0.11340062176872376,-0.019482709281363166,-0.023295213712952817,-0.07324349402582152,0.002415826168145307,0.47962377313509863,-0.03783853406190568,-0.0034921368876995006,0.0,-3.518962216928601,-2.9877352562472224,-1.0003899079710243,0.0,0.0,0.0,0.0,0.0,0.0006762327341949473,0.0,0.0,0.006865423475646979,0.0,0.0,0.0,0.0,0.0,0.0
0.30000000000000016,-0.03508581661326268,0.03758509656512163,0.05618650955815965,-0.21401712620391494,0.06364900265602408,-0.05860247011702994,-0.02620948578949553,0.03350306095681796,0.0575292999339394,-0.1886142054301793,0.11340062176872376,-0.019482709281363166,-0.020887551106994324,-0.07343112186584314,0.002402137204762857,0.48304005348968954,-0.03707377785008788,-0.0036256613525995347,0.0,-3.518962216928601,-2.9877352562472224,-1.0003899079710243,0.0,0.0,0.0,0.0,0.0,0.0007111323282900819,0.0,0.0,0.007094991784000405,0.0,0.0,0.0,0.0,0.0,0.0
0.30500000000000016,-0.03615590224428226,0.03790334157840175,0.055893497207574507,-0.21809245244027028,0.05839350039856207,-0.060909430990486846,-0.03615590224428226,0.03790334157840175,0.05514630879204716,-0.21809245244027028,0.05839350039856207,-0.06823744917896342,-0.018465443262955076,-0.07361652399743508,0.0023872938561813263,0.48536693119280466,-0.036956330015820674,-0.003753743818192297,0.0,-3.518962216928601,-2.9877352562472224,-1.0003899079710243,0.0,0.0,0.0,0.0,0.0,0.0007471884155273448,0.0,0.0,0.00732801818847657,0.0,0.0,0.0,0.0,0.0,0.0
0.31000000000000016,-0.03724636450648361,0.03819530908039456,0.05558895005262207,-0.2210610763405766,0.05349193223646201,-0.06241628185488302,-0.03615590224428226,0.03790334157840175,0.05514630879204716,-0.21809245244027028,0.05839350039856207,-0.06823744917896342,-0.016037654630086565,-0.07379125155644718,0.0023711909757883048,0.48527420284809164,-0.03281359076319639,-0.0038763086280583403,0.0,-0.5307662128787487,-2.2453549522385,0.5754695433285086,0.0,0.0,0.0,0.0,0.0,0.0007844182482441914,0.0,0.0,0.007564487435245522,0.0,0.0,0.0,0.0,0.0,0.0
0.31500000000000017,-0.038351669888186495,0.03846276874157687,0.05527686864334766,-0.22319967348884612,0.04885581464588341,-0.06332336648249517,-0.03615590224428226,0.03790334157840175,0.05514630879204716,-0.21809245244027028,0.05839350039856207,-0.06823744917896342,-0.01361502538314982,-0.07393779906905122,0.0023536469009290068,0.48325960315352784,-0.025695316829500332,-0.003993315737613322,0.0,-0.5307662128787487,-2.2453549522385,0.5754695433285086,0.0,0.0,0.0,0.0,0.0,0.0008228390025604261,0.0,0.0,0.007804384291076668,0.0,0.0,0.0,0.0,0.0,0.0
0.3200000000000002,-0.03946766825563072,0.038707047814806286,0.05496025181093518,-0.22471575057308807,0.0444187849839459,-0.06378094795300587,-0.03615590224428226,0.03790334157840175,0.05514630879204716,-0.21809245244027028,0.05839350039856207,-0.06823744917896342,-0.011206170021447139,-0.07404335110434185,0.002334667431388742,0.4797213245771703,-0.016428382805415715,-0.004104747716566294,0.0,-0.5307662128787487,-2.2453549522385,0.5754695433285086,0.0,0.0,0.0,0.0,0.0,0.0008624677784811988,0.0,0.0,0.008047693543338784,0.0,0.0,0.0,0.0,0.0,0.0
0.3250000000000002,-0.040591247008496166,0.03892914173972602,0.05464134707117015,-0.22576493760930935,0.04013107126848921,-0.06390172882873389,-0.03615590224428226,0.03790334157840175,0.05514630879204716,-0.21809245244027028,0.05839350039856207,-0.06823744917896342,-0.008817920509955548,-0.0740987832288322,0.0023143880131832784,0.4749781751491953,-0.005662450516532228,-0.004210604369282148,0.0,-0.5307662128787487,-2.2453549522385,0.5754695433285086,0.0,0.0,0.0,0.0,0.0,0.0009033216000000015,0.0,0.0,0.00829440000000001,0.0,0.0,0.0,0.0,0.0,0.0
0.3300000000000002,-0.04172007169654271,0.03912979709606846,0.05432183842702648,-0.2264639571095151,0.03595534451289313,-0.06377024128599401,-0.03615590224428226,0.03790334157840175,0.05514630879204716,-0.21809245244027028,0.05839350039856207,-0.06823744917896342,-0.006455679791828631,-0.0740978676295963,0.0022930295975862377,0.469285636752303,0.006093667495533991,-0.004310901709109528,0.0,-0.5307662128787487,-2.2453549522385,0.5754695433285086,0.0,0.0,0.0,0.0,0.0,0.0009454174152016654,0.0,0.0,0.008544488489627848,0.0,0.0,0.0,0.0,0.0,0.0
0.3350000000000002,-0.04285239148209029,0.039309573818632926,0.05400298722059651,-0.22690035095770925,0.031863607977192517,-0.06344988971355425,-0.03615590224428226,0.03790334157840175,0.05514630879204716,-0.21809245244027028,0.05839350039856207,-0.06823744917896342,-0.00412370390127555,-0.07403664171957253,0.0022708653787358217,0.46284865829667177,0.018443055501114042,-0.004405673133550879,0.0,-0.5307662128787487,-2.2453549522385,0.5754695433285086,0.0,0.0,0.0,0.0,0.0,0.000988772096365358,0.0,0.0,0.008797943861389169,0.0,0.0,0.0,0.0,0.0,0.0
0.3400000000000002,-0.043986893236878835,0.03946889185851889,0.05368573777202874,-0.22713977556689466,0.027834864106413497,-0.06298823266141614,-0.03615590224428226,0.03790334157840175,0.05514630879204716,-0.21809245244027028,0.05839350039856207,-0.06823744917896342,-0.001825327197715825,-0.07391290652791319,0.0022481960752804573,0.45583184832895196,0.03107764404584697,-0.0044949714308737294,0.0,-0.5307662128787487,-2.2453549522385,0.5754695433285086,0.0,0.0,0.0,0.0,0.0,0.001033402440067579,0.0,0.0,0.009054750985050212,0.0,0.0,0.0,0.0,0.0,0.0
0.3450000000000002,-0.04512259211471331,0.03960806617905095,0.053370796608721655,-0.22723147324682352,0.02385336473432568,-0.06242094430233737,-0.03615590224428226,0.03790334157840175,0.05514630879204716,-0.21809245244027028,0.05839350039856207,-0.06823744917896342,0.00043685771389333564,-0.07372582843665192,0.0022253318512129878,0.44836759635665385,0.04375985953724085,-0.004578870791631198,0.0,-0.5307662128787487,-2.2453549522385,0.5754695433285086,0.0,0.0,0.0,0.0,0.0,0.0010793251672851579,0.0,0.0,0.009314894750976572,0.0,0.0,0.0,0.0,0.0,0.0
0.3500000000000002,-0.04625874948094743,0.03972733300272258,0.05305869188720997,-0.22721237572980998,0.019907298736256254,-0.06177478552791149,-0.03615590224428226,0.03790334157840175,0.05514630879204716,-0.21809245244027028,0.05839350039856207,-0.06823744917896342,0.0026608561670042104,-0.07347562320625241,0.002202579347540675,0.44056254443379583,0.0563080168425215,-0.004657468366546469,0.0,-0.5307662128787487,-2.2453549522385,0.5754695433285086,0.0,0.0,0.0,0.0,0.0,0.0011265569234982509,0.0,0.0,0.009578360070133218,0.0,0.0,0.0,0.0,0.0,0.0
0.3550000000000002,-0.04739481135959648,0.03982686949640386,0.052749817959570414,-0.22711018181508963,0.01598780776870063,-0.06106983227056534,-0.04739481135959648,0.03982686949640386,0.05157470368077707,-0.22711018181508963,0.01598780776870063,-0.07091496414464982,0.004845156388246804,-0.0731633055179621,0.0021802326142584625,0.4325027447470379,0.06858469266300606,-0.004730885155015893,0.0,-0.5307662128787487,-2.2453549522385,0.5754695433285086,0.0,0.0,0.0,0.0,0.0,0.001175114278793337,0.0,0.0,0.009845131874084484,0.0,0.0,0.0,0.0,0.0,0.0
0.3600000000000002,-0.048530362268671925,0.03990680853524737,0.05244446879821759,-0.22521347534127048,0.012080960837728513,-0.06003015189179477,-0.04739481135959648,0.03982686949640386,0.05157470368077707,-0.22711018181508963,0.01598780776870063,-0.07091496414464982,0.006988410907592587,-0.07277516352661154,0.002158663445636418,0.4241700555320657,0.08661845407058141,-0.004799266163024528,0.0,3.9814461602121587,-2.3860397502109407,1.324948595546186,0.0,0.0,0.0,0.0,0.0,0.0012250137279662151,0.0,0.0,0.01011519511499406,0.0,0.0,0.0,0.0,0.0,0.0
0.3650000000000002,-0.04965642964537828,0.03996721333943601,0.052144318038758616,-0.22197088444812726,0.008183596934194026,-0.05873979503288008,-0.04739481135959648,0.03982686949640386,0.05157470368077707,-0.22711018181508963,0.01598780776870063,-0.07091496414464982,0.009089414238021749,-0.07228662546327426,0.00213840275348371,0.41564396296667744,0.10872546932026449,-0.004862782211715207,0.0,3.9814461602121587,-2.3860397502109407,1.324948595546186,0.0,0.0,0.0,0.0,0.0,0.0012762716906250021,0.0,0.0,0.010388534765625013,0.0,0.0,0.0,0.0,0.0,0.0
0.3700000000000002,-0.05076628406761892,0.04000813132410698,0.051850619063594214,-0.217718880240491,0.004293345301237761,-0.057261804943260004,-0.04739481135959648,0.03982686949640386,0.05157470368077707,-0.22711018181508963,0.01598780776870063,-0.07091496414464982,0.011147315349723876,-0.07168063081710675,0.002120048303558993,0.4069884229657679,0.1335858880000202,-0.004921634951145879,0.0,3.9814461602121587,-2.3860397502109407,1.324948595546186,0.0,0.0,0.0,0.0,0.0,0.0013289045112931273,0.0,0.0,0.010665135819339764,0.0,0.0,0.0,0.0,0.0,0.0
0.3750000000000002,-0.05185487846882138,0.040029598050613166,0.05156431003887792,-0.2127098160469849,0.0004084278712151632,-0.055643469329950644,-0.04739481135959648,0.03982686949640386,0.05157470368077707,-0.22711018181508963,0.01598780776870063,-0.07091496414464982,0.013161551979022197,-0.07094599732184471,0.0021042164637024787,0.3982549652278547,0.16016904236272037,-0.00497606198959142,0.0,3.9814461602121587,-2.3860397502109407,1.324948595546186,0.0,0.0,0.0,0.0,0.0,0.0013829284595123312,0.0,0.0,0.010944983290100109,0.0,0.0,0.0,0.0,0.0,0.0
0.3800000000000002,-0.052918427549056304,0.04003164018996924,0.05128609269222816,-0.20713295686407648,-0.0034724889066071844,-0.05392025924454795,-0.04739481135959648,0.03982686949640386,0.05157470368077707,-0.22711018181508963,0.01598780776870063,-0.07091496414464982,0.015131797727765323,-0.07007612366618078,0.0020915087719008364,0.38948516731799543,0.18767389627312522,-0.005026340890940119,0.0,3.9814461602121587,-2.3860397502109407,1.324948595546186,0.0,0.0,0.0,0.0,0.0,0.0014383597299456622,0.0,0.0,0.011228062212467207,0.0,0.0,0.0,0.0,0.0,0.0
0.38500000000000023,-0.05395409233337669,0.04001427774543621,0.05101649139600542,-0.20113025143911628,-0.007350405195279344,-0.05211878324841807,-0.04739481135959648,0.03982686949640386,0.05157470368077707,-0.22711018181508963,0.01598780776870063,-0.07091496414464982,0.017057919359652743,-0.06906795952439057,0.002082489513532838,0.3807126269516191,0.21548163684183422,-0.005072791474703818,0.0,3.9814461602121587,-2.3860397502109407,1.324948595546186,0.0,0.0,0.0,0.0,0.0,0.0014952144424804712,0.0,0.0,0.011514357641601575,0.0,0.0,0.0,0.0,0.0,0.0
0.39000000000000024,-0.05495974359057227,0.03997752571945981,0.05075589747976333,-0.19480816133261727,-0.011226071117088864,-0.05025900303652862,-0.04739481135959648,0.03982686949640386,0.05157470368077707,-0.22711018181508963,0.01598780776870063,-0.07091496414464982,0.018939942224906817,-0.06792118842383965,0.0020776714081101708,0.37196453458143336,0.24311793602140158,-0.005115776276880694,0.0,3.9814461602121587,-2.3860397502109407,1.324948595546186,0.0,0.0,0.0,0.0,0.0,0.0015535086423314121,0.0,0.0,0.011803854653263108,0.0,0.0,0.0,0.0,0.0,0.0
0.39500000000000024,-0.055933784397235356,0.03992139536387437,0.05050460246458068,-0.18824653271496414,-0.015100049263751403,-0.04835589515526078,-0.04739481135959648,0.03982686949640386,0.05157470368077707,-0.22711018181508963,0.01598780776870063,-0.07091496414464982,0.020778022168637285,-0.06663758005391586,0.002077507211019084,0.3632629276238676,0.2702229129194733,-0.005155699278433926,0.0,3.9814461602121587,-2.3860397502109407,1.324948595546186,0.0,0.0,0.0,0.0,0.0,0.0016132583001434355,0.0,0.0,0.012096538343811048,0.0,0.0,0.0,0.0,0.0,0.0
0.40000000000000024,-0.056875017060810176,0.03984589511755561,0.05026282298880438,-0.18150525021394542,-0.018972761579053705,-0.04642069729070729,-0.04739481135959648,0.03982686949640386,0.05157470368077707,-0.22711018181508963,0.01598780776870063,-0.07091496414464982,0.022572422617677262,-0.06522047745280425,0.002082385578332302,0.3546256911168605,0.296527228549317,-0.005193003140274402,0.0,3.9814461602121587,-2.3860397502109407,1.324948595546186,0.0,0.0,0.0,0.0,0.0,0.0016744793120947866,0.0,0.0,0.012392393830204025,0.0,0.0,0.0,0.0,0.0,0.0
0.40500000000000025,-0.0577825433118799,0.039751031309660345,0.05003071950235084,-0.1746292273004025,-0.02284452452083583,-0.044461842984834674,-0.0577825433118799,0.039751031309660345,0.04829353200235084,-0.1746292273004025,-0.02284452452083583,-0.05715324923483469,0.024323495810913094,-0.06367439154337116,0.0020926299579827365,0.34606735641966446,0.32183306406242795,-0.005228165240509907,0.0,3.9814461602121587,-2.3860397502109407,1.324948595546186,0.0,0.0,0.0,0.0,0.0,0.0017371875000000026,0.0,0.0,0.012691406250000018,0.0,0.0,0.0,0.0,0.0,0.0
0.41000000000000025,-0.05865568944838191,0.039636808687056165,0.04980841028742667,-0.16651092284226948,-0.026755566806825837,-0.04265713784812568,-0.0577825433118799,0.039751031309660345,0.04829353200235084,-0.1746292273004025,-0.02284452452083583,-0.05715324923483469,0.02603197325099115,-0.06199450869037812,0.0021087593710692586,0.3377285871637067,0.3500692690968872,-0.005261692819761766,0.0,7.120563088819384,-2.60834148991853,0.9036957617048174,0.0,0.0,0.0,0.0,0.0,0.0018013986114129095,0.0,0.0,0.01299356076135637,0.0,0.0,0.0,0.0,0.0,0.0
0.41500000000000026,-0.05948824406259326,0.039503030853022036,0.04959512459818604,-0.15746090722569386,-0.03069606860097175,-0.0409684661922553,-0.0577825433118799,0.039751031309660345,0.04829353200235084,-0.1746292273004025,-0.02284452452083583,-0.05715324923483469,0.027698871237588636,-0.06016910986387904,0.002131481647816126,0.32958524596680583,0.38007053664700075,-0.005294123849885871,0.0,7.120563088819384,-2.60834148991853,0.9036957617048174,0.0,0.0,0.0,0.0,0.0,0.0018671283197296174,0.0,0.0,0.0132988425430298,0.0,0.0,0.0,0.0,0.0,0.0
0.42000000000000026,-0.06027554859872173,0.03934955051001718,0.049390282267224764,-0.1477121082402863,-0.034658665026234596,-0.03936724653128196,-0.0577825433118799,0.039751031309660345,0.04829353200235084,-0.1746292273004025,-0.02284452452083583,-0.05715324923483469,0.029325111893906096,-0.05819164751910663,0.0021613970156846127,0.32161855474225415,0.4109335157954786,-0.005326032025402606,0.0,7.120563088819384,-2.60834148991853,0.9036957617048174,0.0,0.0,0.0,0.0,0.0,0.0019343922242915188,0.0,0.0,0.01360723679437639,0.0,0.0,0.0,0.0,0.0,0.0
0.42500000000000027,-0.06101410913992316,0.03917625718488601,0.04919344603456836,-0.1374392217282548,-0.03863783242483514,-0.037832048031898644,-0.0577825433118799,0.039751031309660345,0.04829353200235084,-0.1746292273004025,-0.02284452452083583,-0.05715324923483469,0.030911546985030798,-0.05605957080548415,0.002198997575468383,0.3138139598080849,0.44196264015721437,-0.005358027587150634,0.0,7.120563088819384,-2.60834148991853,0.9036957617048174,0.0,0.0,0.0,0.0,0.0,0.002003205850488285,0.0,0.0,0.01391872873535158,0.0,0.0,0.0,0.0,0.0,0.0
0.43000000000000027,-0.06170130524856443,0.03898306802276183,0.04900428579440887,-0.12677326957125531,-0.04262942805343896,-0.036346802851060726,-0.0577825433118799,0.039751031309660345,0.04829353200235084,-0.1746292273004025,-0.02284452452083583,-0.05715324923483469,0.032458976183218045,-0.05377339408071632,0.00224467043764264,0.3061602287855543,0.4726270086546471,-0.00539075499894055,0.0,7.120563088819384,-2.60834148991853,0.9036957617048174,0.0,0.0,0.0,0.0,0.0,0.002073584649860863,0.0,0.0,0.014233303606510178,0.0,0.0,0.0,0.0,0.0,0.0
0.4350000000000003,-0.062335171596420706,0.03876992088249463,0.048822551780153566,-0.11581251818052986,-0.04663034485454523,-0.03489946538914644,-0.0577825433118799,0.039751031309660345,0.04829353200235084,-0.1746292273004025,-0.02284452452083583,-0.05715324923483469,0.033968160944575186,-0.051335959089608724,0.0022987031768015925,0.29864873225133964,0.5025260677895943,-0.005424888359051777,0.0,7.120563088819384,-2.60834148991853,0.9036957617048174,0.0,0.0,0.0,0.0,0.0,0.0021455440002044715,0.0,0.0,0.014550946669006366,0.0,0.0,0.0,0.0,0.0,0.0
0.4400000000000003,-0.06291423418732335,0.038536769158221906,0.048648054453207835,-0.10463066736450992,-0.05063825253502835,-0.03348100672976699,-0.0577825433118799,0.039751031309660345,0.04829353200235084,-0.1746292273004025,-0.02284452452083583,-0.05715324923483469,0.035439834929285416,-0.04875185127415925,0.0023612906572207304,0.29127287266743596,0.5313623028824893,-0.005461125283972633,0.0,7.120563088819384,-2.60834148991853,0.9036957617048174,0.0,0.0,0.0,0.0,0.0,0.002219099205671601,0.0,0.0,0.014871643204593674,0.0,0.0,0.0,0.0,0.0,0.0
0.4450000000000003,-0.0634373875241459,0.03828357789554677,0.048480649419559,-0.09328299197951913,-0.054651403375044094,-0.03208466046956393,-0.0577825433118799,0.039751031309660345,0.04829353200235084,-0.1746292273004025,-0.02284452452083583,-0.05715324923483469,0.036874711710945515,-0.046026938731162925,0.002432542568947844,0.28402763072625686,0.5589195107383718,-0.005500179864060581,0.0,7.120563088819384,-2.60834148991853,0.9036957617048174,0.0,0.0,0.0,0.0,0.0,0.0022942654968750044,0.0,0.0,0.015195378515625016,0.0,0.0,0.0,0.0,0.0,0.0
0.4500000000000003,-0.0639038024840435,0.038010320878671545,0.04832022611721118,-0.08181094816780018,-0.058668486584709315,-0.03070535709049719,-0.0577825433118799,0.039751031309660345,0.04829353200235084,-0.1746292273004025,-0.02284452452083583,-0.05715324923483469,0.03827349037050484,-0.04316800874473377,0.002512491220681388,0.2769092053124505,0.5850455168705296,-0.0055427751662670685,0.0,7.120563088819384,-2.60834148991853,0.9036957617048174,0.0,0.0,0.0,0.0,0.0,0.0023710580309907006,0.0,0.0,0.01552213792505266,0.0,0.0,0.0,0.0,0.0,0.0
0.4550000000000003,-0.0643128572248825,0.037716978445748,0.04816669933175869,-0.07024562803603512,-0.06268851907161165,-0.02933929973900115,-0.0643128572248825,0.037716978445748,0.045717207439897725,-0.07024562803603512,-0.06268851907161165,-0.04519120651542939,0.03963685944950435,-0.0401824819272543,0.0026010992844467833,0.2699147281129699,0.6096384318993242,-0.005589635650534653,0.0,7.120563088819384,-2.60834148991853,0.9036957617048174,0.0,0.0,0.0,0.0,0.0,0.002449491891860967,0.0,0.0,0.015851906776428244,0.0,0.0,0.0,0.0,0.0,0.0
0.4600000000000003,-0.06466408536506268,0.03740353585038994,0.04802000283306369,-0.05869989643619935,-0.06684790517940423,-0.02828612191409216,-0.0643128572248825,0.037716978445748,0.045717207439897725,-0.07024562803603512,-0.06268851907161165,-0.04519120651542939,0.04096694911350923,-0.03707834989885882,0.0026982622436647957,0.26362175183195974,0.632570957747602,-0.005641479774487123,0.0,7.17772210688889,-3.0960296223834156,0.13331666214298457,0.0,0.0,0.0,0.0,0.0,0.0025295820900973365,0.0,0.0,0.01618467043390276,0.0,0.0,0.0,0.0,0.0,0.0
0.4650000000000003,-0.06495758484724368,0.03706929632449292,0.047878572223493225,-0.04716885623531053,-0.07111180650286451,-0.02746807817198869,-0.0643128572248825,0.037716978445748,0.045717207439897725,-0.07024562803603512,-0.06268851907161165,-0.04519120651542939,0.04226695220217675,-0.03386395791811018,0.002803822539493243,0.25787650511856125,0.6538282393738742,-0.005699012861851127,0.0,7.17772210688889,-3.0960296223834156,0.13331666214298457,0.0,0.0,0.0,0.0,0.0,0.0026113435631835986,0.0,0.0,0.01652041428222658,0.0,0.0,0.0,0.0,0.0,0.0
0.4700000000000003,-0.06519342912842023,0.0367137372919786,0.047741231832633284,-0.03564883458363193,-0.07545409423807557,-0.026826864715917678,-0.0643128572248825,0.037716978445748,0.045717207439897725,-0.07024562803603512,-0.06268851907161165,-0.04519120651542939,0.04353937623022068,-0.030547673565792396,0.002917584493282236,0.2525579592601612,0.6734155931477231,-0.005762920573855497,0.0,7.17772210688889,-3.0960296223834156,0.13331666214298457,0.0,0.0,0.0,0.0,0.0,0.00269479117557879,0.0,0.0,0.016859123726749442,0.0,0.0,0.0,0.0,0.0,0.0
0.4750000000000003,-0.06537167330133839,0.03633646682078822,0.047607097509053696,-0.024137076843860995,-0.07985517178209971,-0.026318758984609555,-0.0643128572248825,0.037716978445748,0.045717207439897725,-0.07024562803603512,-0.06268851907161165,-0.04519120651542939,0.044786189225074054,-0.027137797749056145,0.003039318846238975,0.24757108594552715,0.6913537740406056,-0.005833863251920487,0.0,7.17772210688889,-3.0960296223834156,0.13331666214298457,0.0,0.0,0.0,0.0,0.0,0.0027799397188201956,0.0,0.0,0.017200784193420433,0.0,0.0,0.0,0.0,0.0,0.0
0.4800000000000003,-0.0654923586855577,0.035937190961877724,0.047475503714130646,-0.012631517038020807,-0.08430034168273365,-0.02591097434361016,-0.0643128572248825,0.037716978445748,0.045717207439897725,-0.07024562803603512,-0.06268851907161165,-0.04519120651542939,0.04600893537118575,-0.02364249691766877,0.0031687668641153274,0.24284149055889942,0.7076752247089196,-0.005912471072671422,0.0,7.17772210688889,-3.0960296223834156,0.13331666214298457,0.0,0.0,0.0,0.0,0.0,0.002866803911626344,0.0,0.0,0.017545381128788014,0.0,0.0,0.0,0.0,0.0,0.0
0.4850000000000003,-0.0655555162707478,0.03551568925346406,0.0473459488424126,-0.001130605682628679,-0.08877858085082495,-0.02557892610370547,-0.0643128572248825,0.037716978445748,0.045717207439897725,-0.07024562803603512,-0.06268851907161165,-0.04519120651542939,0.04720882664071032,-0.02006975208440767,0.0033056440624803507,0.23831114091399644,0.722421106127263,-0.005999339953513045,0.0,7.17772210688889,-3.0960296223834156,0.13331666214298457,0.0,0.0,0.0,0.0,0.0,0.002955398400000006,0.0,0.0,0.01789290000000002,0.0,0.0,0.0,0.0,0.0,0.0
0.4900000000000003,-0.06556116929916093,0.035071796349209934,0.04721805421189407,0.010366819334927403,-0.09328162196950926,-0.025304181034681055,-0.0643128572248825,0.037716978445748,0.045717207439897725,-0.07024562803603512,-0.06268851907161165,-0.04519120651542939,0.04838681533111464,-0.016427321141154336,0.003449643600362185,0.2339349683589795,0.7356389502314792,-0.006095028146782332,0.0,7.17772210688889,-3.0960296223834156,0.13331666214298457,0.0,0.0,0.0,0.0,0.0,0.0030457377573311867,0.0,0.0,0.018243326294803644,0.0,0.0,0.0,0.0,0.0,0.0
0.49500000000000033,-0.0655093352024863,0.034605388239362385,0.04709153330672066,0.021861629599106452,-0.09780326455113834,-0.025072919500582654,-0.0643128572248825,0.037716978445748,0.045717207439897725,-0.07024562803603512,-0.06268851907161165,-0.04519120651542939,0.049543651427330505,-0.012722711678513536,0.0036004393823819776,0.2296781635957767,0.7473808075241054,-0.006200053462027065,0.0,7.17772210688889,-3.0960296223834156,0.13331666214298457,0.0,0.0,0.0,0.0,0.0,0.003137836484500129,0.0,0.0,0.018596645521545434,0.0,0.0,0.0,0.0,0.0,0.0
0.5000000000000003,-0.06540002705449076,0.03411637191660669,0.04696616870921775,0.03335447879825272,-0.102338858229976,-0.02487478206110275,-0.0643128572248825,0.037716978445748,0.045717207439897725,-0.07024562803603512,-0.06268851907161165,-0.04519120651542939,0.05067992790731636,-0.008963162087139345,0.00375768890265759,0.22551402572365048,0.7577017884711292,-0.006314891058598771,0.0,7.17772210688889,-3.0960296223834156,0.13331666214298457,0.0,0.0,0.0,0.0,0.0,0.003231709009980303,0.0,0.0,0.018952843209171316,0.0,0.0,0.0,0.0,0.0,0.0
0.5050000000000003,-0.06523325466049949,0.03360467762545681,0.046841794798912234,0.04484585719862441,-0.10688491523172008,-0.024702004422561742,-0.06523325466049949,0.03360467762545681,0.04351442510897082,0.04484585719862441,-0.10688491523172008,-0.044013909329788325,0.051796116473690736,-0.0051556291731252,0.0039210358579638985,0.22142225182007122,0.7666589181259311,-0.006439971754034762,0.0,7.17772210688889,-3.0960296223834156,0.13331666214298457,0.0,0.0,0.0,0.0,0.0,0.0033273696899414128,0.0,0.0,0.019311904907226587,0.0,0.0,0.0,0.0,0.0,0.0
0.5100000000000003,-0.06500902537450637,0.03307025304929821,0.04671828477679942,0.05621188462471784,-0.11119931783601529,-0.02470515756922266,-0.06523325466049949,0.03360467762545681,0.04351442510897082,0.04484585719862441,-0.10688491523172008,-0.044013909329788325,0.052890564592325245,-0.0013075621362319653,0.004090068859277233,0.21657511064301416,0.7739972639543441,-0.006575680797304851,0.0,7.192220979765057,-2.6086707247048615,-0.28262653717584907,0.0,0.0,0.0,0.0,0.0,0.0034248328083523825,0.0,0.0,0.01967381618585589,0.0,0.0,0.0,0.0,0.0,0.0
0.5150000000000003,-0.06472796595138278,0.032514256460118136,0.04659475898895331,0.06748389882010256,-0.11533997964222385,-0.024840786107306254,-0.06523325466049949,0.03360467762545681,0.04351442510897082,0.04484585719862441,-0.10688491523172008,-0.044013909329788325,0.053960049839190755,0.0025733064625726868,0.00426432164806115,0.21117451177890909,0.7798573494419733,-0.006722355995534575,0.0,7.192220979765057,-2.6086707247048615,-0.28262653717584907,0.0,0.0,0.0,0.0,0.0,0.003524112577084358,0.0,0.0,0.020038562635803246,0.0,0.0,0.0,0.0,0.0,0.0
0.5200000000000004,-0.06439054645728226,0.03193755656190702,0.046470555058416775,0.07868540309245575,-0.11935033584986741,-0.02507630377735633,-0.06523325466049949,0.03360467762545681,0.04351442510897082,0.04484585719862441,-0.10688491523172008,-0.044013909329788325,0.05500224755409626,0.006479903788898316,0.004443324386640318,0.20538012330341338,0.7843619996727857,-0.006880285376577859,0.0,7.192220979765057,-2.6086707247048615,-0.28262653717584907,0.0,0.0,0.0,0.0,0.0,0.0036252231360137054,0.0,0.0,0.020406129868412046,0.0,0.0,0.0,0.0,0.0,0.0
0.5250000000000004,-0.06399711944181999,0.03134080488265768,0.046345173539529994,0.0898340249225353,-0.12326296285858723,-0.02538727617031799,-0.06523325466049949,0.03360467762545681,0.04351442510897082,0.04484585719862441,-0.10688491523172008,-0.044013909329788325,0.05601554101159512,0.010405736018526901,0.004626606122571242,0.19931798436423148,0.7876195085439002,-0.007049705772126983,0.0,7.192220979765057,-2.6086707247048615,-0.28262653717584907,0.0,0.0,0.0,0.0,0.0,0.003728178553125007,0.0,0.0,0.020776503515625027,0.0,0.0,0.0,0.0,0.0,0.0
0.5300000000000004,-0.06354794931720731,0.030724490068364748,0.046218237158678406,0.10094298492090961,-0.12710229296811426,-0.025755382764538173,-0.06523325466049949,0.03360467762545681,0.04351442510897082,0.04484585719862441,-0.10688491523172008,-0.044013909329788325,0.056998870351247954,0.014344821876382578,0.004813697049678028,0.1930873650082081,0.7897261746907107,-0.007230802163413034,0.0,7.192220979765057,-2.6086707247048615,-0.28262653717584907,0.0,0.0,0.0,0.0,0.0,0.003832992824614056,0.0,0.0,0.02114966922998431,0.0,0.0,0.0,0.0,0.0,0.0
0.5350000000000004,-0.06304323439260276,0.030088978603524177,0.04608946024485572,0.11202219854550499,-0.13088665040324668,-0.02616688845345795,-0.06523325466049949,0.03360467762545681,0.04351442510897082,0.04484585719862441,-0.10688491523172008,-0.044013909329788325,0.05795161238791125,0.01829163759849086,0.005004130550595435,0.18676623007167056,0.7907683343741112,-0.007423707659542111,0.0,7.192220979765057,-2.6086707247048615,-0.28262653717584907,0.0,0.0,0.0,0.0,0.0,0.003939679874990854,0.0,0.0,0.021525612684631372,0.0,0.0,0.0,0.0,0.0,0.0
0.5400000000000004,-0.06248312339987523,0.029434545351507944,0.04595862580258843,0.12307910238976619,-0.13462977833258313,-0.026611497191323875,-0.06523325466049949,0.03360467762545681,0.04351442510897082,0.04484585719862441,-0.10688491523172008,-0.044013909329788325,0.058873485025005994,0.022241071059492697,0.005197445020677639,0.18041559130076823,0.790823993463627,-0.007628504000254972,0.0,7.192220979765057,-2.6086707247048615,-0.28262653717584907,0.0,0.0,0.0,0.0,0.0,0.004048253557182606,0.0,0.0,0.02190431957330707,0.0,0.0,0.0,0.0,0.0,0.0
0.5450000000000004,-0.0618677278879264,0.028761396459845028,0.04582556831663181,0.13411927389877673,-0.13834198413257262,-0.02708149222741361,-0.06523325466049949,0.03360467762545681,0.04351442510897082,0.04484585719862441,-0.10688491523172008,-0.044013909329788325,0.05976447127006082,0.026188383266207208,0.005393185481584683,0.17408297400930428,0.7899641398519608,-0.007845222492131161,0.0,7.192220979765057,-2.6086707247048615,-0.28262653717584907,0.0,0.0,0.0,0.0,0.0,0.004158727652636727,0.0,0.0,0.02228577561035159,0.0,0.0,0.0,0.0,0.0,0.0
0.5500000000000004,-0.06119713151843252,0.028069686539182164,0.04569016085549474,0.1451468961563493,-0.14203099833555188,-0.027571091281647506,-0.06523325466049949,0.03360467762545681,0.04351442510897082,0.04484585719862441,-0.10688491523172008,-0.044013909329788325,0.06062475886850639,0.030129175782461437,0.005590904997272041,0.1678051785033066,0.7882538010743542,-0.008073845301167556,0.0,7.192220979765057,-2.6086707247048615,-0.28262653717584907,0.0,0.0,0.0,0.0,0.0,0.004271115871423825,0.0,0.0,0.02266996653070453,0.0,0.0,0.0,0.0,0.0,0.0
