time,pos_x,pos_y,pos_z,vel_x,vel_y,vel_z,pos_xo,pos_yo,pos_zo,vel_xo,vel_yo,vel_zo,roll,pitch,yaw,roll_vel,pitch_vel,yaw_vel,thrust_z,force_x,force_y,force_z,torque_x,torque_y,torque_z,pos_xd,pos_yd,pos_zd,vel_xd,vel_yd,vel_zd,roll_d,pitch_d,yaw_d,roll_vel_d,pitch_vel_d,yaw_vel_d
0.005,0.0,0.0,0.2,0.0,0.0,-0.037014772727272736,0.0,0.0,0.0,0.0,0.0,-0.037014772727272736,0.0,0.0,0.0,0.0,0.0,0.0,0.0,0.0,0.0,0.0,0.0,0.0,0.0,0.0,0.0,0.2,0.0,0.0,0.0,0.0,0.0,0.0,0.0,0.0,0.0
0.01,0.0,0.0,0.19981492613636365,-1.595513289794326e-06,0.00270498536657542,-0.05391895089791893,0.0,0.0,0.0,0.0,0.0,-0.037014772727272736,-1.3273346559844773e-05,-7.864769349992378e-09,5.21959045986133e-14,-0.005309338623937908,-3.1459077401124207e-06,1.6779872860942625e-27,0.0,-0.00421215508505702,7.141161367759108,29.151203412830828,0.0,0.0,0.0,0.0,0.0,0.20000001559571778,0.0,0.0,9.3515771484375e-06,0.0,0.0,0.0,0.0,0.0,0.0
0.015,-7.97756644897163e-09,1.35249268328771e-05,0.19954533138187405,-4.3876615469343955e-06,0.007438709758082404,-0.055740215048928426,0.0,0.0,0.0,0.0,0.0,-0.037014772727272736,-6.288280727491163e-05,-3.725953918623696e-08,1.1714890342893186e-12,-0.014534445662088821,-8.612000204375779e-06,-1.2712269364792733e-15,0.0,-0.00421215508505702,7.141161367759108,29.151203412830828,0.0,0.0,0.0,0.0,0.0,0.20000012453171875,0.0,0.0,3.7312734375000004e-05,0.0,0.0,0.0,0.0,0.0,0.0
0.02,-2.9915874183643606e-08,5.0718475623289124e-05,0.19926663030662942,-8.077286029583774e-06,0.013693988418288063,-0.04624934678249841,0.0,0.0,0.0,0.0,0.0,-0.037014772727272736,-0.00016566423451627873,-9.815994711689017e-08,8.130713063043473e-12,-0.026578125234457822,-1.574816313857648e-05,-3.0745844774240345e-14,0.0,-0.00421215508505702,7.141161367759108,29.151203412830828,0.0,0.0,0.0,0.0,0.0,0.2000004195055127,0.0,0.0,8.37433740234375e-05,0.0,0.0,0.0,0.0,0.0,0.0
0.025,-7.030230433156248e-08,0.00011918841771472944,0.1990353835727169,-1.2440017681365133e-05,0.021090432780017727,-0.028274453445472247,0.0,0.0,0.0,0.0,0.0,-0.037014772727272736,-0.0003335565639338348,-1.976400909533382e-07,3.296128858124979e-11,-0.04057880653256308,-2.4043895684317042e-05,-2.5062456121246067e-13,0.0,-0.00421215508505702,7.141161367759108,29.151203412830828,0.0,0.0,0.0,0.0,0.0,0.200000992515,0.0,0.0,0.00014850375,0.0,0.0,0.0,0.0,0.0,0.0
0.030000000000000002,-1.3250239273838816e-07,0.00022464058161481807,0.19889401130548956,-1.7307579709995477e-05,0.029342751417890393,-0.0039366366385251116,0.0,0.0,0.0,0.0,0.0,-0.037014772727272736,-0.0005746590152729348,-3.4049894039144016e-07,9.783094220766678e-11,-0.055862174003069726,-3.3099650123965685e-05,-1.2162568896474478e-12,0.0,-0.00421215508505702,7.141161367759108,29.151203412830828,0.0,0.0,0.0,0.0,0.0,0.2000019348602295,0.0,0.0,0.00023145446777343758,0.0,0.0,0.0,0.0,0.0,0.0
0.035,-2.1904029128836554e-07,0.00037135433870427004,0.19887432812229694,-2.255376452126256e-05,0.038236975762870315,0.02517325640233828,0.0,0.0,0.0,0.0,0.0,-0.037014772727272736,-0.0008940710907458667,-5.2975804663905e-07,2.3680241725165217e-10,-0.07190265618607847,-4.2604013110792915e-05,-4.31317830662304e-12,0.0,-0.00421215508505702,7.141161367759108,29.151203412830828,0.0,0.0,0.0,0.0,0.0,0.20000333714515625,0.0,0.0,0.0003324564843750001,0.0,0.0,0.0,0.0,0.0,0.0
0.04,-3.3180911389467836e-07,0.0005625392175186216,0.19900019440430863,-2.80839164195072e-05,0.04761262938818067,0.05786206927004994,0.0,0.0,0.0,0.0,0.0,-0.037014772727272736,-0.0012945596454320737,-7.670567829803094e-07,4.964404727936519e-10,-0.08829276568833622,-5.231553888176471e-05,-1.236770508004688e-11,0.0,-0.00421215508505702,7.141161367759108,29.151203412830828,0.0,0.0,0.0,0.0,0.0,0.20000528927939942,0.0,0.0,0.0004513711083984375,0.0,0.0,0.0,0.0,0.0,0.0
0.045,-4.7222869599221436e-07,0.000800602364459525,0.19928950475065887,-3.382704363298501e-05,0.05734935497373886,0.09323491373506576,0.0,0.0,0.0,0.0,0.0,-0.037014772727272736,-0.0017770882884796835,-1.052966008241183e-06,9.354401459661506e-10,-0.10471869153054655,-6.204828714986516e-05,-3.039736309997588e-11,0.0,-0.00421215508505702,7.141161367759108,29.151203412830828,0.0,0.0,0.0,0.0,0.0,0.20000788048,0.0,0.0,0.0005880600000000001,0.0,0.0,0.0,0.0,0.0,0.0
0.049999999999999996,-6.413639141571394e-07,0.0010873491393282194,0.1997556793193342,-3.972990233288769e-05,0.06735688452948292,0.1306206027571914,0.0,0.0,0.0,0.0,0.0,-0.037014772727272736,-0.0023412371939013584,-1.3872367916363523e-06,1.6235169407893768e-09,-0.12094087063778548,-7.166031125702138e-05,-6.645082312887074e-11,0.0,-0.00421215508505702,7.141161367759108,29.151203412830828,0.0,0.0,0.0,0.0,0.0,0.20001119927317873,0.0,0.0,0.0007423851708984376,0.0,0.0,0.0,0.0,0.0,0.0
0.05499999999999999,-8.400134258215778e-07,0.001424133561975634,0.20040878233312015,-4.575255964760902e-05,0.07756751706286638,0.16951572524483535,-8.400134258215778e-07,0.001424133561975634,0.00039344883702638334,-4.575255964760902e-05,0.07756751706286638,0.16860151626046035,-0.002985535681721008,-1.7689974499175826e-06,2.6397981742979207e-09,-0.13677852448942965,-8.104449577896525e-05,-1.3248084512628407e-10,0.0,-0.00421215508505702,7.141161367759108,29.151203412830828,0.0,0.0,0.0,0.0,0.0,0.20001533349609377,0.0,0.0,0.0009142089843749998,0.0,0.0,0.0,0.0,0.0,0.0
0.05999999999999999,-1.0687762240596228e-06,0.001811971147289966,0.20125636095934432,-0.002662176243856867,0.08717916271754632,0.2046894832409723,-8.400134258215778e-07,0.001424133561975634,0.00039344883702638334,-4.575255964760902e-05,0.07756751706286638,0.16860151626046035,-0.0037064735384601706,-1.8375996287431602e-05,6.005038827271158e-08,-0.15159661796796872,-0.006561794836220789,-2.4519541136814594e-10,0.0,-6.895573442548513,5.394667064130306,16.95673477292061,0.0,0.0,0.0,0.0,0.0,0.20002037029859865,0.0,0.0,0.0011033941552734373,0.0,0.0,0.0,0.0,0.0,0.0
0.06499999999999999,-1.437965744334396e-05,0.0022478669608776976,0.20227980837554918,-0.007236400698237028,0.09634156821319861,0.23707197646456862,-8.400134258215778e-07,0.001424133561975634,0.00039344883702638334,-4.575255964760902e-05,0.07756751706286638,0.16860151626046035,-0.004499037539268355,-7.931814166921321e-05,3.134425063929433e-07,-0.1654289773042522,-0.017815274633851855,-1.7902142499696885e-09,0.0,-6.895573442548513,5.394667064130306,16.95673477292061,0.0,0.0,0.0,0.0,0.0,0.200026396145,0.0,0.0,0.0013098037499999998,0.0,0.0,0.0,0.0,0.0,0.0
0.06999999999999999,-5.05616609345291e-05,0.0027295748019436905,0.20346516825787203,-0.013278975730245366,0.10516704358958018,0.2673607590654557,-8.400134258215778e-07,0.001424133561975634,0.00039344883702638334,-4.575255964760902e-05,0.07756751706286638,0.16860151626046035,-0.0053583860098519375,-0.00020511503209828688,9.380176242229878e-07,-0.17831037494126697,-0.032504103245829086,-1.056822043241228e-08,0.0,-6.895573442548513,5.394667064130306,16.95673477292061,0.0,0.0,0.0,0.0,0.0,0.20003349681581545,0.0,0.0,0.0015333011865234373,0.0,0.0,0.0,0.0,0.0,0.0
0.075,-0.00011695653958575594,0.0032554100198915912,0.2048019720531993,-0.020422813695474835,0.11373982137650869,0.2960789760747181,-8.400134258215778e-07,0.001424133561975634,0.00039344883702638334,-4.575255964760902e-05,0.07756751706286638,0.16860151626046035,-0.0062798524815375146,-0.000410317046272578,2.1375324126108604e-06,-0.1902760647886778,-0.04957810764218067,-3.9910603772037644e-08,0.0,-6.895573442548513,5.394667064130306,16.95673477292061,0.0,0.0,0.0,0.0,0.0,0.20004175740953126,0.0,0.0,0.0017737502343749994,0.0,0.0,0.0,0.0,0.0,0.0
0.08,-0.00021907060806313012,0.0038241091267741346,0.2062823669335729,-0.028392598860620157,0.12212307597134742,0.32361896574285853,-8.400134258215778e-07,0.001424133561975634,0.00039344883702638334,-4.575255964760902e-05,0.07756751706286638,0.16860151626046035,-0.0072589473143263,-0.0007047939254935858,4.136854142737659e-06,-0.2013614195974272,-0.06821536351662794,-1.1364888156116452e-07,0.0,-6.895573442548513,5.394667064130306,16.95673477292061,0.0,0.0,0.0,0.0,0.0,0.20005126234436035,0.0,0.0,0.0020310150146484376,0.0,0.0,0.0,0.0,0.0,0.0
0.085,-0.0003610336023662309,0.004434724506630872,0.20790046176228721,-0.03698184442570236,0.1303641881721188,0.3502749612937927,-8.400134258215778e-07,0.001424133561975634,0.00039344883702638334,-4.575255964760902e-05,0.07756751706286638,0.16860151626046035,-0.008291357733601288,-0.001094758617750186,7.174745685429626e-06,-0.21160164951212532,-0.08777525331408899,-2.6876789518125815e-07,0.0,-6.895573442548513,5.394667064130306,16.95673477292061,0.0,0.0,0.0,0.0,0.0,0.20006209536,0.0,0.0,0.00230496,0.0,0.0,0.0,0.0,0.0,0.0
0.09000000000000001,-0.0005459428244947428,0.005086545447491466,0.2096518365687562,-0.04603568529073723,0.13849869357733968,0.37626761724071534,-8.400134258215778e-07,0.001424133561975634,0.00039344883702638334,-4.575255964760902e-05,0.07756751706286638,0.16860151626046035,-0.00937294663020331,-0.0015835803521666502,1.1497230035566145e-05,-0.2210315851222582,-0.10776109416913376,-5.576235081128058e-07,0.0,-6.895573442548513,5.394667064130306,16.95673477292061,0.0,0.0,0.0,0.0,0.0,0.20007433951938966,0.0,0.0,0.0025954500146484383,0.0,0.0,0.0,0.0,0.0,0.0
0.09500000000000001,-0.000776121250948429,0.005779038915378165,0.21153317465495977,-0.055437972630736604,0.1465532438858977,0.401762404123367,-8.400134258215778e-07,0.001424133561975634,0.00039344883702638334,-4.575255964760902e-05,0.07756751706286638,0.16860151626046035,-0.010499750399462488,-0.0021724299218704693,1.735170967046118e-05,-0.22968551172917298,-0.1277903869935344,-1.0496531293253149e-06,0.0,-6.895573442548513,5.394667064130306,16.95673477292061,0.0,0.0,0.0,0.0,0.0,0.20008807721046876,0.0,0.0,0.002902350234375001,0.0,0.0,0.0,0.0,0.0,0.0
0.10000000000000002,-0.001053311114102112,0.006511805134807654,0.2135419866755766,-0.06510159482695935,0.15454782787195853,0.42688340456135,-8.400134258215778e-07,0.001424133561975634,0.00039344883702638334,-4.575255964760902e-05,0.07756751706286638,0.16860151626046035,-0.011667976037400465,-0.0028607914006089333,2.4981904148967803e-05,-0.2375970442510327,-0.14757113474538916,-1.832547979298203e-06,0.0,-6.895573442548513,5.394667064130306,16.95673477292061,0.0,0.0,0.0,0.0,0.0,0.20010339014793457,0.0,0.0,0.0032255261865234384,0.0,0.0,0.0,0.0,0.0,0.0
0.10500000000000002,-0.0013788190882369088,0.007284544274167446,0.21567640369838337,-0.07496121816534962,0.1624974371161465,0.4517236602944786,-0.0013788190882369088,0.007284544274167446,0.015556044323383367,-0.07496121816534962,0.1624974371161465,0.4481588165444786,-0.012873997667723094,-0.0036468675479809478,3.4623600315209994e-05,-0.2447990343430492,-0.16688299391373734,-3.012888282217913e-06,0.0,-6.895573442548513,5.394667064130306,16.95673477292061,0.0,0.0,0.0,0.0,0.0,0.200120359375,0.0,0.0,0.003564843750000001,0.0,0.0,0.0,0.0,0.0,0.0
0.11000000000000003,-0.0017536251790636569,0.008097031459748178,0.21793502199985576,-0.08441496411908805,0.16778951437039766,0.4630373691954031,-0.0013788190882369088,0.007284544274167446,0.015556044323383367,-0.07496121816534962,0.1624974371161465,0.4481588165444786,-0.014088148927380442,-0.004556663877381754,4.6886924604783156e-05,-0.24084131605028009,-0.19706861744690327,-4.716266630109446e-06,0.0,-5.664855219617485,-1.259796408098191,-17.312192567288875,0.0,0.0,0.0,0.0,0.0,0.20013906526515138,0.0,0.0,0.00392016915527344,0.0,0.0,0.0,0.0,0.0,0.0
0.11500000000000003,-0.0021756999996590974,0.008935979031600167,0.22025020884583277,-0.0935643020343376,0.1710884426321962,0.46420572283343847,-0.0013788190882369088,0.007284544274167446,0.015556044323383367,-0.07496121816534962,0.1624974371161465,0.4481588165444786,-0.015261597630878808,-0.005636694610192826,6.273214121911177e-05,-0.22850581753976265,-0.234990189168298,-7.096336526525489e-06,0.0,-5.664855219617485,-1.259796408098191,-17.312192567288875,0.0,0.0,0.0,0.0,0.0,0.20015958752390625,0.0,0.0,0.004291368984375003,0.0,0.0,0.0,0.0,0.0,0.0
0.12000000000000004,-0.0026435215098307855,0.009791421244761149,0.22257123745999996,-0.1024853339207205,0.1728925091496553,0.4577645948437919,-0.0013788190882369088,0.007284544274167446,0.015556044323383367,-0.07496121816534962,0.1624974371161465,0.4481588165444786,-0.01635796094956358,-0.006919477734362092,8.300075932264632e-05,-0.20998855233624916,-0.2781871294212181,-1.0349891952351265e-05,0.0,-5.664855219617485,-1.259796408098191,-17.312192567288875,0.0,0.0,0.0,0.0,0.0,0.2001820051905713,0.0,0.0,0.00467831017089844,0.0,0.0,0.0,0.0,0.0,0.0
0.12500000000000003,-0.003155948179434388,0.010655883790509425,0.2248600604342189,-0.1112351362854534,0.17357542935885978,0.4456158704728401,-0.0013788190882369088,0.007284544274167446,0.015556044323383367,-0.07496121816534962,0.1624974371161465,0.4481588165444786,-0.01735067599423528,-0.008426574275864402,0.00010837597960540732,-0.1870195115482423,-0.32473694872229303,-1.4724924650470039e-05,0.0,-5.664855219617485,-1.259796408098191,-17.312192567288875,0.0,0.0,0.0,0.0,0.0,0.20020639664,0.0,0.0,0.005080860000000003,0.0,0.0,0.0,0.0,0.0,0.0
0.13000000000000003,-0.003712123860861655,0.011523760937303723,0.2270881397865831,-0.1198565165089488,0.17341748983687333,0.42918594373744046,-0.0013788190882369088,0.007284544274167446,0.015556044323383367,-0.07496121816534962,0.1624974371161465,0.4481588165444786,-0.01822090837437487,-0.010171002731102554,0.00013935499469119568,-0.16095813045250765,-0.37314446559714276,-2.0522380491362468e-05,0.0,-5.664855219617485,-1.259796408098191,-17.312192567288875,0.0,0.0,0.0,0.0,0.0,0.2002328395843506,0.0,0.0,0.005498886108398441,0.0,0.0,0.0,0.0,0.0,0.0
0.13500000000000004,-0.004311406443406399,0.012390848386488091,0.2292340695052703,-0.12838158012651607,0.17262890551649365,0.40954459029476564,-0.0013788190882369088,0.007284544274167446,0.015556044323383367,-0.07496121816534962,0.1624974371161465,0.4481588165444786,-0.018955888945751474,-0.01215915590245786,0.00017623488013310203,-0.13286930302003247,-0.4222536126755212,-2.809249846398621e-05,0.0,-5.664855219617485,-1.259796408098191,-17.312192567288875,0.0,0.0,0.0,0.0,0.0,0.20026141107484377,0.0,0.0,0.005932256484375003,0.0,0.0,0.0,0.0,0.0,0.0
0.14000000000000004,-0.004953314344038979,0.01325399291407056,0.23128179245674413,-0.13683440628963728,0.1713673375973191,0.38749412209502987,-0.0013788190882369088,0.007284544274167446,0.015556044323383367,-0.07496121816534962,0.1624974371161465,0.4481588165444786,-0.019547591386830983,-0.014392321498000217,0.00021911076887540904,-0.10358390529224781,-0.4711772311848682,-3.782677230059262e-05,0.0,-5.664855219617485,-1.259796408098191,-17.312192567288875,0.0,0.0,0.0,0.0,0.0,0.2002921875035205,0.0,0.0,0.006380839467773441,0.0,0.0,0.0,0.0,0.0,0.0
0.14500000000000005,-0.005637486375487165,0.014110829602057156,0.23321926306721927,-0.1452330543619239,0.16975103197904834,0.3636362533713805,-0.0013788190882369088,0.007284544274167446,0.015556044323383367,-0.07496121816534962,0.1624974371161465,0.4481588165444786,-0.019991681103966784,-0.016867887249050403,0.00026788381723654505,-0.07374698203901638,-0.5192411905846271,-5.0146651459599194e-05,0.0,-5.664855219617485,-1.259796408098191,-17.312192567288875,0.0,0.0,0.0,0.0,0.0,0.200325244605,0.0,0.0,0.006844503750000003,0.0,0.0,0.0,0.0,0.0,0.0
0.15000000000000005,-0.006363651647296785,0.014959584761952398,0.23503744433407617,-0.15359106886608462,0.16786867308645545,0.3384222501326627,-0.0013788190882369088,0.007284544274167446,0.015556044323383367,-0.07496121816534962,0.1624974371161465,0.4481588165444786,-0.02028668017658822,-0.019580294885725387,0.0003222762531868756,-0.043856108862049145,-0.5659399159845572,-6.549008556107553e-05,0.0,-5.664855219617485,-1.259796408098191,-17.312192567288875,0.0,0.0,0.0,0.0,0.0,0.2003606574582373,0.0,0.0,0.007323118374023441,0.0,0.0,0.0,0.0,0.0,0.0
0.15500000000000005,-0.007131606991627209,0.015798928127384676,0.2367295555847395,-0.16191860819415088,0.16578677423812097,0.3121905422833363,-0.007131606991627209,0.015798928127384676,0.03633105509645823,-0.16191860819415088,0.16578677423812097,0.30437398954896133,-0.0204333043555778,-0.022521794233699127,0.00038185104022536113,-0.01429193041130207,-0.6109010000166633,-8.429693151773176e-05,0.0,-5.664855219617485,-1.259796408098191,-17.312192567288875,0.0,0.0,0.0,0.0,0.0,0.20039850048828126,0.0,0.0,0.007816552734375006,0.0,0.0,0.0,0.0,0.0,0.0
0.16000000000000006,-0.007941200032597963,0.016627861998575282,0.23829050829615617,-0.1667832109137597,0.16229811580043524,0.2864644297232157,-0.007131606991627209,0.015798928127384676,0.03633105509645823,-0.16191860819415088,0.16578677423812097,0.30437398954896133,-0.02041457222846915,-0.025613115927572233,0.00044458373923239017,0.022388621697545345,-0.6258821008951773,-0.00010699411019117805,0.0,3.1388260442465543,-4.543141448691487,-14.329749910980462,0.0,0.0,0.0,0.0,0.0,0.20043884746803223,0.0,0.0,0.008324676577148443,0.0,0.0,0.0,0.0,0.0,0.0
0.16500000000000006,-0.008775116087166761,0.01743935257757746,0.23972283044477224,-0.16905061117702544,0.1577543876707361,0.26111687089423247,-0.007131606991627209,0.015798928127384676,0.03633105509645823,-0.16191860819415088,0.16578677423812097,0.30437398954896133,-0.020200446035906934,-0.02872228636679576,0.0005072070966695523,0.06394220989024427,-0.6180381135295312,-0.0001339459189953842,0.0,3.1388260442465543,-4.543141448691487,-14.329749910980462,0.0,0.0,0.0,0.0,0.0,0.20048177152000002,0.0,0.0,0.008847360000000007,0.0,0.0,0.0,0.0,0.0,0.0
0.17000000000000007,-0.009620369143051888,0.01822812451593114,0.24102841479924342,-0.1693701095980339,0.1524193572720269,0.23605256521922713,-0.007131606991627209,0.015798928127384676,0.03633105509645823,-0.16191860819415088,0.16578677423812097,0.30437398954896133,-0.0197708623575506,-0.03174936041986766,0.0005670529203940155,0.10861478589819958,-0.5930278831324443,-0.00016538701279002554,0.0,3.1388260442465543,-4.543141448691487,-14.329749910980462,0.0,0.0,0.0,0.0,0.0,0.20052734511806153,0.0,0.0,0.009384473452148446,0.0,0.0,0.0,0.0,0.0,0.0
0.17500000000000007,-0.010467219691042057,0.018990221302291273,0.24220867762533954,-0.16822868163734936,0.14649085017156016,0.21120001792191725,-0.007131606991627209,0.015798928127384676,0.03633105509645823,-0.16191860819415088,0.16578677423812097,0.30437398954896133,-0.019113547129167033,-0.034619703994201556,0.0006220448107602177,0.15504091128510855,-0.5553199866867762,-0.00020138780720496815,0.0,3.1388260442465543,-4.543141448691487,-14.329749910980462,0.0,0.0,0.0,0.0,0.0,0.20057564008921877,0.0,0.0,0.009935887734375008,0.0,0.0,0.0,0.0,0.0,0.0
0.18000000000000008,-0.011308363099228804,0.019722675553149074,0.24326467771494914,-0.1659915588903951,0.14011723554477526,0.18650558864220762,-0.007131606991627209,0.015798928127384676,0.03633105509645823,-0.16191860819415088,0.16578677423812097,0.30437398954896133,-0.0182222832650417,-0.03727865042440697,0.0006706803727079406,0.20216360375727843,-0.5084362270726439,-0.0002418443272192402,0.0,3.1388260442465543,-4.543141448691487,-14.329749910980462,0.0,0.0,0.0,0.0,0.0,0.20062672761535646,0.0,0.0,0.010501473999023446,0.0,0.0,0.0,0.0,0.0,0.0
0.18500000000000008,-0.01213832089368078,0.02042326173087295,0.24419720565816017,-0.16293266505373855,0.13340979027325173,0.16192902789800429,-0.007131606991627209,0.015798928127384676,0.03633105509645823,-0.16191860819415088,0.16578677423812097,0.30437398954896133,-0.01709553700506765,-0.03968725109092644,0.0007119998551074347,0.24917052990401173,-0.45514552277936804,-0.000286486051151194,0.0,3.1388260442465543,-4.543141448691487,-14.329749910980462,0.0,0.0,0.0,0.0,0.0,0.20068067823500002,0.0,0.0,0.011081103750000008,0.0,0.0,0.0,0.0,0.0,0.0
0.19000000000000009,-0.012952984218949472,0.02109031068223921,0.2450068507976502,-0.15925744289980526,0.12645197201817424,0.13744012943190473,-0.007131606991627209,0.015798928127384676,0.03633105509645823,-0.16191860819415088,0.16578677423812097,0.30437398954896133,-0.015735368645653426,-0.04181889747478526,0.0007455428673346062,0.2954432159814754,-0.3976182937025173,-0.0003348964268035156,0.0,3.1388260442465543,-4.543141448691487,-14.329749910980462,0.0,0.0,0.0,0.0,0.0,0.20073756184507324,0.0,0.0,0.011674648842773448,0.0,0.0,0.0,0.0,0.0,0.0
0.1950000000000001,-0.013749271433448498,0.02172257054233008,0.2456940514448097,-0.15511997450791443,0.11930637402543126,0.113016219471543,-0.007131606991627209,0.015798928127384676,0.03633105509645823,-0.16191860819415088,0.16578677423812097,0.30437398954896133,-0.01414656883653793,-0.043656637120554,0.0007712965562156764,0.34051662599415117,-0.3375493869092514,-0.0003865416673454592,0.0,3.1388260442465543,-4.543141448691487,-14.329749910980462,0.0,0.0,0.0,0.0,0.0,0.20079744770265626,0.0,0.0,0.012281981484375013,0.0,0.0,0.0,0.0,0.0,0.0
0.2000000000000001,-0.01452487130598807,0.022319102412457235,0.24625913254216744,-0.15063582143755544,0.11201994122943917,0.0886402736751743,-0.007131606991627209,0.015798928127384676,0.03633105509645823,-0.16191860819415088,0.16578677423812097,0.30437398954896133,-0.01233597392466387,-0.04519104206026066,0.0007896388648995628,0.3840469959578098,-0.2762559483891292,-0.0004408042527509508,0.0,3.1388260442465543,-4.543141448691487,-14.329749910980462,0.0,0.0,0.0,0.0,0.0,0.2008604044267432,0.0,0.0,0.01290297423339845,0.0,0.0,0.0,0.0,0.0,0.0
0.2050000000000001,-0.015278050413175847,0.02287920211860443,0.2467023339105433,-0.14589165485834532,0.10462788233101027,0.06429950484118689,-0.015278050413175847,0.02287920211860443,0.045775833910543295,-0.14589165485834532,0.10462788233101027,0.05076200484118688,-0.010311923549230887,-0.04641851701021541,0.0008012800589686055,0.42578624296966916,-0.21475534243375782,-0.0004970182951914823,0.0,3.1388260442465543,-4.543141448691487,-14.329749910980462,0.0,0.0,0.0,0.0,0.0,0.2009265,0.0,0.0,0.013537500000000015,0.0,0.0,0.0,0.0,0.0,0.0
0.2100000000000001,-0.016007508687467573,0.023402341530259482,0.24702383143474924,-0.14265709008878139,0.09781905229341849,0.04453282873549913,-0.015278050413175847,0.02287920211860443,0.045775833910543295,-0.14589165485834532,0.10462788233101027,0.05076200484118688,-0.008104061571538833,-0.04736835124501937,0.0008074624021187095,0.45747438422751396,-0.16518510539941858,-0.0005545045782265132,0.0,-1.3377079510018228,-2.956513427004218,-3.054145410016179,0.0,0.0,0.0,0.0,0.0,0.20099580177052248,0.0,0.0,0.014185432045898453,0.0,0.0,0.0,0.0,0.0,0.0
0.2150000000000001,-0.016720794137911478,0.023891436791726575,0.24724649557842673,-0.1405547266764521,0.09144764390145455,0.028195888327602524,-0.015278050413175847,0.02287920211860443,0.045775833910543295,-0.14589165485834532,0.10462788233101027,0.05076200484118688,-0.005757680428813413,-0.048094207889931864,0.0008096241959923344,0.4811192745490313,-0.125156673082679,-0.0006126099164845026,0.0,-1.3377079510018228,-2.956513427004218,-3.054145410016179,0.0,0.0,0.0,0.0,0.0,0.20106837645359377,0.0,0.0,0.014846643984375017,0.0,0.0,0.0,0.0,0.0,0.0
0.2200000000000001,-0.017423567771293738,0.024348675011233847,0.24738747502006475,-0.1393015142820488,0.0854043017437115,0.01443039710273593,-0.015278050413175847,0.02287920211860443,0.045775833910543295,-0.14589165485834532,0.10462788233101027,0.05076200484118688,-0.003309038429873194,-0.0486390233068624,0.0008089217780224609,0.4983239046269633,-0.09276607980483326,-0.0006707412406816531,0.0,-1.3377079510018228,-2.956513427004218,-3.054145410016179,0.0,0.0,0.0,0.0,0.0,0.2011442901334424,0.0,0.0,0.015521009780273452,0.0,0.0,0.0,0.0,0.0,0.0
0.22500000000000012,-0.018120075342703983,0.024775696519952404,0.24745962700557844,-0.13868516515108997,0.07960700926163411,0.002592621501390391,-0.015278050413175847,0.02287920211860443,0.045775833910543295,-0.14589165485834532,0.10462788233101027,0.05076200484118688,-0.0007871773327561911,-0.049037182924820205,0.000806265868750363,0.5103686485887198,-0.06649534675126527,-0.0007283837935636304,0.0,-1.3377079510018228,-2.956513427004218,-3.054145410016179,0.0,0.0,0.0,0.0,0.0,0.20122360826500002,0.0,0.0,0.016208403750000013,0.0,0.0,0.0,0.0,0.0,0.0
0.23000000000000012,-0.018813501168459434,0.025173731566260574,0.2474725901130854,-0.13854646346771451,0.07399425403630597,-0.007800257250748658,-0.015278050413175847,0.02287920211860443,0.045775833910543295,-0.14589165485834532,0.10462788233101027,0.05076200484118688,0.0017846281496358175,-0.04931625406103775,0.0008023620486058224,0.5182767711549954,-0.04513394731172633,-0.0007851081340209224,0.0,-1.3377079510018228,-2.956513427004218,-3.054145410016179,0.0,0.0,0.0,0.0,0.0,0.2013063956756592,0.0,0.0,0.016908700561523455,0.0,0.0,0.0,0.0,0.0,0.0
0.23500000000000013,-0.019506233485798007,0.025543702836442105,0.24743358882683164,-0.1387659973700266,0.06851990175353977,-0.017110371770033096,-0.015278050413175847,0.02287920211860443,0.045775833910543295,-0.14589165485834532,0.10462788233101027,0.05076200484118688,0.004387714408520142,-0.04949836606930998,0.0007977494147898434,0.5228666028090014,-0.027716261486179238,-0.0008405696697882509,0.0,-1.3377079510018228,-2.956513427004218,-3.054145410016179,0.0,0.0,0.0,0.0,0.0,0.20139271656703125,0.0,0.0,0.01762177523437502,0.0,0.0,0.0,0.0,0.0,0.0
0.24000000000000013,-0.02020006347264814,0.025886302345209805,0.24734803696798147,-0.13925420796160431,0.06314935167769502,-0.025609339984966284,-0.015278050413175847,0.02287920211860443,0.045775833910543295,-0.14589165485834532,0.10462788233101027,0.05076200484118688,0.007007107090747919,-0.04960130969776597,0.0007928347402598951,0.524793097425524,-0.013471763798818056,-0.0008945035295978195,0.0,-1.3377079510018228,-2.956513427004218,-3.054145410016179,0.0,0.0,0.0,0.0,0.0,0.20148263451670412,0.0,0.0,0.018347503139648457,0.0,0.0,0.0,0.0,0.0,0.0
0.24500000000000013,-0.020896334512456163,0.02620204910359828,0.24721999026805663,-0.13994392607013126,0.057856653257041354,-0.03350089373848109,-0.015278050413175847,0.02287920211860443,0.045775833910543295,-0.14589165485834532,0.10462788233101027,0.05076200484118688,0.00963078588252605,-0.04963941286390662,0.0007879212697022274,0.5245809341264144,-0.0017853520488514234,-0.0009467168140304655,0.0,-1.3377079510018228,-2.956513427004218,-3.054145410016179,0.0,0.0,0.0,0.0,0.0,0.20157621248000002,0.0,0.0,0.01908576000000002,0.0,0.0,0.0,0.0,0.0,0.0
0.2500000000000001,-0.02159605414280682,0.026491332369883488,0.24705248579936423,-0.1407847748163701,0.052622343577781006,-0.04093785023934278,-0.015278050413175847,0.02287920211860443,0.045775833910543295,-0.14589165485834532,0.10462788233101027,0.05076200484118688,0.012249098061986916,-0.049624238383736786,0.0007832322360619278,0.52265088496767,0.007834247865983315,-0.0009970796468896164,0.0,-1.3377079510018228,-2.956513427004218,-3.054145410016179,0.0,0.0,0.0,0.0,0.0,0.2016735127917334,0.0,0.0,0.01983642188964846,0.0,0.0,0.0,0.0,0.0,0.0
0.2550000000000001,-0.02229997801688867,0.026754444087772392,0.24684779654816752,-0.1417389715408929,0.047431825454565646,-0.04803484065039753,-0.02229997801688867,0.026754444087772392,0.04507319938019877,-0.1417389715408929,0.047431825454565646,-0.06863420588477255,0.014854290622900295,-0.049565139907222916,0.0007789296289181335,0.519340819517811,0.01577964540276023,-0.0010455159755745843,0.0,-1.3377079510018228,-2.956513427004218,-3.054145410016179,0.0,0.0,0.0,0.0,0.0,0.20177459716796875,0.0,0.0,0.02059936523437502,0.0,0.0,0.0,0.0,0.0,0.0
0.2600000000000001,-0.023008672874593135,0.02699160321504522,0.24660762234491554,-0.14348133566799692,0.04277928978313653,-0.053104619375402506,-0.02229997801688867,0.026754444087772392,0.04507319938019877,-0.1417389715408929,0.047431825454565646,-0.06863420588477255,0.017433676924793418,-0.04947560067583866,0.0007750308270952931,0.5123365048796277,0.02000620676444074,-0.001091994718619172,0.0,-3.202648629672825,-1.7829094799794256,1.2669041409194468,0.0,0.0,0.0,0.0,0.0,0.20187952670777834,0.0,0.0,0.021374466811523454,0.0,0.0,0.0,0.0,0.0,0.0
0.2650000000000001,-0.02372607955293312,0.027205499663960905,0.24634209924803852,-0.14581482534703688,0.03853024095054711,-0.056655007486012994,-0.02229997801688867,0.026754444087772392,0.04507319938019877,-0.1417389715408929,0.047431825454565646,-0.06863420588477255,0.019971036061166972,-0.04937203859469669,0.0007713930876318661,0.5025352629181802,0.02138417694356256,-0.0011365192187483665,0.0,-3.202648629672825,-1.7829094799794256,1.2669041409194468,0.0,0.0,0.0,0.0,0.0,0.20198836189500002,0.0,0.0,0.022161603750000022,0.0,0.0,0.0,0.0,0.0,0.0
0.27000000000000013,-0.024455153679668305,0.02739815086871364,0.24605882421060846,-0.14859165919002876,0.03458380724708745,-0.05906688882956088,-0.02229997801688867,0.026754444087772392,0.04507319938019877,-0.1417389715408929,0.047431825454565646,-0.06863420588477255,0.022454169825489347,-0.0492669733331905,0.0007678271173258304,0.49064792314593053,0.020602230650885827,-0.0011791151364429551,0.0,-3.202648629672825,-1.7829094799794256,1.2669041409194468,0.0,0.0,0.0,0.0,0.0,0.20210116259999514,0.0,0.0,0.02296065353027346,0.0,0.0,0.0,0.0,0.0,0.0
0.27500000000000013,-0.02519811197561845,0.027571069904949078,0.24576348976646065,-0.1517010011559846,0.030864334890475114,-0.060625944263647626,-0.02229997801688867,0.026754444087772392,0.04507319938019877,-0.1417389715408929,0.047431825454565646,-0.06863420588477255,0.024874064130682084,-0.049169841466044556,0.0007641207061024592,0.4772368597019883,0.018204577332196603,-0.0012198200423016782,0.0,-3.202648629672825,-1.7829094799794256,1.2669041409194468,0.0,0.0,0.0,0.0,0.0,0.20221798808140626,0.0,0.0,0.02377149398437502,0.0,0.0,0.0,0.0,0.0,0.0
0.28000000000000014,-0.025956616981398374,0.027725391579401452,0.2454603600451424,-0.1550597242141634,0.027315083543998274,-0.061546452331795364,-0.02229997801688867,0.026754444087772392,0.04507319938019877,-0.1417389715408929,0.047431825454565646,-0.06863420588477255,0.02722422159656013,-0.049087645069560704,0.0007600560781481898,0.46274628369003673,0.014620507896489426,-0.0012586749482224116,0.0,-3.202648629672825,-1.7829094799794256,1.2669041409194468,0.0,0.0,0.0,0.0,0.0,0.20233889698791505,0.0,0.0,0.024594003295898458,0.0,0.0,0.0,0.0,0.0,0.0
0.28500000000000014,-0.02673191560246919,0.027861966997121443,0.24515262778348343,-0.15860548309150943,0.02389349795512305,-0.06198913976989361,-0.02229997801688867,0.026754444087772392,0.04507319938019877,-0.1417389715408929,0.047431825454565646,-0.06863420588477255,0.029500130458406642,-0.049025467676443044,0.0007554221015019754,0.4475263677672422,0.010187922160258114,-0.0012957177879930502,0.0,-3.202648629672825,-1.7829094799794256,1.2669041409194468,0.0,0.0,0.0,0.0,0.0,0.20246394736,0.0,0.0,0.025428060000000027,0.0,0.0,0.0,0.0,0.0,0.0
0.29000000000000015,-0.02752494301792674,0.027981434486897057,0.24484268208463397,-0.16229151883323087,0.020567661684449044,-0.06207456938574462,-0.02229997801688867,0.026754444087772392,0.04507319938019877,-0.1417389715408929,0.047431825454565646,-0.06863420588477255,0.031698842032673924,-0.048986884591881316,0.0007500224487485093,0.43185245878280865,0.0051720626572654875,-0.0013309787134233608,0.0,-3.202648629672825,-1.7829094799794256,1.2669041409194468,0.0,0.0,0.0,0.0,0.0,0.20259319663169434,0.0,0.0,0.026273542983398457,0.0,0.0,0.0,0.0,0.0,0.0
0.29500000000000015,-0.028336400612092895,0.0280842727953193,0.24453230923770525,-0.16608276222323387,0.017313637402425947,-0.06189318096843476,-0.02229997801688867,0.026754444087772392,0.04507319938019877,-0.1417389715408929,0.047431825454565646,-0.06863420588477255,0.03381863462381439,-0.04897428907892448,0.00074368066654409,0.4159403785550644,-0.00021956909078556502,-0.0013644769915069528,0.0,-3.202648629672825,-1.7829094799794256,1.2669041409194468,0.0,0.0,0.0,0.0,0.0,0.20272670163234377,0.0,0.0,0.027130331484375027,0.0,0.0,0.0,0.0,0.0,0.0
0.30000000000000016,-0.029166814423209064,0.02817084098233143,0.24422284333286307,-0.16995291134944804,0.014113472111891033,-0.06151282197007747,-0.02229997801688867,0.026754444087772392,0.04507319938019877,-0.1417389715408929,0.047431825454565646,-0.06863420588477255,0.03585874625815271,-0.04898915154531239,0.0007362429496844056,0.3999586092364078,-0.005825336490341282,-0.0013962192527458748,0.0,-3.202648629672825,-1.7829094799794256,1.2669041409194468,0.0,0.0,0.0,0.0,0.0,0.20286451858836427,0.0,0.0,0.027998305092773464,0.0,0.0,0.0,0.0,0.0,0.0
0.30500000000000016,-0.030016578979956306,0.028241408342890885,0.24391527922301268,-0.1738822397778206,0.010953701064972256,-0.06098439551683671,-0.030016578979956306,0.028241408342890885,0.040908576098012656,-0.1738822397778206,0.010953701064972256,-0.08986173926683674,0.03781916221785684,-0.0490322253786137,0.0007275792569365657,0.38403799754309986,-0.011520012904157172,-0.0014261988357481667,0.0,-3.202648629672825,-1.7829094799794256,1.2669041409194468,0.0,0.0,0.0,0.0,0.0,0.20300670312500002,0.0,0.0,0.02887734375000003,0.0,0.0,0.0,0.0,0.0,0.0
0.31000000000000016,-0.03088599017884541,0.028296176848215747,0.24361035724542848,-0.17578663280663523,0.007578810219321757,-0.06007965333299092,-0.030016578979956306,0.028241408342890885,0.040908576098012656,-0.1738822397778206,0.010953701064972256,-0.08986173926683674,0.03970243963354598,-0.04908510505088612,0.000718311572626869,0.369091176665058,-0.009759471056336412,-0.0014543959871304024,0.0,2.140776235833764,-2.535779831394553,1.8941374124810098,0.0,0.0,0.0,0.0,0.0,0.20315331026808106,0.0,0.0,0.029767327749023464,0.0,0.0,0.0,0.0,0.0,0.0
0.31500000000000017,-0.03176492334287859,0.028334070899312357,0.24330995897876354,-0.1761723242857814,0.004042579524622465,-0.05889386968546756,-0.030016578979956306,0.028241408342890885,0.040908576098012656,-0.1738822397778206,0.010953701064972256,-0.08986173926683674,0.04151304434376536,-0.04911524196721239,0.0007097380982960484,0.3549823899792233,-0.0024244302566672014,-0.0014807964382160413,0.0,2.140776235833764,-2.535779831394553,1.8941374124810098,0.0,0.0,0.0,0.0,0.0,0.20330439444578127,0.0,0.0,0.03066813773437503,0.0,0.0,0.0,0.0,0.0,0.0
0.3200000000000002,-0.03264578496430749,0.02835428379693547,0.2430154896303362,-0.17541898960267618,0.00038534394313657905,-0.057498517590200075,-0.030016578979956306,0.028241408342890885,0.040908576098012656,-0.1738822397778206,0.010953701064972256,-0.08986173926683674,0.043254838014978175,-0.04909849720888125,0.000702976216049552,0.34160230821841436,0.00900183814237367,-0.0015054217670736694,0.0,2.140776235833764,-2.535779831394553,1.8941374124810098,0.0,0.0,0.0,0.0,0.0,0.203460009490376,0.0,0.0,0.03157965470214847,0.0,0.0,0.0,0.0,0.0,0.0
0.3250000000000002,-0.03352287991232087,0.028356210516651152,0.2427279970423852,-0.17381138529788248,-0.0033626453034392534,-0.055947219050542084,-0.030016578979956306,0.028241408342890885,0.040908576098012656,-0.1738822397778206,0.010953701064972256,-0.08986173926683674,0.044931196883245164,-0.049017357036530824,0.0006989700925095411,0.328862655655926,0.023352126236525945,-0.0015283474730572583,0.0,2.140776235833764,-2.535779831394553,1.8941374124810098,0.0,0.0,0.0,0.0,0.0,0.20362020864000002,0.0,0.0,0.03250176000000004,0.0,0.0,0.0,0.0,0.0,0.0
0.3300000000000002,-0.03439193683881028,0.028339397290133957,0.2424482609471325,-0.1715630787768224,-0.0071786997988325454,-0.05428020773580434,-0.030016578979956306,0.028241408342890885,0.040908576098012656,-0.1738822397778206,0.010953701064972256,-0.08986173926683674,0.04654510622488668,-0.048859514066602244,0.000698502625547691,0.31669193083731784,0.039710487302201725,-0.0015497118629394257,0.0,2.140776235833764,-2.535779831394553,1.8941374124810098,0.0,0.0,0.0,0.0,0.0,0.2037850445404053,0.0,0.0,0.03343433532714848,0.0,0.0,0.0,0.0,0.0,0.0
0.3350000000000002,-0.035249752232694394,0.028303503791139793,0.2421768599084535,-0.16883424559356253,-0.011045803230838931,-0.0525276759898858,-0.030016578979956306,0.028241408342890885,0.040908576098012656,-0.1738822397778206,0.010953701064972256,-0.08986173926683674,0.04809923546436841,-0.04861673960857108,0.0007022095344600609,0.30503199899457695,0.057360639209840115,-0.001569718258007288,0.0,2.140776235833764,-2.535779831394553,1.8941374124810098,0.0,0.0,0.0,0.0,0.0,0.20395456924671876,0.0,0.0,0.03437726273437504,0.0,0.0,0.0,0.0,0.0,0.0
0.3400000000000002,-0.03609392346066221,0.0282482747749856,0.24191422152850406,-0.1657450174136528,-0.014951193365305138,-0.05071228508747727,-0.030016578979956306,0.028241408342890885,0.040908576098012656,-0.1738822397778206,0.010953701064972256,-0.08986173926683674,0.04959599784509115,-0.048283987821255696,0.0007105941764882862,0.29383537865627357,0.0757448844754883,-0.0015886325140604736,0.0,2.140776235833764,-2.535779831394553,1.8941374124810098,0.0,0.0,0.0,0.0,0.0,0.2041288342252002,0.0,0.0,0.03533042462402348,0.0,0.0,0.0,0.0,0.0,0.0
0.3450000000000002,-0.036922648547730474,0.028173518808159076,0.24166066010306667,-0.1623854929862557,-0.01888529852661621,-0.04885104792594645,-0.030016578979956306,0.028241408342890885,0.040908576098012656,-0.1738822397778206,0.010953701064972256,-0.08986173926683674,0.05103759780251346,-0.04785868442937062,0.0007240422028907727,0.28306308110592526,0.09443140543730748,-0.0016067774065235583,0.0,2.140776235833764,-2.535779831394553,1.8941374124810098,0.0,0.0,0.0,0.0,0.0,0.20430789035500002,0.0,0.0,0.03629370375000004,0.0,0.0,0.0,0.0,0.0,0.0
0.3500000000000002,-0.03773457601266175,0.028079092315525994,0.24141640486343693,-0.15882324637324308,-0.022840939958060934,-0.04695674104398606,-0.030016578979956306,0.028241408342890885,0.040908576098012656,-0.1738822397778206,0.010953701064972256,-0.08986173926683674,0.05242606854901979,-0.047340162364688375,0.0007428355247919372,0.27268289012149094,0.1130882290880058,-0.0016245250681228738,0.0,2.140776235833764,-2.535779831394553,1.8941374124810098,0.0,0.0,0.0,0.0,0.0,0.204491787929917,0.0,0.0,0.03726698321777347,0.0,0.0,0.0,0.0,0.0,0.0
0.3550000000000002,-0.03852869224452797,0.02796488761573569,0.241181621158217,-0.1551089581210188,-0.026812733592105894,-0.04503896363533627,-0.03852869224452797,0.02796488761573569,0.03650104449806074,-0.1551089581210188,-0.026812733592105894,-0.08328911011971131,0.053763301874969596,-0.04672921436024863,0.0007671652969059189,0.26266799234977894,0.13146250335335885,-0.001642288369867311,0.0,2.140776235833764,-2.535779831394553,1.8941374124810098,0.0,0.0,0.0,0.0,0.0,0.20468057666015627,0.0,0.0,0.03825014648437504,0.0,0.0,0.0,0.0,0.0,0.0
0.3600000000000002,-0.03930423703513306,0.027830823947775158,0.24095642634004033,-0.14951120939599788,-0.030807606304796675,-0.04315487829887774,-0.03852869224452797,0.02796488761573569,0.03650104449806074,-0.1551089581210188,-0.026812733592105894,-0.08328911011971131,0.05505098129473206,-0.04601223688519489,0.0007979923004835922,0.2529753366371515,0.1555739638075075,-0.0016605118987454146,0.0,6.8428529435545205,-2.678856104023754,1.7687739713564514,0.0,0.0,0.0,0.0,0.0,0.20487430567408693,0.0,0.0,0.03924307735839848,0.0,0.0,0.0,0.0,0.0,0.0
0.3650000000000002,-0.040051793082113055,0.027676785916251175,0.24074065194854594,-0.14250086531637948,-0.034819788326471826,-0.04129742713075301,-0.03852869224452797,0.02796488761573569,0.03650104449806074,-0.1551089581210188,-0.026812733592105894,-0.08328911011971131,0.05629062472585868,-0.045165020813723214,0.0008369011320913951,0.24359128058787538,0.18365255530603944,-0.0016796836641696934,0.0,6.8428529435545205,-2.678856104023754,1.7687739713564514,0.0,0.0,0.0,0.0,0.0,0.20507302352,0.0,0.0,0.040245660000000044,0.0,0.0,0.0,0.0,0.0,0.0
0.3700000000000002,-0.04076429740869495,0.027502686974618815,0.24053416481289216,-0.13443107472081298,-0.038844952329885246,-0.03946133326338858,-0.03852869224452797,0.02796488761573569,0.03650104449806074,-0.1551089581210188,-0.026812733592105894,-0.08328911011971131,0.057483710271344385,-0.04417123509160289,0.0008850991942061618,0.23450377974563355,0.21431376909259794,-0.0017003587082359646,0.0,6.8428529435545205,-2.678856104023754,1.7687739713564514,0.0,0.0,0.0,0.0,0.0,0.20527677816786624,0.0,0.0,0.041257778920898484,0.0,0.0,0.0,0.0,0.0,0.0
0.3750000000000002,-0.041436452782299016,0.027308462212969387,0.2403368581465752,-0.12556669923828537,-0.042879852819602375,-0.03764265552944292,-0.03852869224452797,0.02796488761573569,0.03650104449806074,-0.1551089581210188,-0.026812733592105894,-0.08328911011971131,0.058631680948907146,-0.043020697875714296,0.0009434737666274657,0.22570207886484295,0.24647931690906738,-0.0017231670684492656,0.0,6.8428529435545205,-2.678856104023754,1.7687739713564514,0.0,0.0,0.0,0.0,0.0,0.20548561701109377,0.0,0.0,0.04227931898437504,0.0,0.0,0.0,0.0,0.0,0.0
0.3800000000000002,-0.042064286278490445,0.027094062948871376,0.240148644868928,-0.11610638509053696,-0.04692205567404728,-0.0358384544595137,-0.03852869224452797,0.02796488761573569,0.03650104449806074,-0.1551089581210188,-0.026812733592105894,-0.08328911011971131,0.059735948083276126,-0.041708003903221956,0.0010126415768853716,0.21717646504460403,0.27931397777884853,-0.0017488113215511035,0.0,6.8428529435545205,-2.678856104023754,1.7687739713564514,0.0,0.0,0.0,0.0,0.0,0.20569958686828616,0.0,0.0,0.04331016540527349,0.0,0.0,0.0,0.0,0.0,0.0
0.38500000000000023,-0.04264481820394313,0.02685945267050114,0.23996945259663044,-0.10619911694387293,-0.05096973530203802,-0.03404654178016663,-0.03852869224452797,0.02796488761573569,0.03650104449806074,-0.1551089581210188,-0.026812733592105894,-0.08328911011971131,0.060797893598333,-0.0402314354359446,0.0010929916255296248,0.20891807032041032,0.312175324174628,-0.0017780575377281962,0.0,6.8428529435545205,-2.678856104023754,1.7687739713564514,0.0,0.0,0.0,0.0,0.0,0.20591873398500002,0.0,0.0,0.04435020375000005,0.0,0.0,0.0,0.0,0.0,0.0
0.39000000000000024,-0.04317581378866249,0.02660460399399095,0.23979921988772962,-0.0959566332980222,-0.055021522510188145,-0.03226529253720735,-0.03852869224452797,0.02796488761573569,0.03650104449806074,-0.1551089581210188,-0.026812733592105894,-0.08328911011971131,0.061818871438390766,-0.03859209892308852,0.0011847220288214583,0.20091871381212748,0.34457370483503535,-0.001811722410282312,0.0,6.8428529435545205,-2.678856104023754,1.7687739713564514,0.0,0.0,0.0,0.0,0.0,0.20614310403550296,0.0,0.0,0.0453993199365235,0.0,0.0,0.0,0.0,0.0,0.0
0.39500000000000024,-0.0436555969551526,0.02632949638144001,0.23963789342504357,-0.08546273802778144,-0.059076390403457794,-0.030493504187887627,-0.03852869224452797,0.02796488761573569,0.03650104449806074,-0.1551089581210188,-0.026812733592105894,-0.08328911011971131,0.06280020832462958,-0.036793241309768875,0.0012878716104068634,0.19317077552519013,0.3761403955148612,-0.0018506585223484664,0.0,6.8428529435545205,-2.678856104023754,1.7687739713564514,0.0,0.0,0.0,0.0,0.0,0.20637274212453127,0.0,0.0,0.04645740023437505,0.0,0.0,0.0,0.0,0.0,0.0
0.40000000000000024,-0.04408291064529151,0.02603411442942272,0.23948542590410413,-0.07478028403924816,-0.0631335688105671,-0.028730290919814386,-0.03852869224452797,0.02796488761573569,0.03650104449806074,-0.1551089581210188,-0.026812733592105894,-0.08328911011971131,0.06374320402309337,-0.034839709303242664,0.001402346921221445,0.18566709549654645,0.40660225424078145,-0.0018957391104681626,0.0,6.8428529435545205,-2.678856104023754,1.7687739713564514,0.0,0.0,0.0,0.0,0.0,0.20660769278904786,0.0,0.0,0.0475243312646485,0.0,0.0,0.0,0.0,0.0,0.0
0.40500000000000025,-0.04445681206548775,0.025718446585369883,0.23934177444950505,-0.06395641101199549,-0.06719248010305613,-0.026975004389887716,-0.04445681206548775,0.025718446585369883,0.03249377444950502,-0.06395641101199549,-0.06719248010305613,-0.07557500438988778,0.06464913127011075,-0.03273752238217607,0.0015279453039880057,0.17840089324842234,0.4357615563381795,-0.0019478432382485462,0.0,6.8428529435545205,-2.678856104023754,1.7687739713564514,0.0,0.0,0.0,0.0,0.0,0.20684800000000003,0.0,0.0,0.04860000000000006,0.0,0.0,0.0,0.0,0.0,0.0
0.41000000000000025,-0.04477659412054773,0.025382484184854604,0.2392068994275556,-0.052612448596972894,-0.07105276693238886,-0.025354601038383273,-0.04445681206548775,0.025718446585369883,0.03249377444950502,-0.06395641101199549,-0.06719248010305613,-0.07557500438988778,0.06551749947148422,-0.03048975077707944,0.001664620627513294,0.17067431067872155,0.46499735375560175,-0.0020078419654915316,0.0,8.191552512466908,-2.278934970863163,1.4434878316819666,0.0,0.0,0.0,0.0,0.0,0.20709370716407718,0.0,0.0,0.0496842937646485,0.0,0.0,0.0,0.0,0.0,0.0
0.41500000000000026,-0.04503965636353259,0.02502722035019266,0.23908012642236368,-0.04087841914112286,-0.07476408541435436,-0.023836887293912673,-0.04445681206548775,0.025718446585369883,0.03249377444950502,-0.06395641101199549,-0.06719248010305613,-0.07557500438988778,0.06634651236923375,-0.028097244417177043,0.0018124404532039505,0.16266255145961941,0.49381981976134565,-0.002076591853735039,0.0,8.191552512466908,-2.278934970863163,1.4434878316819666,0.0,0.0,0.0,0.0,0.0,0.20734485712546877,0.0,0.0,0.05077710023437505,0.0,0.0,0.0,0.0,0.0,0.0
0.42000000000000026,-0.045244048459238205,0.024653399923120888,0.2389609419858941,-0.028851839404652246,-0.07836367763579444,-0.022397733757267797,-0.04445681206548775,0.025718446585369883,0.03249377444950502,-0.06395641101199549,-0.06719248010305613,-0.07557500438988778,0.06713516341080203,-0.025562993021103472,0.0019713027493977243,0.1545024651217842,0.5218602658545662,-0.0021549329887753017,0.0,8.191552512466908,-2.278934970863163,1.4434878316819666,0.0,0.0,0.0,0.0,0.0,0.20760149216762208,0.0,0.0,0.051878307436523496,0.0,0.0,0.0,0.0,0.0,0.0
0.42500000000000027,-0.045388307656261465,0.024261581534941914,0.23884895331710776,-0.01660584695771619,-0.08187947516184044,-0.021019059078947737,-0.04445681206548775,0.025718446585369883,0.03249377444950502,-0.06395641101199549,-0.06719248010305613,-0.07557500438988778,0.0678830607947925,-0.022891584744693397,0.0021409673593097644,0.14630042278429772,0.548845732659866,-0.0022436835099527482,0.0,8.191552512466908,-2.278934970863163,1.4434878316819666,0.0,0.0,0.0,0.0,0.0,0.20786365401500004,0.0,0.0,0.05298780375000006,0.0,0.0,0.0,0.0,0.0,0.0
0.43000000000000027,-0.04547133689105005,0.023852184159132712,0.23874385802171302,-0.004195294977931065,-0.08533242666634089,-0.019687317867070273,-0.04445681206548775,0.025718446585369883,0.03249377444950502,-0.06395641101199549,-0.06719248010305613,-0.07557500438988778,0.06859028816968608,-0.020088778824091907,0.002321082615498321,0.13813858776957352,0.5745787746687409,-0.002343632330995225,0.0,8.191552512466908,-2.278934970863163,1.4434878316819666,0.0,0.0,0.0,0.0,0.0,0.2081313838348389,0.0,0.0,0.054105477905273515,0.0,0.0,0.0,0.0,0.0,0.0
0.4350000000000003,-0.0454923133659397,0.023425522025801008,0.23864542143237769,0.008338676651490871,-0.08873824365468218,-0.018392366618073825,-0.04445681206548775,0.025718446585369883,0.03249377444950502,-0.06395641101199549,-0.06719248010305613,-0.07557500438988778,0.06925729377288642,-0.01716116889387916,0.00251120785512913,0.1300799080896157,0.5989213809475462,-0.0024555312137769375,0.0,8.191552512466908,-2.278934970863163,1.4434878316819666,0.0,0.0,0.0,0.0,0.0,0.20840472223890627,0.0,0.0,0.055231218984375066,0.0,0.0,0.0,0.0,0.0,0.0
0.4400000000000003,-0.045450619982682246,0.0229818308075276,0.2385534595992873,0.020965213018140413,-0.09210870975590409,-0.01712661316451413,-0.04445681206548775,0.025718446585369883,0.03249377444950502,-0.06395641101199549,-0.06719248010305613,-0.07557500438988778,0.06988480226473266,-0.014115918409677575,0.0027108324582364534,0.1221720911875095,0.6217821893248242,-0.0025800869720770375,0.0,8.191552512466908,-2.278934970863163,1.4434878316819666,0.0,0.0,0.0,0.0,0.0,0.2086837092852588,0.0,0.0,0.0563649164208985,0.0,0.0,0.0,0.0,0.0,0.0
0.4450000000000003,-0.04534579391759155,0.02252128725874808,0.23846782653346474,0.03366117293771066,-0.09545266269178647,-0.015884378760684093,-0.04445681206548775,0.025718446585369883,0.03249377444950502,-0.06395641101199549,-0.06719248010305613,-0.07557500438988778,0.0704737446785895,-0.010960553387937961,0.002919391929626409,0.11445076827886454,0.6431063231082665,-0.002717954302622313,0.0,8.191552512466908,-2.278934970863163,1.4434878316819666,0.0,0.0,0.0,0.0,0.0,0.20896838448000002,0.0,0.0,0.057506460000000065,0.0,0.0,0.0,0.0,0.0,0.0
0.4500000000000003,-0.045177488052902996,0.02204402394528915,0.23838840463966132,0.046409200521971436,-0.09877673075366421,-0.01466141964660293,-0.04445681206548775,0.025718446585369883,0.03249377444950502,-0.06395641101199549,-0.06719248010305613,-0.07557500438988778,0.07102520283611162,-0.0077028006888194625,0.003136281464168894,0.10694201340014693,0.662867315992711,-0.0028697295392009154,0.0,8.191552512466908,-2.278934970863163,1.4434878316819666,0.0,0.0,0.0,0.0,0.0,0.20925878677903811,0.0,0.0,0.0586557398583985,0.0,0.0,0.0,0.0,0.0,0.0
0.4550000000000003,-0.04494544205029314,0.021550140291520827,0.2383150975414283,0.05919627885475011,-0.10208588516003846,-0.013454568220784311,-0.04494544205029314,0.021550140291520827,0.028760142951584522,0.05919627885475011,-0.10208588516003846,-0.07326721470515937,0.07154036531548605,-0.004350462467909591,0.0033608673689721714,0.09966434863498809,0.6810606996166869,-0.00303594548263567,0.0,8.191552512466908,-2.278934970863163,1.4434878316819666,0.0,0.0,0.0,0.0,0.0,0.20955495458984377,0.0,0.0,0.059812646484375065,0.0,0.0,0.0,0.0,0.0,0.0
0.4600000000000003,-0.04464946065601939,0.021039710865720634,0.23824782470032438,0.07138947063218372,-0.10505416871599814,-0.012155355774029713,-0.04494544205029314,0.021550140291520827,0.028760142951584522,0.05919627885475011,-0.10208588516003846,-0.07326721470515937,0.07201761331206051,-0.0009168630656425339,0.003592094253776828,0.09147844058697088,0.6954755969581847,-0.003217067359905691,0.0,6.9143637039363375,-1.5257500977180898,1.71933581052348,0.0,0.0,0.0,0.0,0.0,0.20985692577320803,0.0,0.0,0.06097707071777351,0.0,0.0,0.0,0.0,0.0,0.0
0.4650000000000003,-0.044292513302858466,0.020514440022140642,0.23818704792145423,0.08313724749310854,-0.10776679913414688,-0.010788553976236792,-0.04494544205029314,0.021550140291520827,0.028760142951584522,0.05919627885475011,-0.10208588516003846,-0.07326721470515937,0.07245324193900732,0.0025806810715458244,0.003828576361605983,0.08269434994688668,0.7067206273937537,-0.003413480097758687,0.0,6.9143637039363375,-1.5257500977180898,1.71933581052348,0.0,0.0,0.0,0.0,0.0,0.21016473764500004,0.0,0.0,0.06214890375000007,0.0,0.0,0.0,0.0,0.0,0.0
0.4700000000000003,-0.04387682706539292,0.019975606026469906,0.23813310515157304,0.09455096316665176,-0.11028768969893744,-0.009372756554604842,-0.04494544205029314,0.021550140291520827,0.028760142951584522,0.05919627885475011,-0.10208588516003846,-0.07326721470515937,0.07284491037115845,0.006127606654805345,0.004069084730692525,0.07355420772555869,0.7152900454247403,-0.0036254714110920774,0.0,6.9143637039363375,-1.5257500977180898,1.71933581052348,0.0,0.0,0.0,0.0,0.0,0.21047842697792485,0.0,0.0,0.0633280371240235,0.0,0.0,0.0,0.0,0.0,0.0
0.4750000000000003,-0.04340407224955966,0.01942416757797522,0.23808624136880002,0.10571413294965878,-0.11266477537370935,-0.007921923697634205,-0.04494544205029314,0.021550140291520827,0.028760142951584522,0.05919627885475011,-0.10208588516003846,-0.07326721470515937,0.07319133901363306,0.009711589442971156,0.004312522203299337,0.06424618986714195,0.7215866372137698,-0.003853223758931727,0.0,6.9143637039363375,-1.5257500977180898,1.71933581052348,0.0,0.0,0.0,0.0,0.0,0.2107980300032813,0.0,0.0,0.06451436273437508,0.0,0.0,0.0,0.0,0.0,0.0
0.4800000000000003,-0.04287550158481136,0.01886084370110667,0.23804663175031185,0.11668939331476366,-0.11493400738096728,-0.006446540357912062,-0.04494544205029314,0.021550140291520827,0.028760142951584522,0.05919627885475011,-0.10208588516003846,-0.07326721470515937,0.07349206920555819,0.013322132867105293,0.004557903550443582,0.054915643998620374,0.7259399676668884,-0.004096812413686997,0.0,6.9143637039363375,-1.5257500977180898,1.71933581052348,0.0,0.0,0.0,0.0,0.0,0.21112358241271975,0.0,0.0,0.0657077728271485,0.0,0.0,0.0,0.0,0.0,0.0
0.4850000000000003,-0.04229205461823755,0.018286173664201835,0.23801439904852228,0.12752372161644193,-0.1171223491375897,-0.004954484978990076,-0.04494544205029314,0.021550140291520827,0.028760142951584522,0.05919627885475011,-0.10208588516003846,-0.07326721470515937,0.07374727269518996,0.01695023854490964,0.004804339560540487,0.045673948087096156,0.7286209244413498,-0.004356207649546786,0.0,6.9143637039363375,-1.5257500977180898,1.71933581052348,0.0,0.0,0.0,0.0,0.0,0.21145511936000003,0.0,0.0,0.06690816000000008,0.0,0.0,0.0,0.0,0.0,0.0
0.4900000000000003,-0.04165443601015534,0.017700561918513887,0.23798962662362733,0.13825235087055024,-0.11925002320623553,-0.003451681040332867,-0.04494544205029314,0.021550140291520827,0.028760142951584522,0.05919627885475011,-0.10208588516003846,-0.07326721470515937,0.0739576007267012,0.020588142079489762,0.005051024225370492,0.036605562743767625,0.7298533125692793,-0.00463127961521308,0.0,6.9143637039363375,-1.5257500977180898,1.71933581052348,0.0,0.0,0.0,0.0,0.0,0.21179267546274905,0.0,0.0,0.06811541720214852,0.0,0.0,0.0,0.0,0.0,0.0
0.49500000000000033,-0.040963174255802585,0.01710431180248271,0.23797236821842566,0.14890170583898107,-0.12133219650889888,-0.0019425857158216133,-0.04494544205029314,0.021550140291520827,0.028760142951584522,0.05919627885475011,-0.10208588516003846,-0.07326721470515937,0.07412406465073265,0.024229100914271558,0.005297224361784445,0.027773644911516224,0.7298230999308737,-0.004921804866975698,0.0,6.9143637039363375,-1.5257500977180898,1.71933581052348,0.0,0.0,0.0,0.0,0.0,0.21213628480421878,0.0,0.0,0.06932943773437508,0.0,0.0,0.0,0.0,0.0,0.0
0.5000000000000003,-0.04021866572660768,0.016497650819938214,0.23796265528984656,0.1594916050931538,-0.12338024423707539,-0.00043055636742605715,-0.04494544205029314,0.021550140291520827,0.028760142951584522,0.05919627885475011,-0.10208588516003846,-0.07326721470515937,0.0742479416194964,0.027867223706385048,0.005542271157854362,0.01922451580929206,0.7286857915994045,-0.005227473838987489,0.0,6.9143637039363375,-1.5257500977180898,1.71933581052348,0.0,0.0,0.0,0.0,0.0,0.21248598093504398,0.0,0.0,0.07055011524902352,0.0,0.0,0.0,0.0,0.0,0.0
0.5050000000000003,-0.03942120770114191,0.015880749598752835,0.23796050250800943,0.17003691256163297,-0.12540269778438676,0.0010818745847453071,-0.03942120770114191,0.015880749598752835,0.025118705633009386,0.17003691256163297,-0.12540269778438676,-0.07069546916525478,0.07433070023936733,0.031497332824042795,0.005785553244471702,0.010991216384505785,0.7265723137524476,-0.005547898747050523,0.0,6.9143637039363375,-1.5257500977180898,1.71933581052348,0.0,0.0,0.0,0.0,0.0,0.21284179687500004,0.0,0.0,0.07177734375000008,0.0,0.0,0.0,0.0,0.0,0.0
0.5100000000000003,-0.03857102313833374,0.015253736109830902,0.23796591188093316,0.17905275881589275,-0.12671979750174944,0.002751020833398691,-0.03942120770114191,0.015880749598752835,0.025118705633009386,0.17003691256163297,-0.12540269778438676,-0.07069546916525478,0.07436784147117584,0.03510157723900985,0.006025513958788329,0.0006700068820471496,0.7182683926992292,-0.005882621581459192,0.0,3.3139724382385607,0.1987489252821542,2.1338468686714767,0.0,0.0,0.0,0.0,0.0,0.21320376511476077,0.0,0.0,0.07301101759277351,0.0,0.0,0.0,0.0,0.0,0.0
0.5150000000000003,-0.03767575934425428,0.014620137122322154,0.23797966698510015,0.186921509159488,-0.1275078818466506,0.004535876092601651,-0.03942120770114191,0.015880749598752835,0.025118705633009386,0.17003691256163297,-0.12540269778438676,-0.07069546916525478,0.07435043542910531,0.038652827459142766,0.006259878272307913,-0.011088319572919926,0.7052660187842453,-0.006231097676882531,0.0,3.3139724382385607,0.1987489252821542,2.1338468686714767,0.0,0.0,0.0,0.0,0.0,0.2135719176176563,0.0,0.0,0.07425103148437508,0.0,0.0,0.0,0.0,0.0,0.0
0.5200000000000004,-0.03674115179845684,0.013982597713088902,0.23800234636556317,0.19392993757008484,-0.1278992046622056,0.006405671499259066,-0.03942120770114191,0.015880749598752835,0.025118705633009386,0.17003691256163297,-0.12540269778438676,-0.07069546916525478,0.07427244213813464,0.042130620593631665,0.006486850806748497,-0.023774690551535665,0.6887469512804483,-0.006592666621939099,0.0,3.3139724382385607,0.1987489252821542,2.1338468686714767,0.0,0.0,0.0,0.0,0.0,0.2139462858214307,0.0,0.0,0.07549728048339854,0.0,0.0,0.0,0.0,0.0,0.0
0.5250000000000004,-0.03577150211060642,0.013343101689777873,0.23803437472305947,0.2002931245309329,-0.127992956330751,0.008337316341126447,-0.03942120770114191,0.015880749598752835,0.025118705633009386,0.17003691256163297,-0.12540269778438676,-0.07069546916525478,0.07413008146142493,0.04551976992219312,0.006705030309958634,-0.03699259701599007,0.6696460102653274,-0.006966543093092223,0.0,3.3139724382385607,0.1987489252821542,2.1338468686714767,0.0,0.0,0.0,0.0,0.0,0.21432690064000004,0.0,0.0,0.0767496600000001,0.0,0.0,0.0,0.0,0.0,0.0
0.5300000000000004,-0.03477003648795175,0.012703136908124118,0.2380760613047651,0.20617238040446934,-0.1278635296390392,0.010313478603013685,-0.03942120770114191,0.015880749598752835,0.025118705633009386,0.17003691256163297,-0.12540269778438676,-0.07069546916525478,0.07392133276314045,0.0488092582724167,0.006913340544939323,-0.05043488005959311,0.6487014815895978,-0.007351820633690045,0.0,3.3139724382385607,0.1987489252821542,2.1338468686714767,0.0,0.0,0.0,0.0,0.0,0.21471379246521,0.0,0.0,0.07800806579589853,0.0,0.0,0.0,0.0,0.0,0.0
0.5350000000000004,-0.033739174585929406,0.012063819259928922,0.23812762869778017,0.21168868796252208,-0.12756671917713447,0.0123211453766296,-0.03942120770114191,0.015880749598752835,0.025118705633009386,0.17003691256163297,-0.12540269778438676,-0.07069546916525478,0.073645537742807,0.05199135745121652,0.0071109739134528425,-0.06386525153703439,0.6264952586899617,-0.0077474834308992515,0.0,3.3139724382385607,0.1987489252821542,2.1338468686714767,0.0,0.0,0.0,0.0,0.0,0.2151069911685938,0.0,0.0,0.07927239398437508,0.0,0.0,0.0,0.0,0.0,0.0
0.5400000000000004,-0.0326807311461168,0.01142598566404325,0.23818923442466333,0.21693278428396204,-0.1271443708875851,0.014350543168155172,-0.03942120770114191,0.015880749598752835,0.025118705633009386,0.17003691256163297,-0.12540269778438676,-0.07069546916525478,0.07330308533657773,0.05506092771454671,0.007297345139379687,-0.07710358477524593,0.6034848107864198,-0.008152422620472506,0.0,3.3139724382385607,0.1987489252821542,2.1338468686714767,0.0,0.0,0.0,0.0,0.0,0.21550652610312993,0.0,0.0,0.08054254103027356,0.0,0.0,0.0,0.0,0.0,0.0
0.5450000000000004,-0.03159606722469699,0.010790263809605325,0.23826098714050412,0.22197272217794242,-0.1266278692273022,0.016394328129111176,-0.03942120770114191,0.015880749598752835,0.025118705633009386,0.17003691256163297,-0.12540269778438676,-0.07069546916525478,0.07289516190998022,0.05801486061662164,0.007472053013521442,-0.09001420774898022,0.5800286415618214,-0.008565454722099422,0.0,3.3139724382385607,0.1987489252821542,2.1338468686714767,0.0,0.0,0.0,0.0,0.0,0.21591242610500005,0.0,0.0,0.0818184037500001,0.0,0.0,0.0,0.0,0.0,0.0
0.5500000000000004,-0.030486203613807276,0.010157124463468814,0.23834295878114967,0.22685954125132812,-0.12604075253896918,0.018446978729694696,-0.03942120770114191,0.015880749598752835,0.025118705633009386,0.17003691256163297,-0.12540269778438676,-0.07069546916525478,0.072423553402386,0.060851636037125297,0.007634848669882408,-0.10249658735843264,0.5564065636014769,-0.008985340584813019,0.0,3.3139724382385607,0.1987489252821542,2.1338468686714767,0.0,0.0,0.0,0.0,0.0,0.21632471949534673,0.0,0.0,0.08309987931152356,0.0,0.0,0.0,0.0,0.0,0.0
