time,pos_x,pos_y,pos_z,vel_x,vel_y,vel_z,pos_xo,pos_yo,pos_zo,vel_xo,vel_yo,vel_zo,roll,pitch,yaw,roll_vel,pitch_vel,yaw_vel,thrust_z,force_x,force_y,force_z,torque_x,torque_y,torque_z,pos_xd,pos_yd,pos_zd,vel_xd,vel_yd,vel_zd,roll_d,pitch_d,yaw_d,roll_vel_d,pitch_vel_d,yaw_vel_d
0.005,0.0,0.0,0.0,0.0,0.0,0.0,0.0,0.0,-1.0,-0.3141592653589793,-0.3141592653589793,0.0,0.0,0.0,0.0,0.0,0.0,0.0,0.0,0.0,0.0,0.0,0.0,0.0,0.0,0.0,0.0,1.0,0.3141592653589793,0.3141592653589793,0.0,0.0,0.0,0.0,0.0,0.0,0.0
0.01,0.0,0.0,0.0,0.0,0.0,0.055513497229528815,0.0,0.0,-1.0,-0.3141592653589793,-0.3141592653589793,0.0,0.0,0.0,0.0,-0.9805372088853024,1.05982938078925,0.0,0.0,5.21805739402771,5.179855227470398,12.677796006202698,0.0,0.0,0.0,0.001570795680830879,0.0015707937429397818,1.0,0.3141588777806005,0.31415771504642037,0.0,0.0,0.0,0.0,0.0,0.0,0.0
0.015,0.0,0.0,0.00027756748614764405,0.0,0.0,0.10860054223360488,0.0,0.0,-1.0,-0.3141592653589793,-0.3141592653589793,0.0,-0.004902686044426512,0.0052991469039462506,0.0,-1.3167694507921723,1.4232513963052602,0.0007559344972966489,0.0,5.21805739402771,5.179855227470398,12.677796006202698,0.0,0.0,0.0,0.0031415874858795635,0.0031415719827794755,1.0,0.31415771504642037,0.31415306412404453,0.0,0.0,0.0,0.0,0.0,0.0,0.0
0.02,0.0,0.0,0.0008205701973156684,0.00025992315563856357,0.0002404767504791204,0.15935949040721972,0.0,0.0,-1.0,-0.3141592653589793,-0.3141592653589793,0.0,-0.011486533298387374,0.012415403885472551,3.779672486483245e-06,-1.4159622807720091,1.5304747457599728,0.0019744379863489356,0.0,5.21805739402771,5.179855227470398,12.677796006202698,0.0,0.0,0.0,0.004712371539373423,0.004712319216572003,1.0,0.31415577715930787,0.3141453126377545,0.0,0.0,0.0,0.0,0.0,0.0,0.0
0.025,1.2996157781928178e-06,1.2023837523956021e-06,0.001617367649351767,0.0008688987162209922,0.0008038912087650213,0.20788139580242945,0.0,0.0,-1.0,-0.3141592653589793,-0.3141592653589793,0.0,-0.01856634470224742,0.020067777614272416,1.3651862418227923e-05,-1.4283148907762302,1.5438460246758625,0.003463741376501669,0.0,5.21805739402771,5.179855227470398,12.677796006202698,0.0,0.0,0.0,0.006283143965558951,0.006283019941676304,1.0,0.31415306412404453,0.31413446066405437,0.0,0.0,0.0,0.0,0.0,0.0,0.0
0.030000000000000002,5.644109359297778e-06,5.221839796220709e-06,0.0026567746283639145,0.0018532232082010542,0.0017145704164102573,0.25425160193470514,0.0,0.0,-1.0,-0.3141592653589793,-0.3141592653589793,0.0,-0.02570791915612857,0.027787007737651727,3.097056930073627e-05,-1.4092136473940526,1.523226610558513,0.005098897004899997,0.0,5.21805739402771,5.179855227470398,12.677796006202698,0.0,0.0,0.0,0.007853900888711334,0.007853658655910338,1.0,0.3141495759473245,0.3141205083100486,0.0,0.0,0.0,0.0,0.0,0.0,0.0
0.035,1.491022540030305e-05,1.3794691878271996e-05,0.00392803263803744,0.0032161759377328713,0.002975543851018364,0.2985508195568872,0.0,0.0,-1.0,-0.3141592653589793,-0.3141592653589793,0.0,-0.032753987393098837,0.03540314079044429,5.6465054325236254e-05,-1.379074303414055,1.4906792533618052,0.006798892221114095,0.0,5.21805739402771,5.179855227470398,12.677796006202698,0.0,0.0,0.0,0.009424638433144006,0.009424219857704088,1.0,0.3141453126377545,0.3141034557134415,0.0,0.0,0.0,0.0,0.0,0.0,0.0
0.04,3.0991105088967403e-05,2.8672411133363816e-05,0.005420786735821876,0.004952699993504164,0.0045821269326498625,0.3408558657267857,0.0,0.0,-1.0,-0.3141592653589793,-0.3141592653589793,0.0,-0.03964935891016911,0.04285653705725332,9.045951543080673e-05,-1.3454140174317426,1.4543262949542182,0.008511587682508925,0.0,5.21805739402771,5.179855227470398,12.677796006202698,0.0,0.0,0.0,0.010995352723218223,0.010994688046252555,1.0,0.31414027420585383,0.3140833030425352,0.0,0.0,0.0,0.0,0.0,0.0,0.0
0.045,5.5754605056488224e-05,5.158304579661313e-05,0.007125066064455805,0.007054813136162439,0.006526927987193658,0.38124017894077367,0.0,0.0,-1.0,-0.3141592653589793,-0.3141592653589793,0.0,-0.04637642899732782,0.05012816853202441,0.00013301745384335136,-1.310992532674335,1.4171490492616607,0.01020380562848757,0.0,5.21805739402771,5.179855227470398,12.677796006202698,0.0,0.0,0.0,0.012566039883352607,0.01256504772166874,1.0,0.31413446066405437,0.3140600504962283,0.0,0.0,0.0,0.0,0.0,0.0,0.0
0.049999999999999996,9.102867073730041e-05,8.421768573258142e-05,0.009031266959159673,0.009513599802658236,0.008801691829512587,0.41977418590774573,0.0,0.0,-1.0,-0.3141592653589793,-0.3141592653589793,0.0,-0.052931391660699496,0.057213913778332716,0.00018403648198578922,-1.2768150570309929,1.3802331419630836,0.011854807692429808,0.0,5.21805739402771,5.179855227470398,12.677796006202698,0.0,0.0,0.0,0.014136696038032734,0.014135283385136626,1.0,0.31412787202670034,0.3140336983040143,0.0,0.0,0.0,0.0,0.0,0.0,0.0
0.05499999999999999,0.0001385966697505916,0.00012822614488014434,0.011130137888698401,0.012319942273485457,0.011397976590469898,0.45652556973751657,-0.01556872064207008,-0.015577153394183998,-0.9888698621113016,-0.30180056603656313,-0.30260627013550867,0.45652556973751657,-0.05931546694585446,0.06411507948814814,0.00024331052044793827,-1.2432398876036386,1.343965420489007,0.01345200357383362,0.0,5.21805739402771,5.179855227470398,12.677796006202698,0.0,0.0,0.0,0.015707317311820672,0.015705379539064142,1.0,0.3141205083100486,0.31400424672597854,0.0,0.0,0.0,0.0,0.0,0.0,0.0
0.05999999999999999,0.0002001963811180189,0.00018521602783249383,0.013412765737385984,0.015464786922379124,0.014307400244164058,0.4908790632867811,-0.01556872064207008,-0.015577153394183998,-0.9888698621113016,-0.30180056603656313,-0.30260627013550867,0.45652556973751657,-0.06553166638387266,0.07083490659059317,0.00031057053831710636,-1.1867574146833293,1.2213710514064915,0.01498812795923109,0.0,4.7651073932647705,4.998288631439209,12.722561240196228,0.0,0.0,0.0,0.017277899829364566,0.017275320687236133,1.0,0.31411236953226845,0.31397169605279623,0.0,0.0,0.0,0.0,0.0,0.0,0.0
0.06499999999999999,0.0002775203157299145,0.00025675302905331414,0.01586716105381989,0.01893923909064772,0.017521728480293014,0.5236075746753788,-0.01556872064207008,-0.015577153394183998,-0.9888698621113016,-0.30180056603656313,-0.30260627013550867,0.45652556973751657,-0.0714654534572893,0.07694176184762563,0.0003855111781132618,-1.1465618734534404,1.156823467310462,0.016450118543045525,0.0,4.7651073932647705,4.998288631439209,12.722561240196228,0.0,0.0,0.0,0.018848439715408172,0.018845091334967267,1.0,0.3141034557134415,0.3139360466057294,0.0,0.0,0.0,0.0,0.0,0.0,0.0
0.06999999999999999,0.0003722165111831531,0.0003443616714547792,0.018485198927196786,0.022713232509273755,0.021027108972373053,0.5547704026112081,-0.01556872064207008,-0.015577153394183998,-0.9888698621113016,-0.30180056603656313,-0.30260627013550867,0.45652556973751657,-0.07719826282455651,0.08272587918417794,0.00046776177082848944,-1.1128323345325115,1.1141456200936326,0.017840021340870756,0.0,4.7651073932647705,4.998288631439209,12.722561240196228,0.0,0.0,0.0,0.020418933094800452,0.020414675989254994,1.0,0.3140937668755616,0.31389729873662364,0.0,0.0,0.0,0.0,0.0,0.0,0.0
0.075,0.00048578267372952186,0.0004494972163166445,0.02125905094025283,0.026770936883257684,0.02481368376391755,0.584424788366571,-0.01556872064207008,-0.015577153394183998,-0.9888698621113016,-0.30180056603656313,-0.30260627013550867,0.45652556973751657,-0.08276242449721907,0.0882966072846461,0.0005569618775328432,-1.0819371667248772,1.079982869068281,0.01916008229542598,0.0,4.7651073932647705,4.998288631439209,12.722561240196228,0.0,0.0,0.0,0.021989376092505106,0.02198405915893245,1.0,0.3140833030425352,0.31385545282790484,0.0,0.0,0.0,0.0,0.0,0.0,0.0
0.08,0.0006196373581458102,0.0005735656351362323,0.024181174882085682,0.031101885470569576,0.028873180685506147,0.61262598976302,-0.01556872064207008,-0.015577153394183998,-0.9888698621113016,-0.30180056603656313,-0.30260627013550867,0.45652556973751657,-0.08817211033084346,0.0936965216299875,0.000652762289009973,-1.05252682997924,1.0493987396371547,0.02041264665615235,0.0,4.7651073932647705,4.998288631439209,12.722561240196228,0.0,0.0,0.0,0.02355976483361015,0.02355322535482133,1.0,0.3140720642401805,0.3138105092925752,0.0,0.0,0.0,0.0,0.0,0.0,0.0
0.085,0.0007751467854986581,0.000717931538563763,0.027244304830900783,0.035697699856520465,0.03319802269723402,0.6394273512736632,-0.01556872064207008,-0.015577153394183998,-0.9888698621113016,-0.30180056603656313,-0.30260627013550867,0.45652556973751657,-0.09343474448073966,0.09894351532817328,0.0007548255222907348,-1.024093325435262,1.020562016504489,0.021600093881171477,0.0,4.7651073932647705,4.998288631439209,12.722561240196228,0.0,0.0,0.0,0.02513009544333748,0.025122159089884778,1.0,0.3140600504962283,0.31376246857420925,0.0,0.0,0.0,0.0,0.0,0.0,0.0
0.09000000000000001,0.0009536352847812604,0.0008839216520499331,0.030441441587269098,0.04055087928336736,0.0377809969140143,0.6648803708449516,-0.01556872064207008,-0.015577153394183998,-0.9888698621113016,-0.30180056603656313,-0.30260627013550867,0.45652556973751657,-0.09855521110791597,0.10404632541069572,0.0008628259916965923,-0.9964391161139105,0.9927870989978181,0.02272479588028946,0.0,4.7651073932647705,4.998288631439209,12.722561240196228,0.0,0.0,0.0,0.026700364047052408,0.026690844879380237,1.0,0.3140472618403214,0.31371133114694955,0.0,0.0,0.0,0.0,0.0,0.0,0.0
0.09500000000000001,0.0011563896811980971,0.0010728266366200046,0.03376584344149386,0.04565435154476199,0.042615130018857576,0.6890347638587213,-0.01556872064207008,-0.015577153394183998,-0.9888698621113016,-0.30180056603656313,-0.30260627013550867,0.45652556973751657,-0.10353740668848552,0.10901026090568482,0.0009764499710980395,-0.969481347788959,0.96581118627924,0.023789090582934578,0.0,4.7651073932647705,4.998288631439209,12.722561240196228,0.0,0.0,0.0,0.028270566770273255,0.028259267241012267,1.0,0.3140336983040143,0.31365709751550175,0.0,0.0,0.0,0.0,0.0,0.0,0.0
0.10000000000000002,0.001384661438921907,0.0012859022867142925,0.03721101726078747,0.05100130484218583,0.04769363981692779,0.7119385245351371,-0.01556872064207008,-0.015577153394183998,-0.9888698621113016,-0.30180056603656313,-0.30260627013550867,0.45652556973751657,-0.10838481342743031,0.11383931683708101,0.0010953954240127124,-0.9431796776177076,0.9395276622582862,0.024795265556306952,0.0,4.7651073932647705,4.998288631439209,12.722561240196228,0.0,0.0,0.0,0.02984069973868089,0.029827410695085353,1.0,0.31401935992077384,0.31359976821513,0.0,0.0,0.0,0.0,0.0,0.0,0.0
0.10500000000000002,0.001639667963132836,0.0015243704857989314,0.04077070988346315,0.056585123333044655,0.05300991491554325,0.7336379849973097,-0.029771091114995457,-0.029870889278857754,-0.9592292901165369,-0.2574191233929339,-0.2605294288961081,0.7336379849973097,-0.11310071181551885,0.11853695514837244,0.0012193717517942472,-0.917509667256443,0.9138877489234505,0.025745548203290464,0.0,4.7651073932647705,4.998288631439209,12.722561240196228,0.0,0.0,0.0,0.03141075907812829,0.03139525976465669,1.0,0.31400424672597854,0.3135393438116513,0.0,0.0,0.0,0.0,0.0,0.0,0.0
0.11000000000000003,0.0019225935797980594,0.0017894200603766476,0.0444388998084497,0.062399360983072326,0.05855750483009445,0.753457473915485,-0.029771091114995457,-0.029870889278857754,-0.9592292901165369,-0.2574191233929339,-0.2605294288961081,0.7336379849973097,-0.11768826015180107,0.12310639389298969,0.0013480994928106995,-0.906047768670862,0.7657115893176709,0.026642100257162602,0.0,4.1205443143844604,4.999709129333496,12.732112169265747,0.0,0.0,0.0,0.032980740914650135,0.032962798975688934,1.0,0.31398835875691866,0.3134758249014302,0.0,0.0,0.0,0.0,0.0,0.0,0.0
0.11500000000000003,0.002234590384713421,0.00208220758452712,0.048206187178027125,0.06843772960352347,0.0643301139905403,0.7721920541629711,-0.029771091114995457,-0.029870889278857754,-0.9592292901165369,-0.2574191233929339,-0.2605294288961081,0.7336379849973097,-0.12221849899515538,0.12693495183957804,0.0014813099940965127,-0.8862642175144945,0.6990571500856765,0.02747720531520056,0.0,4.1205443143844604,4.999709129333496,12.732112169265747,0.0,0.0,0.0,0.03455064137447228,0.034530012857202905,1.0,0.31397169605279623,0.31340921211137257,0.0,0.0,0.0,0.0,0.0,0.0,0.0
0.12000000000000004,0.0025767790327310383,0.0024038581544798213,0.05206714744884198,0.07466388899125477,0.07032493136625267,0.789882128526897,-0.029771091114995457,-0.029870889278857754,-0.9592292901165369,-0.2574191233929339,-0.2605294288961081,0.7336379849973097,-0.12664982008272785,0.1304302375900064,0.0016186960206725155,-0.863773186925033,0.6627546598597095,0.02825669445200875,0.0,4.1205443143844604,4.999709129333496,12.732112169265747,0.0,0.0,0.0,0.03612045658402141,0.036096885941430304,1.0,0.3139542586547248,0.31333950609891986,0.0,0.0,0.0,0.0,0.0,0.0,0.0
0.12500000000000003,0.0029500984776873124,0.002755482811311085,0.056016558091476466,0.08106149214504459,0.07653710504131048,0.8065667481982258,-0.029771091114995457,-0.029870889278857754,-0.9592292901165369,-0.2574191233929339,-0.2605294288961081,0.7336379849973097,-0.130968686017353,0.13374401088930496,0.0017599794929325594,-0.840641967698501,0.637924907706715,0.028985011303126126,0.0,4.1205443143844604,4.999709129333496,12.732112169265747,0.0,0.0,0.0,0.037690182669934555,0.037663402763966375,1.0,0.3139360466057294,0.3132667075520422,0.0,0.0,0.0,0.0,0.0,0.0,0.0
0.13000000000000003,0.0033554059384125353,0.0031381683365176373,0.060049391832467595,0.087621635879165,0.08296111909046164,0.822283641446134,-0.029771091114995457,-0.029870889278857754,-0.9592292901165369,-0.2574191233929339,-0.2605294288961081,0.7336379849973097,-0.13517189585584552,0.13693363542783854,0.00190490454944819,-0.8176264880001249,0.6175982637398906,0.029665664331668815,0.0,4.1205443143844604,4.999709129333496,12.732112169265747,0.0,0.0,0.0,0.03925981575906862,0.03922954786392248,1.0,0.3139170599507464,0.31319081718923186,0.0,0.0,0.0,0.0,0.0,0.0,0.0
0.13500000000000004,0.0037935141178083603,0.0035529739319699457,0.06416081003969827,0.09433823069690048,0.08959130058219086,0.8370692472579365,-0.029771091114995457,-0.029870889278857754,-0.9592292901165369,-0.2574191233929339,-0.2605294288961081,0.7336379849973097,-0.13926002829584613,0.14002162674653798,0.002053232871106534,-0.7949979138298549,0.5991977437313133,0.030301525271637743,0.0,4.1205443143844604,4.999709129333496,12.732112169265747,0.0,0.0,0.0,0.04082935197851001,0.040795305784078785,1.0,0.31389729873662364,0.3131118357594962,0.0,0.0,0.0,0.0,0.0,0.0,0.0
0.14000000000000004,0.0042652052712928625,0.0040009304348809,0.06834615627598796,0.10120629148881817,0.09642200497010212,0.850958751746762,-0.029771091114995457,-0.029870889278857754,-0.9592292901165369,-0.2574191233929339,-0.2605294288961081,0.7336379849973097,-0.1432350178649954,0.14301761546519454,0.002204740497464723,-0.7728483218692689,0.5817666073518742,0.03089502630175136,0.0,4.1205443143844604,4.999709129333496,12.732112169265747,0.0,0.0,0.0,0.04239878745558411,0.04236066107103673,1.0,0.3138767630121198,0.3130297640423499,0.0,0.0,0.0,0.0,0.0,0.0,0.0
0.14500000000000005,0.0047712367287369535,0.004483040459731411,0.07260095003472176,0.10822130552738596,0.10344768259638014,0.8639861258973742,-0.029771091114995457,-0.029870889278857754,-0.9592292901165369,-0.2574191233929339,-0.2605294288961081,0.7336379849973097,-0.14709925947434174,0.1459264485019539,0.0023592156289734796,-0.751203744110976,0.5649458385674121,0.03144829054038428,0.0,4.1205443143844604,4.999709129333496,12.732112169265747,0.0,0.0,0.0,0.043968118317864915,0.0439255982753716,1.0,0.31385545282790484,0.31294460284780773,0.0,0.0,0.0,0.0,0.0,0.0,0.0
0.15000000000000005,0.005312343256373883,0.005000278872713312,0.07692088066420863,0.1153789978264068,0.1106629012735966,0.8761841637255721,-0.029771091114995457,-0.029870889278857754,-0.9592292901165369,-0.2574191233929339,-0.2605294288961081,0.7336379849973097,-0.15085527819489664,0.14875117769479096,0.002516457081675401,-0.7300659750384543,0.5485970177116791,0.03196321862917061,0.0,4.1205443143844604,4.999709129333496,12.732112169265747,0.0,0.0,0.0,0.045537340693184505,0.04549010195178497,1.0,0.31383336823655944,0.31285635301637627,0.0,0.0,0.0,0.0,0.0,0.0,0.0
0.15500000000000005,0.005889238245505917,0.005553593379081295,0.08130180148283649,0.1226752430923363,0.11806235266905628,0.8875845202584481,-0.04121721246413676,-0.04150056328017588,-0.9186981985171635,-0.1911352662002389,-0.19470266274998949,0.8875845202584481,-0.1545056080700889,0.15149416278334935,0.002676273174821254,-0.7094280314262527,0.5326632265856279,0.03244154639117688,0.0,4.1205443143844604,4.999709129333496,12.732112169265747,0.0,0.0,0.0,0.04710645070964268,0.047054156659257176,1.0,0.3138105092925752,0.3127650154190458,0.0,0.0,0.0,0.0,0.0,0.0,0.0
0.16000000000000006,0.006502614460967598,0.0061439051424265765,0.08573972408412872,0.1301060317768596,0.12564085274489414,0.8938089506389932,-0.04121721246413676,-0.04150056328017588,-0.9186981985171635,-0.1911352662002389,-0.19470266274998949,0.8875845202584481,-0.15805274822722015,0.15415747891627749,0.0028384809067771386,-0.36606314162941583,-0.21569846284837169,0.03288488342782642,0.0,0.5482909083366394,3.099591851234436,12.738691508769989,0.0,0.0,0.0,0.04867544449561643,0.04861774696119968,1.0,0.3137868760523542,0.31267059095728145,0.0,0.0,0.0,0.0,0.0,0.0,0.0
0.16500000000000006,0.007153144619851896,0.006772109406151047,0.09020876883732369,0.137667456117703,0.1333933400454393,0.899488446911857,-0.04121721246413676,-0.04150056328017588,-0.9186981985171635,-0.1911352662002389,-0.19470266274998949,0.8875845202584481,-0.15988306393536722,0.15307898660203562,0.0030029053239162707,-0.23566333088783703,-0.48220351337043027,0.033234703968738045,0.0,0.5482909083366394,3.099591851234436,12.738691508769989,0.0,0.0,0.0,0.05024431817976957,0.05018085742560746,1.0,0.31376246857420925,0.31257308056301464,0.0,0.0,0.0,0.0,0.0,0.0,0.0
0.17000000000000007,0.00784148190044041,0.007439076106378243,0.09470621107188297,0.14517598041053287,0.14123560433146906,0.9046436571761897,-0.04121721246413676,-0.04150056328017588,-0.9186981985171635,-0.1911352662002389,-0.19470266274998949,0.8875845202584481,-0.1610613805898064,0.15066796903518345,0.003169078843759961,-0.18383477472573795,-0.5711826093895243,0.03351573361139004,0.0,0.5482909083366394,3.099591851234436,12.738691508769989,0.0,0.0,0.0,0.051813067891062256,0.051743472625211284,1.0,0.3137372869183633,0.31247248519863347,0.0,0.0,0.0,0.0,0.0,0.0,0.0
0.17500000000000007,0.008567361802493074,0.008145254128035588,0.09922942935776392,0.15256624429170862,0.14913566504939907,0.9092948149010031,-0.04121721246413676,-0.04150056328017588,-0.9186981985171635,-0.1911352662002389,-0.19470266274998949,0.8875845202584481,-0.1619805544634351,0.14781205598823582,0.003336657511816911,-0.16104930609737605,-0.5948960727929842,0.03374455911692933,0.0,0.5482909083366394,3.099591851234436,12.738691508769989,0.0,0.0,0.0,0.053381689758760495,0.05330557713762998,1.0,0.31371133114694955,0.31236880585697363,0.0,0.0,0.0,0.0,0.0,0.0,0.0
0.18000000000000008,0.009330193023951617,0.008890932453282584,0.10377590343226895,0.15981642563793158,0.15708081124583056,0.9134616462607866,-0.04121721246413676,-0.04150056328017588,-0.9186981985171635,-0.1911352662002389,-0.19470266274998949,0.8875845202584481,-0.16278580099392198,0.1448375756242709,0.003505380307401558,-0.14905334174795892,-0.5947508624667625,0.03393239881603616,0.0,0.5482909083366394,3.099591851234436,12.738691508769989,0.0,0.0,0.0,0.05495017991244577,0.054867155545522656,1.0,0.3136846013240113,0.31226204356130843,0.0,0.0,0.0,0.0,0.0,0.0,0.0
0.18500000000000008,0.010129275152141275,0.009676336509511737,0.10834321166357289,0.16692070872230208,0.16506545478458243,0.9171633171642524,-0.04121721246413676,-0.04150056328017588,-0.9186981985171635,-0.1911352662002389,-0.19470266274998949,0.8875845202584481,-0.16353106770266176,0.1418638213119371,0.0036750423014817388,-0.1411183557718337,-0.5860166326287999,0.03408692643577569,0.0,0.5482909083366394,3.099591851234436,12.738691508769989,0.0,0.0,0.0,0.05651853448202455,0.05642819243674086,1.0,0.31365709751550175,0.3121521993653385,0.0,0.0,0.0,0.0,0.0,0.0,0.0
0.19000000000000009,0.010963878695752785,0.01050166378343465,0.11292902824939414,0.1738791291576526,0.173086653655398,0.9204184061361023,-0.04121721246413676,-0.04150056328017588,-0.9186981985171635,-0.1911352662002389,-0.19470266274998949,0.8875845202584481,-0.16423665948152094,0.1389337381487931,0.003845476933660617,-0.13476290125640092,-0.5743212233639035,0.03421347189693028,0.0,0.5482909083366394,3.099591851234436,12.738691508769989,0.0,0.0,0.0,0.05808674959773784,0.05798867240448071,1.0,0.31362881978928386,0.3120392743531818,0.0,0.0,0.0,0.0,0.0,0.0,0.0
0.1950000000000001,0.011833274341541048,0.01136709705171164,0.11753112028007466,0.18069382901385092,0.1811424618029666,0.9232448939518086,-0.04121721246413676,-0.04150056328017588,-0.9186981985171635,-0.1911352662002389,-0.19470266274998949,0.8875845202584481,-0.16491047398780295,0.13606213203197356,0.004016544293145269,-0.1290706215957759,-0.5617357663846407,0.03431581203466303,0.0,0.5482909083366394,3.099591851234436,12.738691508769989,0.0,0.0,0.0,0.059654821390170726,0.05954858004743489,1.0,0.31359976821513,0.3119232696393626,0.0,0.0,0.0,0.0,0.0,0.0,0.0
0.2000000000000001,0.012736743486610302,0.012272809360726472,0.1221473447498337,0.18736767659001924,0.18923132055206832,0.9256601640448979,-0.04121721246413676,-0.04150056328017588,-0.9186981985171635,-0.1911352662002389,-0.19470266274998949,0.8875845202584481,-0.16555582709578184,0.13325345320005036,0.004188123353318584,-0.12370193223583743,-0.5490194539048708,0.034396691403343234,0.0,0.5482909083366394,3.099591851234436,12.738691508769989,0.0,0.0,0.0,0.061222745990261944,0.06110789996994474,1.0,0.3135699428647222,0.3118041863688006,0.0,0.0,0.0,0.0,0.0,0.0,0.0
0.2050000000000001,0.013673581869560398,0.013218965963486814,0.1267756455700582,0.1939037584694817,0.1973518338711164,0.927681009759109,-0.049116937659753,-0.04944765081866534,-0.8732243544299418,-0.11963558534216961,-0.11433019184568313,0.927681009759109,-0.16617433675696103,0.130508355930526,0.0043601068103353,-0.11852982762698003,-0.5364476235682394,0.03445816541642294,0.0,0.5482909083366394,3.099591851234436,12.738691508769989,0.0,0.0,0.0,0.0627905195293134,0.06266661678215216,1.0,0.3135393438116513,0.31168202571679954,0.0,0.0,0.0,0.0,0.0,0.0,0.0
0.2100000000000001,0.014643100661907807,0.014205725132842396,0.13141405061885372,0.20030519332787403,0.20550268508904534,0.9278860086740431,-0.049116937659753,-0.04944765081866534,-0.8732243544299418,-0.11963558534216961,-0.11433019184568313,0.927681009759109,-0.16676698589509592,0.12782611781268483,0.0045323976374174145,0.5729280008970408,-0.7047031179727774,0.034501826539087406,0.0,-0.2995871230959892,-0.18377216532826424,12.737443208694458,0.0,0.0,0.0,0.06435813813899975,0.06422471510015146,1.0,0.3135079711314177,0.3115567888890358,0.0,0.0,0.0,0.0,0.0,0.0,0.0
0.2150000000000001,0.015644626628547178,0.015233238558287622,0.13605348066222395,0.2065750644065862,0.2136826057471998,0.9277912863044256,-0.049116937659753,-0.04944765081866534,-0.8732243544299418,-0.11963558534216961,-0.11433019184568313,0.927681009759109,-0.16390234589061073,0.12430260222282094,0.004704906770112851,0.8131797133333254,-0.7546702558981206,0.03450937700474794,0.0,-0.2995871230959892,-0.18377216532826424,12.737443208694458,0.0,0.0,0.0,0.06592559795137788,0.06578217954614128,1.0,0.3134758249014302,0.3114284771215463,0.0,0.0,0.0,0.0,0.0,0.0,0.0
0.2200000000000001,0.01667750195058011,0.01630165158702362,0.14069243709374607,0.21267210704561557,0.22172201581313425,0.9274093969466684,-0.049116937659753,-0.04944765081866534,-0.8732243544299418,-0.11963558534216961,-0.11433019184568313,0.927681009759109,-0.15983644732394411,0.12052925094333033,0.004877453655136591,0.8873822370327363,-0.761230760989508,0.03448947763628002,0.0,-0.2995871230959892,-0.18377216532826424,12.737443208694458,0.0,0.0,0.0,0.06749289509889655,0.06733899474857633,1.0,0.3134429052010064,0.31129709168071634,0.0,0.0,0.0,0.0,0.0,0.0,0.0
0.22500000000000012,0.017740862485808185,0.01741026166608929,0.1453294840784794,0.2185840668043859,0.2295619935543737,0.9267525514246527,-0.049116937659753,-0.04944765081866534,-0.8732243544299418,-0.11963558534216961,-0.11433019184568313,0.927681009759109,-0.15539953613878044,0.11672309713838279,0.005049901043317991,0.9006907549864122,-0.7520400182304834,0.034448008155563016,0.0,-0.2995871230959892,-0.18377216532826424,12.737443208694458,0.0,0.0,0.0,0.06906002571440582,0.06889514534231907,1.0,0.31340921211137257,0.3111626338632672,0.0,0.0,0.0,0.0,0.0,0.0,0.0
0.23000000000000012,0.018833782819830114,0.01855807163386116,0.14996324683560266,0.2243093347190236,0.2371843408019809,0.92583259252084,-0.049116937659753,-0.04944765081866534,-0.8732243544299418,-0.11963558534216961,-0.11433019184568313,0.927681009759109,-0.15089608236384838,0.11296289704723037,0.005222141084095806,0.8918774131170913,-0.7373075613152724,0.034389010941328214,0.0,-0.2995871230959892,-0.18377216532826424,12.737443208694458,0.0,0.0,0.0,0.0706269859311667,0.07045061596879136,1.0,0.3133747457156629,0.3110251049962433,0.0,0.0,0.0,0.0,0.0,0.0,0.0
0.23500000000000013,0.019955329493425232,0.019743993337871066,0.15459240979820688,0.22985016481919024,0.24458579364192765,0.9246609836864768,-0.049116937659753,-0.04944765081866534,-0.8732243544299418,-0.11963558534216961,-0.11433019184568313,0.927681009759109,-0.14643669529826292,0.109276359240654,0.005394086138802447,0.875233027428408,-0.7207983333731269,0.03431531243529169,0.0,-0.2995871230959892,-0.18377216532826424,12.737443208694458,0.0,0.0,0.0,0.07219377188286064,0.07200539127612612,1.0,0.31333950609891986,0.310884506436999,0.0,0.0,0.0,0.0,0.0,0.0,0.0
0.24000000000000013,0.021104580317521184,0.020966922306080705,0.15921571471663926,0.2352101702399443,0.2517685135463074,0.9232488063259631,-0.049116937659753,-0.04944765081866534,-0.8732243544299418,-0.11963558534216961,-0.11433019184568313,0.927681009759109,-0.14206053016112088,0.10567236757378837,0.005565662700978906,0.8560200960118939,-0.7038967040253453,0.03422893237560049,0.0,-0.2995871230959892,-0.18377216532826424,12.737443208694458,0.0,0.0,0.0,0.07376037970359901,0.07355945591931873,1.0,0.31330349334809365,0.3107408395731853,0.0,0.0,0.0,0.0,0.0,0.0,0.0
0.24500000000000013,0.022280631168720907,0.022225764873812243,0.16383195874826906,0.24039339986943864,0.2587365825507104,0.9216067625643254,-0.049116937659753,-0.04944765081866534,-0.8732243544299418,-0.11963558534216961,-0.11433019184568313,0.927681009759109,-0.1377804296810614,0.10215288405366164,0.005736807362856909,0.8361717386551073,-0.6871077754503072,0.03413135337503095,0.0,-0.2995871230959892,-0.18377216532826424,12.737443208694458,0.0,0.0,0.0,0.07532680552793276,0.07511279456037857,1.0,0.3132667075520422,0.31059410582273617,0.0,0.0,0.0,0.0,0.0,0.0,0.0
0.2500000000000001,0.0234825981680681,0.023519447786565794,0.16843999256109068,0.24540399883227074,0.2654947126265665,0.9197451814687605,-0.049116937659753,-0.04944765081866534,-0.8732243544299418,-0.11963558534216961,-0.11433019184568313,0.927681009759109,-0.13359957098778588,0.0987173451764101,0.005907464129732063,0.8163934132796142,-0.6706119846866847,0.034023698573431765,0.0,-0.2995871230959892,-0.18377216532826424,12.737443208694458,0.0,0.0,0.0,0.07689304549086189,0.07666539186848036,1.0,0.31322914880153074,0.3104443066338545,0.0,0.0,0.0,0.0,0.0,0.0,0.0
0.2550000000000001,0.024709618162229455,0.024846921349698625,0.1730387184684345,0.25024608461317366,0.2720477715835174,0.9176740273940311,-0.05374947756561553,-0.05337031117041685,-0.8269612815315655,-0.0629447325760582,-0.03824367190148037,0.9176740273940311,-0.1295176039213878,0.09536428525297669,0.006077582622599222,0.796938006346884,-0.6544699788765076,0.033906848779074975,0.0,-0.2995871230959892,-0.18377216532826424,12.737443208694458,0.0,0.0,0.0,0.07845909572784499,0.07821723252011548,1.0,0.31319081718923186,0.31029144348499776,0.0,0.0,0.0,0.0,0.0,0.0,0.0
0.2600000000000001,0.025960848585295324,0.026207160207616213,0.17762708860540466,0.2549237028048322,0.2784006100558615,0.9154382022320935,-0.05374947756561553,-0.05337031117041685,-0.8269612815315655,-0.0629447325760582,-0.03824367190148037,0.9176740273940311,-0.12553291388965337,0.09209193535859415,0.006247116866494597,0.8577237028692323,-0.558847682268262,0.033781519775546984,0.0,0.07519197463989258,-0.5587763339281082,12.739137828350067,0.0,0.0,0.0,0.08002495237480875,0.07976830119924319,1.0,0.313151712809725,0.3101355178848636,0.0,0.0,0.0,0.0,0.0,0.0,0.0
0.2650000000000001,0.027235467099319486,0.02759916325789552,0.18220427961656513,0.2594408122341712,0.284557999482149,0.9130101351291707,-0.05374947756561553,-0.05337031117041685,-0.8269612815315655,-0.0629447325760582,-0.03824367190148037,0.9176740273940311,-0.12124429537530722,0.08929769694725284,0.006416024465372332,0.8664976620832281,-0.5160769179795321,0.03364879398790111,0.0,0.07519197463989258,-0.5587763339281082,12.739137828350067,0.0,0.0,0.0,0.08159061156815758,0.08131858259744183,1.0,0.3131118357594962,0.3099765313723747,0.0,0.0,0.0,0.0,0.0,0.0,0.0
0.27000000000000013,0.028532671160490342,0.029021953255306265,0.186769330292211,0.26382086426943396,0.2905050321703078,0.9103988187972165,-0.05374947756561553,-0.05337031117041685,-0.8269612815315655,-0.0629447325760582,-0.03824367190148037,0.9176740273940311,-0.11691180706489107,0.08671731235735518,0.006584268435311838,0.8564056761176805,-0.4929708096508767,0.033509006620250685,0.0,0.07519197463989258,-0.5587763339281082,12.739137828350067,0.0,0.0,0.0,0.08315606944478306,0.08286806141405989,1.0,0.3130711861369382,0.3098144855166637,0.0,0.0,0.0,0.0,0.0,0.0,0.0
0.27500000000000013,0.02985177548183751,0.030474478416157805,0.19132132438619706,0.2680743484405622,0.29623955630684073,0.9076129177556048,-0.05374947756561553,-0.05337031117041685,-0.8269612815315655,-0.0629447325760582,-0.03824367190148037,0.9176740273940311,-0.11262977868430267,0.08425245830910079,0.006751813468413091,0.8396702255557078,-0.47728970729111714,0.033362499778563884,0.0,0.07519197463989258,-0.5587763339281082,12.739137828350067,0.0,0.0,0.0,0.08472132214207348,0.08441672235636698,1.0,0.3130297640423499,0.3096493819170578,0.0,0.0,0.0,0.0,0.0,0.0,0.0
0.28000000000000014,0.03119214722404032,0.03195567619769201,0.1958593889749751,0.2722069315206236,0.30176404695130576,0.9046607799461502,-0.05374947756561553,-0.05337031117041685,-0.8269612815315655,-0.0629447325760582,-0.03824367190148037,0.9176740273940311,-0.10843142755652413,0.0818660097726452,0.00691862596730591,0.8207936054870643,-0.46451689831264725,0.033209615312651874,0.0,0.07519197463989258,-0.5587763339281082,12.739137828350067,0.0,0.0,0.0,0.08628636579792341,0.0859645501397048,1.0,0.31298756957793616,0.3094812222030629,0.0,0.0,0.0,0.0,0.0,0.0,0.0
0.28500000000000014,0.03255318188164344,0.03346449643244854,0.20038269287470584,0.27622245929997186,0.30708260847295327,0.9015504478512472,-0.05374947756561553,-0.05337031117041685,-0.8269612815315655,-0.0629447325760582,-0.03824367190148037,0.9176740273940311,-0.10432745952908881,0.07954342528108196,0.00708467404386917,0.8014296708012039,-0.45298306961701157,0.03305069027933485,0.0,0.07519197463989258,-0.5587763339281082,12.739137828350067,0.0,0.0,0.0,0.08785119655074321,0.08751152948763806,1.0,0.31294460284780773,0.3093100080343475,0.0,0.0,0.0,0.0,0.0,0.0,0.0
0.29000000000000015,0.033934294178143296,0.0349999094748133,0.20489044511396207,0.2801240643100089,0.31219987036285507,0.8982896691668253,-0.05374947756561553,-0.05337031117041685,-0.8269612815315655,-0.0629447325760582,-0.03824367190148037,0.9176740273940311,-0.10032031117508279,0.07727850993299691,0.007249927495265844,0.7821814278287095,-0.44206878857451926,0.032886054124663965,0.0,0.07519197463989258,-0.5587763339281082,12.739137828350067,0.0,0.0,0.0,0.08941581053946855,0.0890576451321051,1.0,0.3129008639579806,0.3091357411007263,0.0,0.0,0.0,0.0,0.0,0.0,0.0
0.29500000000000015,0.03533491449969334,0.036560908826627575,0.2093818934597962,0.2839145752222224,0.3171205816259929,0.8948859070681483,-0.05374947756561553,-0.05337031117041685,-0.8269612815315655,-0.0629447325760582,-0.03824367190148037,0.9176740273940311,-0.09640940403593924,0.07506816599012431,0.007414357765889164,0.7632643115112608,-0.43154178949860644,0.0327160269916576,0.0,0.07519197463989258,-0.5587763339281082,12.739137828350067,0.0,0.0,0.0,0.09098020390356996,0.09060288181356872,1.0,0.31285635301637627,0.30895842312214356,0.0,0.0,0.0,0.0,0.0,0.0,0.0
0.30000000000000016,0.03675448737580445,0.03814651173475754,0.21385632299513693,0.287596668764038,0.3218494628939557,0.8913463500973505,-0.05374947756561553,-0.05337031117041685,-0.8269612815315655,-0.0629447325760582,-0.03824367190148037,0.9176740273940311,-0.09259308247838294,0.07291045704263127,0.007577937900847451,0.7447509190671111,-0.4213126411894468,0.03254091876310234,0.0,0.07519197463989258,-0.5587763339281082,12.739137828350067,0.0,0.0,0.0,0.0925443727830623,0.0921472242811667,1.0,0.312811070132821,0.3087780558486562,0.0,0.0,0.0,0.0,0.0,0.0,0.0
0.30500000000000016,0.038192470719624644,0.03975575904922732,0.21831305474562368,0.2911729266819791,0.3263911535895204,0.8876779216954671,-0.05591584259888972,-0.05393489824363504,-0.7816869452543763,-0.021592088737066695,0.01779651252910408,0.8876779216954671,-0.08886932788304738,0.07080389383668403,0.007740642494662963,0.7266613082690353,-0.4113446637669896,0.03236102858263335,0.0,0.07519197463989258,-0.5587763339281082,12.739137828350067,0.0,0.0,0.0,0.09410831331851437,0.09369065729286236,1.0,0.3127650154190458,0.30859464106041634,0.0,0.0,0.0,0.0,0.0,0.0,0.0
0.31000000000000016,0.03964833535303454,0.04138771481717492,0.22275144435410102,0.29464585767466844,0.33075019412218387,0.8839479392259011,-0.05591584259888972,-0.05393489824363504,-0.7816869452543763,-0.021592088737066695,0.01779651252910408,0.8876779216954671,-0.0852360213417022,0.0687471705178491,0.00790244763757613,0.7532199488464627,-0.3663009448098068,0.0321766446852754,0.0,0.24104531854391098,-0.7672135233879089,12.74226826429367,0.0,0.0,0.0,0.09567202165105834,0.09523316561559499,1.0,0.3127181889886861,0.3084081805676539,0.0,0.0,0.0,0.0,0.0,0.0,0.0
0.31500000000000017,0.041121564641407884,0.04304146578778584,0.2271711840502305,0.29801790638856895,0.33493102096899435,0.8800995224059476,-0.05591584259888972,-0.05393489824363504,-0.7816869452543763,-0.021592088737066695,0.01779651252910408,0.8876779216954671,-0.0814699215974699,0.06691566579380005,0.008063330861002508,0.7511428578786172,-0.3447058609861738,0.0319888703031025,0.0,0.24104531854391098,-0.7672135233879089,12.74226826429367,0.0,0.0,0.0,0.09723549392239937,0.09677473402543017,1.0,0.31267059095728145,0.30821867621065874,0.0,0.0,0.0,0.0,0.0,0.0,0.0
0.3200000000000002,0.04261165417335073,0.04471612089263081,0.23157168166226025,0.30130011979575483,0.33892712062335023,0.8761389607285316,-0.05591584259888972,-0.05393489824363504,-0.7816869452543763,-0.021592088737066695,0.01779651252910408,0.8876779216954671,-0.07771420730807681,0.06519213648886918,0.008223275212518021,0.7387835938327186,-0.33187411274598433,0.03179765155798796,0.0,0.24104531854391098,-0.7672135233879089,12.74226826429367,0.0,0.0,0.0,0.09879872627482505,0.09831534730771008,1.0,0.3126222214422753,0.30802612985976224,0.0,0.0,0.0,0.0,0.0,0.0,0.0
0.3250000000000002,0.044118154772329506,0.04641075649574756,0.23595237646590292,0.30449779409053385,0.3427390024918114,0.8720723055152392,-0.05591584259888972,-0.05393489824363504,-0.7816869452543763,-0.021592088737066695,0.01779651252910408,0.8876779216954671,-0.07402028933891322,0.06353276592513926,0.00838226347030796,0.722906909474892,-0.3223891076335259,0.031603035076285695,0.0,0.24104531854391098,-0.7672135233879089,12.74226826429367,0.0,0.0,0.0,0.10036171485121494,0.09985499025720355,1.0,0.31257308056301464,0.3078305434153192,0.0,0.0,0.0,0.0,0.0,0.0,0.0
0.3300000000000002,0.04564064374278218,0.048124451508206614,0.2403127379934791,0.30761407625916193,0.3463696976838851,0.8679053796415558,-0.05591584259888972,-0.05393489824363504,-0.7816869452543763,-0.021592088737066695,0.01779651252910408,0.8876779216954671,-0.07040575479153877,0.06192082038697163,0.00854027864568939,0.7060020446849016,-0.31425123192900717,0.03140513027570867,0.0,0.24104531854391098,-0.7672135233879089,12.74226826429367,0.0,0.0,0.0,0.10192445579505009,0.1013936476782563,1.0,0.3125231684407496,0.30763191880768886,0.0,0.0,0.0,0.0,0.0,0.0,0.0
0.3350000000000002,0.04717871412407799,0.04985629999662604,0.24465226489168687,0.31065129249914286,0.3498230999564101,0.8636437864280604,-0.05591584259888972,-0.05393489824363504,-0.7816869452543763,-0.021592088737066695,0.01779651252910408,0.8876779216954671,-0.06687574456811426,0.060349564227326596,0.008697304297067932,0.6889809553685562,-0.3067206111637083,0.031204084667006787,0.0,0.24104531854391098,-0.7672135233879089,12.74226826429367,0.0,0.0,0.0,0.10348694525042258,0.10293130438494072,1.0,0.31247248519863347,0.3074302579972159,0.0,0.0,0.0,0.0,0.0,0.0,0.0
0.3400000000000002,0.0487319705865737,0.05160541549640809,0.24897048382382717,0.31361143862449326,0.3531033552274761,0.8592929178978317,-0.05591584259888972,-0.05393489824363504,-0.7816869452543763,-0.021592088737066695,0.01779651252910408,0.8876779216954671,-0.06343083979127148,0.05881596117150806,0.008853324720402966,0.6721738168895168,-0.29952184104127594,0.031000067717293904,0.0,0.24104531854391098,-0.7672135233879089,12.74226826429367,0.0,0.0,0.0,0.105049179362045,0.1044679452012059,1.0,0.3124210309617221,0.3072255629742112,0.0,0.0,0.0,0.0,0.0,0.0,0.0
0.3450000000000002,0.050300027779696166,0.05337093227254547,0.2532669484133163,0.31649636151995575,0.35621463791923796,0.854857962534745,-0.05591584259888972,-0.05393489824363504,-0.7816869452543763,-0.021592088737066695,0.01779651252910408,0.8876779216954671,-0.0600699707068239,0.05731835196630168,0.009008325058989436,0.6556963090606047,-0.29255080882187784,0.030793260344221262,0.0,0.24104531854391098,-0.7672135233879089,12.74226826429367,0.0,0.0,0.0,0.10661115427525997,0.10600355496102737,1.0,0.31236880585697363,0.3070178357589319,0.0,0.0,0.0,0.0,0.0,0.0,0.0
0.3500000000000002,0.05188250958729594,0.055152005462141655,0.25754123822599007,0.31930782668390284,0.35916106998240765,0.8503439126340799,-0.05591584259888972,-0.05393489824363504,-0.7816869452543763,-0.021592088737066695,0.01779651252910408,0.8876779216954671,-0.056791489161520874,0.055855597922192295,0.009162291360710543,0.639585121227395,-0.2857666108323651,0.030583848112161745,0.0,0.24104531854391098,-0.7672135233879089,12.74226826429367,0.0,0.0,0.0,0.10817286613604966,0.10753811850855674,1.0,0.31231581001324843,0.30680707840156174,0.0,0.0,0.0,0.0,0.0,0.0,0.0
0.3550000000000002,0.053479048720715454,0.0569478108120537,0.26179295778916045,0.32204754376198635,0.36194669252578027,0.8457555713082927,-0.05625526237032987,-0.05212380988621763,-0.7382070422108395,0.009785500200677921,0.05535339954358953,0.8457555713082927,-0.0535935635553839,0.05442676486803047,0.009315210601271351,0.6238479428487157,-0.27915170602542266,0.030372016861034266,0.0,0.24104531854391098,-0.7672135233879089,12.74226826429367,0.0,0.0,0.0,0.10973431109104533,0.10907162069827132,1.0,0.31226204356130843,0.30659329298219073,0.0,0.0,0.0,0.0,0.0,0.0,0.0
0.3600000000000002,0.05508928643952538,0.0587575442746826,0.2660217356457019,0.32471717657876326,0.36457545681817183,0.8411491013537375,-0.05625526237032987,-0.05212380988621763,-0.7382070422108395,0.009785500200677921,0.05535339954358953,0.8457555713082927,-0.050474323841140326,0.05303100633790336,0.009467070685576522,0.6067870125732167,-0.2057993033246425,0.030157949932436635,0.0,0.5556017160415649,-0.7600645422935486,12.746504426002502,0.0,0.0,0.0,0.11129548528753673,0.11060404639512361,1.0,0.31220750663381697,0.30637648161079484,0.0,0.0,0.0,0.0,0.0,0.0,0.0
0.3650000000000002,0.0567128723224192,0.06058042155877346,0.2702274811524706,0.3273183474396374,0.36705122240257976,0.8364751523324555,-0.05625526237032987,-0.05212380988621763,-0.7382070422108395,0.009785500200677921,0.05535339954358953,0.8457555713082927,-0.047440388778274244,0.05200200982128014,0.009617860435238705,0.5912128827139124,-0.17655970439629415,0.029942528299731447,0.0,0.5556017160415649,-0.7600645422935486,12.746504426002502,0.0,0.0,0.0,0.11285638487348175,0.11213538047469065,1.0,0.3121521993653385,0.3061566464272146,0.0,0.0,0.0,0.0,0.0,0.0,0.0
0.3700000000000002,0.058349464059617384,0.06241567767078636,0.2744098569141329,0.3298690460213712,0.3693781734721541,0.8317380903024394,-0.05625526237032987,-0.05212380988621763,-0.7382070422108395,0.009785500200677921,0.05535339954358953,0.8457555713082927,-0.04448432436470468,0.051119211299298674,0.009767573076737363,0.5764023166215116,-0.16364251591123377,0.029725653436541367,0.0,0.5556017160415649,-0.7600645422935486,12.746504426002502,0.0,0.0,0.0,0.11441700599751581,0.11366560782332329,1.0,0.31209612189233826,0.3059337896011345,0.0,0.0,0.0,0.0,0.0,0.0,0.0
0.3750000000000002,0.05999880928972424,0.06426256853814713,0.27856854736564507,0.3323764433356018,0.3715601295822429,0.826942110649733,-0.05625526237032987,-0.05212380988621763,-0.7382070422108395,0.009785500200677921,0.05535339954358953,0.8457555713082927,-0.04160231278159712,0.05030099871974251,0.009916201343920069,0.562087071565033,-0.1567964000106231,0.02950731528798579,0.0,0.5556017160415649,-0.7600645422935486,12.746504426002502,0.0,0.0,0.0,0.11597734480896144,0.11519471333829535,1.0,0.3120392743531818,0.30570791333206154,0.0,0.0,0.0,0.0,0.0,0.0,0.0
0.3800000000000002,0.06166069150640225,0.06612036918605835,0.2827032579188937,0.33484370732280516,0.37360072302418024,0.8220912453108571,-0.05625526237032987,-0.05212380988621763,-0.7382070422108395,0.009785500200677921,0.05535339954358953,0.8457555713082927,-0.03879187742377196,0.049517016719689395,0.010063737920359998,0.5481644430001003,-0.15223907996532404,0.029287559682936407,0.0,0.5556017160415649,-0.7600645422935486,12.746504426002502,0.0,0.0,0.0,0.11753739745783771,0.11672268192795276,1.0,0.31198165688813484,0.30547901984930326,0.0,0.0,0.0,0.0,0.0,0.0,0.0
0.38500000000000023,0.06333491004301628,0.06798837280117925,0.286813714145448,0.33727251699290595,0.3755034646118163,0.8171893693152205,-0.05625526237032987,-0.05212380988621763,-0.7382070422108395,0.009785500200677921,0.05535339954358953,0.8457555713082927,-0.03605105520877146,0.04875582131986277,0.01021017571877468,0.5345920246923312,-0.1485743290021797,0.029066466973123015,0.0,0.5556017160415649,-0.7600645422935486,12.746504426002502,0.0,0.0,0.0,0.1190971600948698,0.11824949851186241,1.0,0.3119232696393626,0.30524711141194594,0.0,0.0,0.0,0.0,0.0,0.0,0.0
0.39000000000000024,0.06502127262798081,0.06986589012423833,0.2908996609920241,0.3396639900286452,0.3772717688698065,0.8122402068189004,-0.05625526237032987,-0.05212380988621763,-0.7382070422108395,0.009785500200677921,0.05535339954358953,0.8457555713082927,-0.0333780950853098,0.048012949674851875,0.010355508053640296,0.5213494481093095,-0.14528600910470482,0.02884413805835704,0.0,0.5556017160415649,-0.7600645422935486,12.746504426002502,0.0,0.0,0.0,0.12065662887149846,0.11977514802096098,1.0,0.31186411275092996,0.30501219030883225,0.0,0.0,0.0,0.0,0.0,0.0,0.0
0.39500000000000024,0.06671959257812404,0.07175224896858735,0.2949608620261186,0.3420190252101967,0.37890896443374095,0.8072473367446641,-0.05625526237032987,-0.05212380988621763,-0.7382070422108395,0.009785500200677921,0.05535339954358953,0.8457555713082927,-0.03077134784476325,0.04728651962932835,0.010499728743932082,0.5084244722710476,-0.14218261809374197,0.028620685270105743,0.0,0.5556017160415649,-0.7600645422935486,12.746504426002502,0.0,0.0,0.0,0.1222157999398895,0.12129961539770377,1.0,0.3118041863688006,0.3047742588585386,0.0,0.0,0.0,0.0,0.0,0.0,0.0
0.40000000000000024,0.06842968770417503,0.07364679379075606,0.2989970987098419,0.34433842899801526,0.3804182990455266,0.8022141981058366,-0.05625526237032987,-0.05212380988621763,-0.7382070422108395,0.009785500200677921,0.05535339954358953,0.8457555713082927,-0.02822922548340801,0.04657560653885964,0.01064283217028261,0.4958079253243271,-0.13919241813255798,0.028396226449807625,0.0,0.5556017160415649,-0.7600645422935486,12.746504426002502,0.0,0.0,0.0,0.12377466945294331,0.12282288559621324,1.0,0.3117434906408369,0.30453331940935235,0.0,0.0,0.0,0.0,0.0,0.0,0.0
0.40500000000000025,0.0701513798491651,0.07554888528598369,0.3030081697003711,0.3466229624987463,0.38180294255548775,0.7971440950670255,-0.055181853715139215,-0.04879605829644376,-0.696991830299629,0.03494093678194676,0.07751356821623911,0.7971440950670255,-0.025750185856786376,0.04587964444819685,0.010784813302531648,0.48349186352046164,-0.13628787117930172,0.028170881127083665,0.0,0.5556017160415649,-0.7600645422935486,12.746504426002502,0.0,0.0,0.0,0.1253332335643043,0.12434494358242745,1.0,0.31168202571679954,0.30428937433924863,0.0,0.0,0.0,0.0,0.0,0.0,0.0
0.41000000000000025,0.07188449466165883,0.07745789999876113,0.3069938901757062,0.34887335905893035,0.3830659891717631,0.7919808100372122,-0.055181853715139215,-0.04879605829644376,-0.696991830299629,0.03494093678194676,0.07751356821623911,0.7971440950670255,-0.023332726539184067,0.045198205092300346,0.010925667708167067,0.38323129572619313,-0.15259489737372953,0.027944768077341784,0.0,0.46580399572849274,-0.3445543795824051,12.752392590045929,0.0,0.0,0.0,0.1268914884283705,0.12586577433424861,1.0,0.31161979174834714,0.3040424260558668,0.0,0.0,0.0,0.0,0.0,0.0,0.0
0.41500000000000026,0.07362886145695348,0.07937322994461994,0.31095379422589225,0.3510903310187077,0.38421045940851006,0.7867893794947359,-0.055181853715139215,-0.04879605829644376,-0.696991830299629,0.03494093678194676,0.07751356821623911,0.7971440950670255,-0.0214165700605531,0.0444352306054317,0.011065391548553776,0.341234858441215,-0.1563858184028972,0.027717195039602686,0.0,0.46580399572849274,-0.3445543795824051,12.752392590045929,0.0,0.0,0.0,0.12844943020030294,0.12738536284169116,1.0,0.3115567888890358,0.3037924769964866,0.0,0.0,0.0,0.0,0.0,0.0,0.0
0.42000000000000026,0.07538431311204702,0.08129428224166249,0.3148877411233659,0.3532698790799041,0.3852609421699802,0.7815726260547641,-0.055181853715139215,-0.04879605829644376,-0.696991830299629,0.03494093678194676,0.07751356821623911,0.7971440950670255,-0.019710395768347024,0.04365330151341721,0.011203977523751789,0.3208488618970936,-0.1556203242217918,0.02748858912317586,0.0,0.46580399572849274,-0.3445543795824051,12.752392590045929,0.0,0.0,0.0,0.1300070550360351,0.12890369410703,1.0,0.31149301729431883,0.30353952962800446,0.0,0.0,0.0,0.0,0.0,0.0,0.0
0.42500000000000027,0.07715066250744654,0.08322058695251239,0.31879560425363973,0.3554110735191372,0.3862277370824176,0.776333263500856,-0.055181853715139215,-0.04879605829644376,-0.696991830299629,0.03494093678194676,0.07751356821623911,0.7971440950670255,-0.018106151458861554,0.04287519989230825,0.011341420469367668,0.3085503877166269,-0.15322829642633193,0.027259264952392746,0.0,0.46580399572849274,-0.3445543795824051,12.752392590045929,0.0,0.0,0.0,0.1315643590922826,0.13042075314494855,1.0,0.3114284771215463,0.30328358644690884,0.0,0.0,0.0,0.0,0.0,0.0,0.0
0.43000000000000027,0.07892771787504223,0.08515172563792447,0.32267727057114404,0.3575141020738549,0.38711584381147474,0.7710738992114576,-0.055181853715139215,-0.04879605829644376,-0.696991830299629,0.03494093678194676,0.07751356821623911,0.7971440950670255,-0.01656339952027842,0.04210905841017659,0.01147771679412963,0.2993486002952646,-0.15028743895453148,0.027029461568336334,0.0,0.46580399572849274,-0.3445543795824051,12.752392590045929,0.0,0.0,0.0,0.13312133852655242,0.13193652498268651,1.0,0.3113631685299646,0.30302464997925543,0.0,0.0,0.0,0.0,0.0,0.0,0.0
0.4350000000000003,0.0807152883854115,0.08708730485698185,0.32653264006720134,0.3595795513888741,0.3879282785579444,0.7657970369874794,-0.055181853715139215,-0.04879605829644376,-0.696991830299629,0.03494093678194676,0.07751356821623911,0.7971440950670255,-0.015066656518802098,0.041357621215403935,0.011612864101971312,0.29139987172611437,-0.14719342115392992,0.026799366775746705,0.0,0.46580399572849274,-0.3445543795824051,12.752392590045929,0.0,0.0,0.0,0.13467798949715268,0.13345099466018787,1.0,0.31129709168071634,0.30276272278064276,0.0,0.0,0.0,0.0,0.0,0.0,0.0
0.4400000000000003,0.08251318614235588,0.08902694624977157,0.33036162525213875,0.36160814270948965,0.3886672980601916,0.7605050801017273,-0.055181853715139215,-0.04879605829644376,-0.696991830299629,0.03494093678194676,0.07751356821623911,0.7971440950670255,-0.013609657160171526,0.04062165410963429,0.011746860935850046,0.28402151614703447,-0.14409077950582977,0.026569133224522694,0.0,0.46580399572849274,-0.3445543795824051,12.752392590045929,0.0,0.0,0.0,0.13623430816320178,0.13496414723024824,1.0,0.3112302467368394,0.3024978074361865,0.0,0.0,0.0,0.0,0.0,0.0,0.0
0.4450000000000003,0.08432122685590333,0.09097028274007253,0.3341641506526474,0.3636006348435672,0.38933485174389804,0.755200334453655,-0.055181853715139215,-0.04879605829644376,-0.696991830299629,0.03494093678194676,0.07751356821623911,0.7971440950670255,-0.012189549579436354,0.03990120021210514,0.01187970660197266,0.2769591351057986,-0.14103159704791496,0.026338889049085844,0.0,0.46580399572849274,-0.3445543795824051,12.752392590045929,0.0,0.0,0.0,0.13779029068463816,0.1364759677586627,1.0,0.3111626338632672,0.30222990656049414,0.0,0.0,0.0,0.0,0.0,0.0,0.0
0.4500000000000003,0.08613923003012117,0.09291695699879202,0.33794015232491564,0.36555778871397093,0.38993274915076936,0.749885011754116,-0.055181853715139215,-0.04879605829644376,-0.696991830299629,0.03494093678194676,0.07751356821623911,0.7971440950670255,-0.01080475390390736,0.03919604222686556,0.012011401047218088,0.2701163695645583,-0.13803393719367096,0.02610874492388304,0.0,0.46580399572849274,-0.3445543795824051,12.752392590045929,0.0,0.0,0.0,0.13934593322222957,0.13798644132437293,1.0,0.3110942532268277,0.3019590227976392,0.0,0.0,0.0,0.0,0.0,0.0,0.0
0.4550000000000003,0.08796701897369102,0.09486662074454587,0.3416895773836862,0.3674803545851987,0.39046272232975604,0.7445612326918802,-0.052934212963891725,-0.044628932275068825,-0.6583104226163138,0.05645524958895537,0.08877756350862104,0.7445612326918802,-0.00945417205608457,0.038505872540897206,0.012141944771837504,0.26345521500182195,-0.13510336184643698,0.025878798758169574,0.0,0.46580399572849274,-0.3445543795824051,12.752392590045929,0.0,0.0,0.0,0.14090123193758275,0.1394955530196147,1.0,0.3110251049962433,0.301685158821135,0.0,0.0,0.0,0.0,0.0,0.0,0.0
0.4600000000000003,0.08980442074661701,0.09681893435619465,0.3454123835471456,0.36936906763332966,0.390926449469107,0.7392466511270507,-0.052934212963891725,-0.044628932275068825,-0.6583104226163138,0.05645524958895537,0.08877756350862104,0.7445612326918802,-0.00813689598107546,0.03783035573166502,0.012271338765628352,0.24719327030400537,-0.1398954726732926,0.025649138835181474,0.0,0.43001724779605865,-0.29873576760292053,12.758932411670685,0.0,0.0,0.0,0.1424561829931527,0.1410032879500648,1.0,0.3109551893421304,0.3014083173339085,0.0,0.0,0.0,0.0,0.0,0.0,0.0
0.4650000000000003,0.09165126608478366,0.09877356660354018,0.3491086168027808,0.37122464658196785,0.3913255642169787,0.7339269111293991,-0.052934212963891725,-0.044628932275068825,-0.6583104226163138,0.05645524958895537,0.08877756350862104,0.7445612326918802,-0.006900929629555434,0.03713087836829856,0.012399584459804259,0.23750444271670282,-0.13972410736286078,0.02542005863987886,0.0,0.43001724779605865,-0.29873576760292053,12.758932411670685,0.0,0.0,0.0,0.14401078255225225,0.14250963123498814,1.0,0.310884506436999,0.3011285010682734,0.0,0.0,0.0,0.0,0.0,0.0,0.0
0.4700000000000003,0.0935073893176935,0.10073019442462508,0.35277825135842783,0.3730459161659329,0.3916640548153084,0.7286039064236454,-0.052934212963891725,-0.044628932275068825,-0.6583104226163138,0.05645524958895537,0.08877756350862104,0.7445612326918802,-0.00571340741597192,0.03643225783148425,0.012526684753003654,0.23032811270826606,-0.13776879431047193,0.02519155031645828,0.0,0.43001724779605865,-0.29873576760292053,12.758932411670685,0.0,0.0,0.0,0.14556502677906155,0.14401456800738469,1.0,0.3108130564552521,0.30084571278590316,0.0,0.0,0.0,0.0,0.0,0.0,0.0
0.4750000000000003,0.09537261889852316,0.10268851469870162,0.35642127089054604,0.3748329184125672,0.39194429744906184,0.7232794496844553,-0.052934212963891725,-0.044628932275068825,-0.6583104226163138,0.05645524958895537,0.08877756350862104,0.7445612326918802,-0.00456176685243059,0.03574341385993189,0.012652642504585945,0.22416413126942308,-0.1352006709045414,0.024963629511517954,0.0,0.43001724779605865,-0.29873576760292053,12.758932411670685,0.0,0.0,0.0,0.14711891183863746,0.145518083414136,1.0,0.3107408395731853,0.3005599552778041,0.0,0.0,0.0,0.0,0.0,0.0,0.0
0.4800000000000003,0.097246783490586,0.10464823618594693,0.3600376681389683,0.3765861328623969,0.39216805211317357,0.7179552757830557,-0.052934212963891725,-0.044628932275068825,-0.6583104226163138,0.05645524958895537,0.08877756350862104,0.7445612326918802,-0.0034409461960834744,0.03506741050540919,0.012777460652143535,0.21845701898174802,-0.13245044200070616,0.024736326282454875,0.0,0.43001724779605865,-0.29873576760292053,12.758932411670685,0.0,0.0,0.0,0.14867243389692308,0.14702016261615206,1.0,0.3106678559689868,0.3002712313642874,0.0,0.0,0.0,0.0,0.0,0.0,0.0
0.4850000000000003,0.09912971415489799,0.1066090764465128,0.3636274445178836,0.3783061893476872,0.39233683052409146,0.7126330448008161,-0.052934212963891725,-0.044628932275068825,-0.6583104226163138,0.05645524958895537,0.08877756350862104,0.7445612326918802,-0.0023486611011747345,0.034405158295405656,0.012901142283555808,0.21299985588640286,-0.12967585268355594,0.02450967915494749,0.0,0.43001724779605865,-0.29873576760292053,12.758932411670685,0.0,0.0,0.0,0.15022558912075715,0.14852079078851754,1.0,0.31059410582273617,0.2999795438949416,0.0,0.0,0.0,0.0,0.0,0.0,0.0
0.4900000000000003,0.10102124510163643,0.10857076059913326,0.36719060974188766,0.3799937623620769,0.3924520323511041,0.7073143448593373,-0.052934212963891725,-0.044628932275068825,-0.6583104226163138,0.05645524958895537,0.08877756350862104,0.7445612326918802,-0.0012836618217427203,0.03375677903198788,0.013023690679330546,0.20771436106211166,-0.12693403697964312,0.024283731251587195,0.0,0.43001724779605865,-0.29873576760292053,12.758932411670685,0.0,0.0,0.0,0.15177837367788355,0.1500199531206382,1.0,0.3105195893164047,0.2996848957486041,0.0,0.0,0.0,0.0,0.0,0.0,0.0
0.49500000000000033,0.10292121391344682,0.11053302076088878,0.37072718146618433,0.3816495323735959,0.39251499596346057,0.7020006948006734,-0.052934212963891725,-0.044628932275068825,-0.6583104226163138,0.05645524958895537,0.08877756350862104,0.7445612326918802,-0.00024509001643216195,0.03312210884708966,0.013145109335588483,0.2025697577847695,-0.12424505952879482,0.024058527782240036,0.0,0.43001724779605865,-0.29873576760292053,12.758932411670685,0.0,0.0,0.0,0.15333078373696074,0.15151763481638708,1.0,0.3104443066338545,0.2993872898333333,0.0,0.0,0.0,0.0,0.0,0.0,0.0
0.5000000000000003,0.1048294615753148,0.11249559574070608,0.3742371849401877,0.38327417181254564,0.3925270176287666,0.6966935467408094,-0.052934212963891725,-0.044628932275068825,-0.6583104226163138,0.05645524958895537,0.08877756350862104,0.7445612326918802,0.0007677587724916855,0.032500883549445685,0.013265401974499684,0.1975528399778606,-0.12161534189247045,0.023834114429267656,0.0,0.43001724779605865,-0.29873576760292053,12.758932411670685,0.0,0.0,0.0,0.1548828154675712,0.15301382109425044,1.0,0.310368257960838,0.29908672908637934,0.0,0.0,0.0,0.0,0.0,0.0,0.0
0.5050000000000003,0.10674583243437752,0.11445823082884991,0.37772065267389177,0.38486834015064597,0.3924893590609759,0.6913942885125683,-0.04968863260585346,-0.040050266358623896,-0.6222793473261082,0.0745768966656482,0.0937061425868203,0.6913942885125683,0.0017555229723809885,0.031892806839983336,0.013384572546646023,0.19265692800485848,-0.11904629894966459,0.02361053632037388,0.0,0.43001724779605865,-0.29873576760292053,12.758932411670685,0.0,0.0,0.0,0.15643446504023098,0.1545084971874738,1.0,0.31029144348499776,0.29878321647415557,0.0,0.0,0.0,0.0,0.0,0.0,0.0
0.5100000000000003,0.10867017413513075,0.1164206776241548,0.3811776241164546,0.38643268232614714,0.3924032506591806,0.6863927576819607,-0.04968863260585346,-0.040050266358623896,-0.6222793473261082,0.0745768966656482,0.0937061425868203,0.6913942885125683,0.0027188076124052807,0.031297575345235015,0.013502625228247892,0.41932887250852524,-0.27096494077631283,0.023387837386910915,0.0,-0.29627759009599686,-1.3931670784950256,12.766631424427032,0.0,0.0,0.0,0.15798572862639892,0.15600164834420752,1.0,0.31021386339586593,0.2984767549922088,0.0,0.0,0.0,0.0,0.0,0.0,0.0
0.5150000000000003,0.11060233754676148,0.1183826938774507,0.38460958790486444,0.3879678283968309,0.3922698931457921,0.6813890981611593,-0.04968863260585346,-0.040050266358623896,-0.6222793473261082,0.0745768966656482,0.0937061425868203,0.6913942885125683,0.004815451974947907,0.02994275064135345,0.013619564415182446,0.49401385785127716,-0.32149252634524117,0.023169988675522127,0.0,-0.29627759009599686,-1.3931670784950256,12.766631424427032,0.0,0.0,0.0,0.1595366023984864,0.1574932598276525,1.0,0.3101355178848636,0.2981673476651902,0.0,0.0,0.0,0.0,0.0,0.0,0.0
0.5200000000000004,0.11254217668874564,0.12034404334317966,0.3880165333956702,0.3894365203157893,0.3920336952264209,0.676385029808584,-0.04968863260585346,-0.040050266358623896,-0.6222793473261082,0.0745768966656482,0.0937061425868203,0.6913942885125683,0.0072855212642042935,0.028335288009627244,0.013735414358560056,0.5128635431157814,-0.33473925911486657,0.022955506059098022,0.0,-0.29627759009599686,-1.3931670784950256,12.766631424427032,0.0,0.0,0.0,0.1610870825298665,0.15898331691620557,1.0,0.3100564071453006,0.2978549975468252,0.0,0.0,0.0,0.0,0.0,0.0,0.0
0.5250000000000004,0.11448935929032458,0.12230421181931177,0.3913984585447131,0.39082636619266153,0.39167634040841165,0.6713821791104271,-0.04968863260585346,-0.040050266358623896,-0.6222793473261082,0.0745768966656482,0.0937061425868203,0.6913942885125683,0.0098498389797832,0.026661591714052912,0.013850191888855546,0.5113298730403927,-0.3343581482324159,0.022743431494966573,0.0,-0.29627759009599686,-1.3931670784950256,12.766631424427032,0.0,0.0,0.0,0.1626371651948837,0.16047180490360485,1.0,0.3099765313723747,0.29753970771988336,0.0,0.0,0.0,0.0,0.0,0.0,0.0
0.5300000000000004,0.11644349112128789,0.12426259352135383,0.39475536944026524,0.3921341172662358,0.3911932058064533,0.666382089463899,-0.04968863260585346,-0.040050266358623896,-0.6222793473261082,0.0745768966656482,0.0937061425868203,0.6913942885125683,0.012406488344985164,0.024989800972890833,0.013963909046330379,0.5024812395162292,-0.32907385558581326,0.022533152246899234,0.0,-0.29627759009599686,-1.3931670784950256,12.766631424427032,0.0,0.0,0.0,0.16418684656886307,0.1619587090990748,1.0,0.3098958907631715,0.29722148129614795,0.0,0.0,0.0,0.0,0.0,0.0,0.0
0.5350000000000004,0.11840416170761907,0.1262185595503861,0.39808727988758474,0.3933598670039561,0.39058466755313176,0.6613862287228685,-0.04968863260585346,-0.040050266358623896,-0.6222793473261082,0.0745768966656482,0.0937061425868203,0.6913942885125683,0.01491889454256631,0.023344431694961768,0.014076574807564876,0.49113196104986523,-0.3221026860636993,0.022324281938436948,0.0,-0.29627759009599686,-1.3931670784950256,12.766631424427032,0.0,0.0,0.0,0.1657361228281198,0.16344401482747134,1.0,0.3098144855166637,0.29690032141638534,0.0,0.0,0.0,0.0,0.0,0.0,0.0
