time,pos_x,pos_y,pos_z,vel_x,vel_y,vel_z,pos_xo,pos_yo,pos_zo,vel_xo,vel_yo,vel_zo,roll,pitch,yaw,roll_vel,pitch_vel,yaw_vel,thrust_z,force_x,force_y,force_z,torque_x,torque_y,torque_z,pos_xd,pos_yd,pos_zd,vel_xd,vel_yd,vel_zd,roll_d,pitch_d,yaw_d,roll_vel_d,pitch_vel_d,yaw_vel_d
0.005,-0.007618648957043261,0.013069756409051109,0.9786021711012527,-0.023390080300438397,0.040943669769264605,-0.37174038338174425,-0.007618648957043261,0.013069756409051109,0.5786021711012527,-0.023390080300438397,0.040943669769264605,-0.37174038338174425,-0.003561150841208523,0.012938230110855603,-0.010362748991203107,-0.01755777240096936,0.01474619994615745,-0.008764510534891102,0.0,0.0,0.0,0.0,0.0,0.0,0.0,0.0,0.0,0.4,0.0,0.0,0.0,0.0,0.0,0.0,0.0,0.0,0.0
0.01,-0.007734175367018031,0.013264848338429116,0.9767023714494304,-0.025582337159357246,0.03964835199799098,-0.4118892935625755,-0.007618648957043261,0.013069756409051109,0.5786021711012527,-0.023390080300438397,0.040943669769264605,-0.37174038338174425,-0.0036246379389100318,0.012954083764491385,-0.01042013994454259,0.00219937278486506,-0.021037274824632683,-0.014533321137345631,0.0,-6.0,5.9817506074905396,0.0,0.0,0.0,0.0,0.0,0.0,0.40000478721917954,0.0,0.0,0.001912335339540464,0.0,0.0,0.0,0.0,0.0,0.0
0.015,-0.007875976495221879,0.013463102074482272,0.974540573079065,-0.02937555638427181,0.03878951269909358,-0.4330283439421686,-0.007618648957043261,0.013069756409051109,0.5786021711012527,-0.023390080300438397,0.040943669769264605,-0.37174038338174425,-0.0035484731777600475,0.012667740291947173,-0.010503767349224527,0.017799385490136467,-0.08130596988651803,-0.017609229232124605,0.0,-6.0,5.9817506074905396,0.0,0.0,0.0,0.0,0.0,0.0,0.4000190979065458,0.0,0.0,0.0038094025529743134,0.0,0.0,0.0,0.0,0.0,0.0
0.02,-0.008024555804450249,0.013665204076040159,0.9722838630861623,-0.027802408446653194,0.04090144983852323,-0.4509671147966483,-0.007618648957043261,0.013069756409051109,0.5786021711012527,-0.023390080300438397,0.040943669769264605,-0.37174038338174425,-0.003516119816488336,0.012261554680770174,-0.01059250253235468,-0.011271976481448004,-0.06216949826726714,-0.01755042753128749,0.0,-6.0,5.9817506074905396,0.0,0.0,0.0,0.0,0.0,0.0,0.4000428559502358,0.0,0.0,0.00569129306608472,0.0,0.0,0.0,0.0,0.0,0.0
0.025,-0.00815114377972374,0.013866587900351338,0.9700742083692249,-0.025280855225180865,0.04258470209476702,-0.46858979742476237,-0.007618648957043261,0.013069756409051109,0.5786021711012527,-0.023390080300438397,0.040943669769264605,-0.37174038338174425,-0.0036408436458440405,0.012055978258824606,-0.010674502086960589,-0.03426504278499268,-0.028030387849108246,-0.01644095996592098,0.0,-6.0,5.9817506074905396,0.0,0.0,0.0,0.0,0.0,0.0,0.40007598569429814,0.0,0.0,0.0075580978180245905,0.0,0.0,0.0,0.0,0.0,0.0
0.030000000000000002,-0.008281412845071171,0.014085226934733902,0.9676329166859072,-0.026341585476086775,0.04298191564853033,-0.48745858492707156,-0.007618648957043261,0.013069756409051109,0.5786021711012527,-0.023390080300438397,0.040943669769264605,-0.37174038338174425,-0.003833075685866212,0.011894146409520105,-0.010742204916451404,-0.038711277934704344,-0.04260169646913192,-0.009537959705910157,0.0,-6.0,5.9817506074905396,0.0,0.0,0.0,0.0,0.0,0.0,0.40011841193626585,0.0,0.0,0.009409907263744853,0.0,0.0,0.0,0.0,0.0,0.0
0.035,-0.008421289986766703,0.014305642134906815,0.9650953210719375,-0.02795474323889679,0.043465810903206004,-0.5064005527508205,-0.007618648957043261,0.013069756409051109,0.5786021711012527,-0.023390080300438397,0.040943669769264605,-0.37174038338174425,-0.004048764466612252,0.011606401770648181,-0.010759875853628257,-0.04638964898185763,-0.06265733131394335,0.0016342914192410555,0.0,-6.0,5.9817506074905396,0.0,0.0,0.0,0.0,0.0,0.0,0.40017005992474053,0.0,0.0,0.011246811376411116,0.0,0.0,0.0,0.0,0.0,0.0
0.04,-0.008556885513140235,0.01451374568934926,0.9626187867812652,-0.027643603114030076,0.0431024918459448,-0.5244378308204725,-0.007618648957043261,0.013069756409051109,0.5786021711012527,-0.023390080300438397,0.040943669769264605,-0.37174038338174425,-0.004266680215884598,0.011291032538787035,-0.010727157150701517,-0.042705809703312725,-0.05670322535181329,0.010452373328563106,0.0,-6.0,5.9817506074905396,0.0,0.0,0.0,0.0,0.0,0.0,0.400230855356991,0.0,0.0,0.01306889964980876,0.0,0.0,0.0,0.0,0.0,0.0
0.045,-0.00869697140671213,0.014731195540930211,0.9598933831134637,-0.027082099225200232,0.042004510055869235,-0.543296416983482,-0.007618648957043261,0.013069756409051109,0.5786021711012527,-0.023390080300438397,0.040943669769264605,-0.37174038338174425,-0.004451216776929142,0.011012286518522428,-0.010653196407117198,-0.027525689769280624,-0.050265731025541244,0.01724524610796848,0.0,-6.0,5.9817506074905396,0.0,0.0,0.0,0.0,0.0,0.0,0.40030072437656083,0.0,0.0,0.014876261100736476,0.0,0.0,0.0,0.0,0.0,0.0
0.049999999999999996,-0.008835324758213508,0.014941870322749703,0.9570713387331444,-0.02717874676099212,0.04056086183588317,-0.5620860482420911,-0.007618648957043261,0.013069756409051109,0.5786021711012527,-0.023390080300438397,0.040943669769264605,-0.37174038338174425,-0.00453883285162594,0.010745380466119605,-0.010554533546289338,-0.006657351252453696,-0.054887170628133614,0.019985792186521606,0.0,-6.0,5.9817506074905396,0.0,0.0,0.0,0.0,0.0,0.0,0.4003795935708907,0.0,0.0,0.016668984271388368,0.0,0.0,0.0,0.0,0.0,0.0
0.05499999999999999,-0.008964419124254617,0.015134572568419342,0.9543266237975438,-0.026872830771479145,0.039583482619068806,-0.5801394648892048,-0.008964419124254617,0.015134572568419342,0.5538592338285935,-0.026872830771479145,0.039583482619068806,-0.5985866221209294,-0.004544181018771109,0.010495839427061207,-0.010461655709743327,0.006036233507689717,-0.05308278887973068,0.01784049258105517,0.0,-6.0,5.9817506074905396,0.0,0.0,0.0,0.0,0.0,0.0,0.40046738996895037,0.0,0.0,0.018447157231724604,0.0,0.0,0.0,0.0,0.0,0.0
0.05999999999999999,-0.00909840510899295,0.015337394326406231,0.9513152512312213,-0.025971937686673087,0.03974678830115482,-0.5997043517442666,-0.008964419124254617,0.015134572568419342,0.5538592338285935,-0.026872830771479145,0.039583482619068806,-0.5985866221209294,-0.004531272878478769,0.010266340039216159,-0.01037808669242729,0.0017743458977788607,-0.041218642035287384,0.01508096077306997,0.0,-6.0,5.524148941040039,0.0,0.0,0.0,0.0,0.0,0.0,0.40056404103888354,0.0,0.0,0.020210867581830744,0.0,0.0,0.0,0.0,0.0,0.0
0.06499999999999999,-0.00923009667664211,0.015543382713963605,0.9482039967328935,-0.025714992419361312,0.04077064643768572,-0.6193138938809514,-0.008964419124254617,0.015134572568419342,0.5538592338285935,-0.026872830771479145,0.039583482619068806,-0.5985866221209294,-0.004575141896325117,0.010067276694416918,-0.010300591535209314,-0.015788738217543428,-0.03766183239104456,0.015287790496697337,0.0,-6.0,5.524148941040039,0.0,0.0,0.0,0.0,0.0,0.0,0.40066947468566505,0.0,0.0,0.02196020245426571,0.0,0.0,0.0,0.0,0.0,0.0
0.06999999999999999,-0.0093542145451244,0.015741841593340435,0.9451852476699242,-0.02607453110900691,0.04159060126886966,-0.6374779975250452,-0.008964419124254617,0.015134572568419342,0.5538592338285935,-0.026872830771479145,0.039583482619068806,-0.5985866221209294,-0.004698032810273612,0.009878426874948523,-0.010224352393321336,-0.03086520706177495,-0.04207214897971745,0.016037404446230214,0.0,-6.0,5.524148941040039,0.0,0.0,0.0,0.0,0.0,0.0,0.40078361924876804,0.0,0.0,0.023695248516398523,0.0,0.0,0.0,0.0,0.0,0.0
0.075,-0.009485802149590142,0.015953477021092725,0.9418815771944451,-0.025888978365807325,0.04141100601458178,-0.6572609739336123,-0.008964419124254617,0.015134572568419342,0.5538592338285935,-0.026872830771479145,0.039583482619068806,-0.5985866221209294,-0.004856408951683678,0.00969059805583518,-0.010138116912811473,-0.03131815720825183,-0.03698033247108693,0.017658644978791726,0.0,-6.0,5.524148941040039,0.0,0.0,0.0,0.0,0.0,0.0,0.40090640349984485,0.0,0.0,0.025416091972733854,0.0,0.0,0.0,0.0,0.0,0.0
0.08,-0.009617283160223773,0.0161624889162809,0.9384763934613046,-0.026096837874866066,0.04077965804095964,-0.677138794265986,-0.008964419124254617,0.015134572568419342,0.5538592338285935,-0.026872830771479145,0.039583482619068806,-0.5985866221209294,-0.004989904789345902,0.009518398086115555,-0.010036982158742125,-0.024576380076267116,-0.03735789283245584,0.021896043592936523,0.0,-6.0,5.524148941040039,0.0,0.0,0.0,0.0,0.0,0.0,0.40103775664041785,0.0,0.0,0.027122818567226366,0.0,0.0,0.0,0.0,0.0,0.0
0.085,-0.009742437851069749,0.01635788915838744,0.9351783647608085,-0.026209583346645464,0.040870245526984234,-0.6959777629881923,-0.008964419124254617,0.015134572568419342,0.5538592338285935,-0.026872830771479145,0.039583482619068806,-0.5985866221209294,-0.005106170475534919,0.009345838187290281,-0.009917958462275884,-0.027310274490536905,-0.03752696228088255,0.02690474943030077,0.0,-6.0,5.524148941040039,0.0,0.0,0.0,0.0,0.0,0.0,0.40117760829958227,0.0,0.0,0.028815513585584013,0.0,0.0,0.0,0.0,0.0,0.0
0.09000000000000001,-0.009876620704064535,0.01656682408267312,0.9315749062068717,-0.026428505170917077,0.04107683366774382,-0.7160614409276987,-0.008964419124254617,0.015134572568419342,0.5538592338285935,-0.026872830771479145,0.039583482619068806,-0.5985866221209294,-0.00524882423553786,0.00915179649437234,-0.00976647393801249,-0.02916383546118348,-0.03947241612094859,0.031631321591224906,0.0,-6.0,5.524148941040039,0.0,0.0,0.0,0.0,0.0,0.0,0.4013258885317216,0.0,0.0,0.030494261857560257,0.0,0.0,0.0,0.0,0.0,0.0
0.09500000000000001,-0.010013017598297208,0.01677421585932276,0.9278688357004587,-0.027055322357637315,0.04027568058714404,-0.7362080966988356,-0.008964419124254617,0.015134572568419342,0.5538592338285935,-0.026872830771479145,0.039583482619068806,-0.5985866221209294,-0.005358953195707407,0.008931289450411281,-0.009591149534147131,-0.015171933680291136,-0.04771576069355113,0.03600600947222229,0.0,-6.0,5.524148941040039,0.0,0.0,0.0,0.0,0.0,0.0,0.40148252781423244,0.0,0.0,0.03215914775923528,0.0,0.0,0.0,0.0,0.0,0.0
0.10000000000000002,-0.010143976322343951,0.016964997457848487,0.9242868649864235,-0.02765195762281976,0.03950396895059715,-0.755041099057025,-0.008964419124254617,0.015134572568419342,0.5538592338285935,-0.026872830771479145,0.039583482619068806,-0.5985866221209294,-0.005388021866925736,0.008687271551640542,-0.00941180897757027,-0.0019255617200859278,-0.05695357878346192,0.03757221312911395,0.0,-6.0,5.524148941040039,0.0,0.0,0.0,0.0,0.0,0.0,0.40164745704526283,0.0,0.0,0.03381025521528627,0.0,0.0,0.0,0.0,0.0,0.0
0.10500000000000002,-0.010283528738898498,0.017166267188353058,0.9203825712105079,-0.027405076548600176,0.03968432993250621,-0.7747319626551903,-0.010283528738898498,0.017166267188353058,0.5185619636690479,-0.027405076548600176,0.03968432993250621,-0.8101796303564371,-0.005387493450351881,0.008416566266611311,-0.009219378764638825,-0.002293948221926039,-0.05455059604510701,0.037494397911930905,0.0,-6.0,5.524148941040039,0.0,0.0,0.0,0.0,0.0,0.0,0.40182060754146,0.0,0.0,0.03544766770124683,0.0,0.0,0.0,0.0,0.0,0.0
0.11000000000000003,-0.010420313617719494,0.017369576368414873,0.9163791483507777,-0.026728376004517346,0.040015003120897084,-0.7941533737105592,-0.010283528738898498,0.017166267188353058,0.5185619636690479,-0.027405076548600176,0.03968432993250621,-0.8101796303564371,-0.005404801432603253,0.008183085989853924,-0.009022518459888579,-0.004951297599104603,-0.04460102299493983,0.03955943971204639,0.0,-6.0,-5.340438723564148,0.0,0.0,0.0,0.0,0.0,0.0,0.4020019110357309,0.0,0.0,0.03707146824575544,0.0,0.0,0.0,0.0,0.0,0.0
0.11500000000000003,-0.010545697160232344,0.01756216427200312,0.9125209802031975,-0.02599552956582615,0.039944027370698326,-0.8124140957382824,-0.010283528738898498,0.017166267188353058,0.5185619636690479,-0.027405076548600176,0.03968432993250621,-0.8101796303564371,-0.005431984931540664,0.008013306083249183,-0.00882454734269969,-0.003302852483626068,-0.0338065136490145,0.04230890139342176,0.0,-6.0,-5.340438723564148,0.0,0.0,0.0,0.0,0.0,0.0,0.402191299675013,0.0,0.0,0.03868173943279329,0.0,0.0,0.0,0.0,0.0,0.0
0.12000000000000004,-0.010676406616668552,0.01776744248327275,0.9083255346051122,-0.025644260266614805,0.04028734631294212,-0.8319180891008192,-0.010283528738898498,0.017166267188353058,0.5185619636690479,-0.027405076548600176,0.03968432993250621,-0.8101796303564371,-0.005471966426629019,0.007867706561261288,-0.008601420110235987,-0.009409529304825904,-0.02931110152197277,0.04466212644388407,0.0,-6.0,-5.340438723564148,0.0,0.0,0.0,0.0,0.0,0.0,0.40238870601805676,0.0,0.0,0.04027856340391121,0.0,0.0,0.0,0.0,0.0,0.0
0.12500000000000003,-0.010807053929318326,0.017975027638302433,0.9040290371714305,-0.02586021806709947,0.041042050159458415,-0.8520104347588401,-0.010283528738898498,0.017166267188353058,0.5185619636690479,-0.027405076548600176,0.03968432993250621,-0.8101796303564371,-0.005553882539451086,0.007722708188647695,-0.00836654466966222,-0.02232799474708293,-0.03191034375595834,0.0469007834148656,0.0,-6.0,-5.340438723564148,0.0,0.0,0.0,0.0,0.0,0.0,0.4025940630332189,0.0,0.0,0.04186202186044599,0.0,0.0,0.0,0.0,0.0,0.0
0.13000000000000003,-0.010930966363228201,0.018174179491913817,0.8998896568371313,-0.025889839674554237,0.04202194916570945,-0.8715294106065079,-0.010283528738898498,0.017166267188353058,0.5185619636690479,-0.027405076548600176,0.03968432993250621,-0.8101796303564371,-0.005694220219868156,0.007577316542525762,-0.008137201753633545,-0.03809283406564221,-0.031286019328049,0.04809246259800847,0.0,-6.0,-5.340438723564148,0.0,0.0,0.0,0.0,0.0,0.0,0.40280730409626664,0.0,0.0,0.04343219606572607,0.0,0.0,0.0,0.0,0.0,0.0
0.13500000000000004,-0.01106265832480395,0.018389565834338446,0.8953867766078257,-0.026159494715444112,0.04240502032564028,-0.8929323002302184,-0.010283528738898498,0.017166267188353058,0.5185619636690479,-0.027405076548600176,0.03968432993250621,-0.8101796303564371,-0.00590518023529397,0.00742958212824534,-0.007889992724137271,-0.04505785584076929,-0.03319633310361083,0.04851473654885592,0.0,-6.0,-5.340438723564148,0.0,0.0,0.0,0.0,0.0,0.0,0.403028362988194,0.0,0.0,0.04498916684726656,0.0,0.0,0.0,0.0,0.0,0.0
0.14000000000000004,-0.011196565911047835,0.018603389423421365,0.8907753054735308,-0.026744131804422734,0.04137616475017301,-0.9141068192593567,-0.010283528738898498,0.017166267188353058,0.5185619636690479,-0.027405076548600176,0.03968432993250621,-0.8101796303564371,-0.0061015914954170095,0.007265873594359892,-0.007642173875281837,-0.03180537100766591,-0.03744598645464307,0.04804847394226774,0.0,-6.0,-5.340438723564148,0.0,0.0,0.0,0.0,0.0,0.0,0.4032571738930468,0.0,0.0,0.046533014598953766,0.0,0.0,0.0,0.0,0.0,0.0
0.14500000000000005,-0.011324738855252495,0.018799372401334866,0.8863380628869691,-0.02680159854360105,0.04037362346613013,-0.9335061462455639,-0.010283528738898498,0.017166267188353058,0.5185619636690479,-0.027405076548600176,0.03968432993250621,-0.8101796303564371,-0.006215507539742173,0.007102666863288633,-0.007414261942430338,-0.017427144087377618,-0.03379159632186468,0.0464112608967387,0.0,-6.0,-5.340438723564148,0.0,0.0,0.0,0.0,0.0,0.0,0.40349367139576164,0.0,0.0,0.04806381928321922,0.0,0.0,0.0,0.0,0.0,0.0
0.15000000000000005,-0.011461842618214087,0.01900501034449549,0.8815226864308738,-0.027015370975212283,0.04039863047063981,-0.9536703950026619,-0.010283528738898498,0.017166267188353058,0.5185619636690479,-0.027405076548600176,0.03968432993250621,-0.8101796303564371,-0.006292811289701408,0.006936373405060627,-0.007179257369857738,-0.015180217771214649,-0.033331467555118385,0.045703232512195706,0.0,-6.0,-5.340438723564148,0.0,0.0,0.0,0.0,0.0,0.0,0.40373779048001235,0.0,0.0,0.0495816604332033,0.0,0.0,0.0,0.0,0.0,0.0
0.15500000000000005,-0.011600839271515496,0.019211602454792382,0.8766047792741173,-0.027484766850861105,0.040716984382314365,-0.9737073177465098,-0.011600839271515496,0.019211602454792382,0.47261531274804713,-0.027484766850861105,0.040716984382314365,-1.0247939349014181,-0.0063661407789274765,0.0067586471532745775,-0.006941890640132131,-0.01597405083174884,-0.03727767237759102,0.047106750710344605,0.0,-6.0,-5.340438723564148,0.0,0.0,0.0,0.0,0.0,0.0,0.40398946652607015,0.0,0.0,0.0510866171549083,0.0,0.0,0.0,0.0,0.0,0.0
0.16000000000000006,-0.011821621516648338,0.019324056561894985,0.8718995546495792,-0.07254205779506334,-0.0009048314298994121,-0.9834956044419435,-0.011600839271515496,0.019211602454792382,0.47261531274804713,-0.027484766850861105,0.040716984382314365,-1.0247939349014181,-0.005234063509861462,0.005320753516230693,-0.0066849652614159654,0.5905554732584403,-0.6790179023883895,0.06006961366329963,0.0,-6.0,-5.999290466308594,0.0004711151123046875,0.0,0.0,0.0,0.0,0.0,0.40424863530867283,0.0,0.0,0.052578768129341355,0.0,0.0,0.0,0.0,0.0,0.0
0.16500000000000006,-0.012393368360415836,0.019136463305910234,0.8668766066331762,-0.1477698888602219,-0.06827282440314464,-0.9860767536587668,-0.011600839271515496,0.019211602454792382,0.47261531274804713,-0.027484766850861105,0.040716984382314365,-1.0247939349014181,0.0004143249282814143,-0.0009642881392997741,-0.006263729555315598,1.5703450922839686,-1.7400942131066042,0.10059372913979668,0.0,-6.0,-5.999290466308594,0.0004711151123046875,0.0,0.0,0.0,0.0,0.0,0.4045152329949051,0.0,0.0,0.05405819161464694,0.0,0.0,0.0,0.0,0.0,0.0
0.17000000000000007,-0.013384299684452157,0.018594612729567087,0.8618439855602105,-0.23714268651131437,-0.13909689846020293,-0.9876110943537899,-0.011600839271515496,0.019211602454792382,0.47261531274804713,-0.027484766850861105,0.040716984382314365,-1.0247939349014181,0.011198381109601087,-0.013135736580808341,-0.005681649826992065,2.6037304329572235,-3.000750499361821,0.15301613907563005,0.0,-6.0,-5.999290466308594,0.0004711151123046875,0.0,0.0,0.0,0.0,0.0,0.40478919614208964,0.0,0.0,0.055524965448229116,0.0,0.0,0.0,0.0,0.0,0.0
0.17500000000000007,-0.014772066409223662,0.017765100821572705,0.8570939294771331,-0.33473044061835033,-0.1988050525210011,-0.992614204820059,-0.011600839271515496,0.019211602454792382,0.47261531274804713,-0.027484766850861105,0.040716984382314365,-1.0247939349014181,0.025978131866000485,-0.030999757168089826,-0.005155005972584469,3.4716212672218836,-4.377865128038165,0.20160288034389184,0.0,-6.0,-5.999290466308594,0.0004711151123046875,0.0,0.0,0.0,0.0,0.0,0.40507046169568883,0.0,0.0,0.056979167048863626,0.0,0.0,0.0,0.0,0.0,0.0
0.18000000000000008,-0.01665575024409004,0.016633760391968417,0.8519654980857754,-0.38555079110395857,-0.23746595230599118,-1.0211840608362572,-0.011600839271515496,0.019211602454792382,0.47261531274804713,-0.027484766850861105,0.040716984382314365,-1.0247939349014181,0.045283238549344206,-0.05571295912457242,-0.004938726630147023,4.02584983922468,-5.086057195934162,0.2190915759512672,0.0,-6.0,-5.999290466308594,0.0004711151123046875,0.0,0.0,0.0,0.0,0.0,0.40535896698721685,0.0,0.0,0.058420873418799785,0.0,0.0,0.0,0.0,0.0,0.0
0.18500000000000008,-0.018606117136494953,0.01539519547930051,0.8466534121589797,-0.36540977406104447,-0.23666072835972418,-1.0578113203700708,-0.011600839271515496,0.019211602454792382,0.47261531274804713,-0.027484766850861105,0.040716984382314365,-1.0247939349014181,0.066104969640814,-0.08130087308891787,-0.00529575876617361,3.9953363163395412,-4.783688642615156,0.1965358027828925,0.0,-6.0,-5.999290466308594,0.0004711151123046875,0.0,0.0,0.0,0.0,0.0,0.4056546497321616,0.0,0.0,0.05985016114585228,0.0,0.0,0.0,0.0,0.0,0.0
0.19000000000000009,-0.020250819700762923,0.014345936725149411,0.8415316248728704,-0.32063316284047694,-0.19739181275147305,-1.073486157725376,-0.011600839271515496,0.019211602454792382,0.47261531274804713,-0.027484766850861105,0.040716984382314365,-1.0247939349014181,0.08393636841870471,-0.10251998403205131,-0.0060133537406676305,3.394549312589943,-4.104157681709279,0.17185137356695065,0.0,-6.0,-5.999290466308594,0.0004711151123046875,0.0,0.0,0.0,0.0,0.0,0.4059574480279191,0.0,0.0,0.06126710640548294,0.0,0.0,0.0,0.0,0.0,0.0
0.1950000000000001,-0.021838356564966688,0.01340410506714921,0.8359997744156665,-0.3088201649344406,-0.17919491605740132,-1.0976616083706043,-0.011600839271515496,0.019211602454792382,0.47261531274804713,-0.027484766850861105,0.040716984382314365,-1.0247939349014181,0.10026238364170766,-0.12255401048047071,-0.007050882804408577,3.0972414631797904,-3.893838000919903,0.14978078545189977,0.0,-6.0,-5.999290466308594,0.0004711151123046875,0.0,0.0,0.0,0.0,0.0,0.4062673003517354,0.0,0.0,0.0626717849628724,0.0,0.0,0.0,0.0,0.0,0.0
0.2000000000000001,-0.023479008104861122,0.012428101123246594,0.8303036507260646,-0.3336217949774539,-0.20514267342187104,-1.135683912041054,-0.011600839271515496,0.019211602454792382,0.47261531274804713,-0.027484766850861105,0.040716984382314365,-1.0247939349014181,0.1169937446116327,-0.1431013552375914,-0.008601651739039505,3.436814736385397,-4.2074387748007664,0.1267257869525773,0.0,-6.0,-5.999290466308594,0.0004711151123046875,0.0,0.0,0.0,0.0,0.0,0.4065841455586616,0.0,0.0,0.0640642721749819,0.0,0.0,0.0,0.0,0.0,0.0
0.2050000000000001,-0.025120296886385507,0.011397387963118986,0.8247643114761545,-0.340509216267015,-0.21439843438335765,-1.1684361648591262,-0.025120296886385507,0.011397387963118986,0.41785638859663754,-0.340509216267015,-0.21439843438335765,-1.2338808078517312,0.13427551029564966,-0.16355522916883106,-0.010634000282225255,3.52367655499934,-4.252878174850631,0.11261020760559727,0.0,-6.0,-5.999290466308594,0.0004711151123046875,0.0,0.0,0.0,0.0,0.0,0.40690792287951694,0.0,0.0,0.06544464299260506,0.0,0.0,0.0,0.0,0.0,0.0
0.2100000000000001,-0.02665561539945445,0.010295339077088368,0.8188009896185414,-0.24451459486553886,-0.21753700725571512,-1.1605683602475407,-0.025120296886385507,0.011397387963118986,0.41785638859663754,-0.340509216267015,-0.21439843438335765,-1.2338808078517312,0.1523719030327962,-0.1818143726526894,-0.012744381925776722,3.4487015115471875,-2.7264154646120216,0.10090229746477637,0.0,5.98585832118988,-5.6299073696136475,0.0004253983497619629,0.0,0.0,0.0,0.0,0.0,0.4072385719188636,0.0,0.0,0.06681297196240991,0.0,0.0,0.0,0.0,0.0,0.0
0.2150000000000001,-0.02752091895393346,0.009158547340494611,0.8129902452791207,-0.10129368605148467,-0.2261472305591608,-1.118918080942866,-0.025120296886385507,0.011397387963118986,0.41785638859663754,-0.340509216267015,-0.21439843438335765,-1.2338808078517312,0.1699011594983368,-0.1895787715136091,-0.013480173001831366,3.3781891468049983,-0.43990851695595223,0.10257866361980517,0.0,5.98585832118988,-5.6299073696136475,0.0004253983497619629,0.0,0.0,0.0,0.0,0.0,0.40757603265299125,0.0,0.0,0.06816933322897092,0.0,0.0,0.0,0.0,0.0,0.0
0.2200000000000001,-0.027644249466693707,0.00804627382901163,0.8077435907537687,0.04195621636252572,-0.23468307571774535,-1.0694973200629634,-0.025120296886385507,0.011397387963118986,0.41785638859663754,-0.340509216267015,-0.21439843438335765,-1.2338808078517312,0.18566866750658273,-0.1860150121816628,-0.012301409930796396,3.284463497813995,1.8666009588613188,0.103305430430105,0.0,5.98585832118988,-5.6299073696136475,0.0004253983497619629,0.0,0.0,0.0,0.0,0.0,0.40792024542791083,0.0,0.0,0.06951380053679138,0.0,0.0,0.0,0.0,0.0,0.0
0.22500000000000012,-0.026998110015163918,0.006824446421427124,0.8024309767427615,0.2013725965121839,-0.24251145291192494,-1.0184246642489827,-0.025120296886385507,0.011397387963118986,0.41785638859663754,-0.340509216267015,-0.21439843438335765,-1.2338808078517312,0.2014028870564426,-0.170062708104159,-0.00856689765783577,3.1613257562498944,4.408147797193098,0.09989625830484071,0.0,5.98585832118988,-5.6299073696136475,0.0004253983497619629,0.0,0.0,0.0,0.0,0.0,0.40827115095736055,0.0,0.0,0.07084644723231605,0.0,0.0,0.0,0.0,0.0,0.0
0.23000000000000012,-0.025599191045788967,0.005608809485706037,0.7973073758504897,0.3291095599669787,-0.22824645121396892,-0.998131383065224,-0.025120296886385507,0.011397387963118986,0.41785638859663754,-0.340509216267015,-0.21439843438335765,-1.2338808078517312,0.21569175007424782,-0.14264290447621217,-0.002141161454212079,2.798254402358948,6.38505294228348,0.10465940418762125,0.0,5.98585832118988,-5.6299073696136475,0.0004253983497619629,0.0,0.0,0.0,0.0,0.0,0.4086286903208194,0.0,0.0,0.07216734626593393,0.0,0.0,0.0,0.0,0.0,0.0
0.23500000000000013,-0.023962310642053626,0.004551010943860154,0.7924256774491956,0.32086505327246445,-0.2133144384819723,-1.039397169682172,-0.025120296886385507,0.011397387963118986,0.41785638859663754,-0.340509216267015,-0.21439843438335765,-1.2338808078517312,0.22751985944056294,-0.11218259154783979,0.005317852010085445,2.5640601363859252,6.258581662747321,0.11183876508637902,0.0,5.98585832118988,-5.6299073696136475,0.0004253983497619629,0.0,0.0,0.0,0.0,0.0,0.40899280496153245,0.0,0.0,0.07347657019397169,0.0,0.0,0.0,0.0,0.0,0.0
0.24000000000000013,-0.022572918073400956,0.0034849583170168674,0.7870355816456959,0.2237373907984324,-0.2068201071293856,-1.069198690002141,-0.025120296886385507,0.011397387963118986,0.41785638859663754,-0.340509216267015,-0.21439843438335765,-1.2338808078517312,0.2392590578711872,-0.08479920376544803,0.012461572654673476,2.35719134689296,4.883147908195883,0.11650666342315155,0.0,5.98585832118988,-5.6299073696136475,0.0004253983497619629,0.0,0.0,0.0,0.0,0.0,0.4093634366845452,0.0,0.0,0.07477419118067714,0.0,0.0,0.0,0.0,0.0,0.0
0.24500000000000013,-0.021534702221017273,0.002393677323737166,0.7815011953668687,0.2004321743693922,-0.22130448828573845,-1.100808809011621,-0.025120296886385507,0.011397387963118986,0.41785638859663754,-0.340509216267015,-0.21439843438335765,-1.2338808078517312,0.2510376537595538,-0.06224591168460475,0.018703563731110356,2.4811484208210333,4.568269286886203,0.10512031052044608,0.0,5.98585832118988,-5.6299073696136475,0.0004253983497619629,0.0,0.0,0.0,0.0,0.0,0.40974052765474867,0.0,0.0,0.0760602810001935,0.0,0.0,0.0,0.0,0.0,0.0
0.2500000000000001,-0.020478886729824182,0.001320874173751093,0.7761441566246637,0.2380271089307765,-0.2200126270950401,-1.1285440243502483,-0.025120296886385507,0.011397387963118986,0.41785638859663754,-0.340509216267015,-0.21439843438335765,-1.2338808078517312,0.26258965862916644,-0.0399367635990682,0.025040131613108804,2.409771524780104,5.112441709732443,0.08263019273965758,0.0,5.98585832118988,-5.6299073696136475,0.0004253983497619629,0.0,0.0,0.0,0.0,0.0,0.41012402039493323,0.0,0.0,0.07733491103852384,0.0,0.0,0.0,0.0,0.0,0.0
0.2550000000000001,-0.019212373759741355,0.00023503377667134784,0.7703137359462698,0.24415598091318522,-0.20658086450512214,-1.1563776381981035,-0.019212373759741355,0.00023503377667134784,0.35979987816241676,0.24415598091318522,-0.20658086450512214,-1.2349757904935899,0.2739146967935909,-0.014297228415745076,0.0324693476368162,2.13869275557895,5.193193161800832,0.06247090913525375,0.0,5.98585832118988,-5.6299073696136475,0.0004253983497619629,0.0,0.0,0.0,0.0,0.0,0.4105138577838531,0.0,0.0,0.0785981522954863,0.0,0.0,0.0,0.0,0.0,0.0
0.2600000000000001,-0.01807822407856123,-0.0007345659246817092,0.7643906530962084,0.19151566390917366,-0.16657815419172262,-1.1594085886144208,-0.019212373759741355,0.00023503377667134784,0.35979987816241676,0.24415598091318522,-0.20658086450512214,-1.2349757904935899,0.28309768306047084,0.009465447715545326,0.039530822070085306,1.367499577017464,4.447072908650856,0.0325380747295254,0.0,-5.999624848365784,5.753466725349426,0.11583155393600464,0.0,0.0,0.0,0.0,0.0,0.4109099830542998,0.0,0.0,0.07985007538665972,0.0,0.0,0.0,0.0,0.0,0.0
0.2650000000000001,-0.017332258379494314,-0.0013945258166105923,0.7588667971221409,0.12017339027021331,-0.11084771626627055,-1.1416415555631443,-0.019212373759741355,0.00023503377667134784,0.35979987816241676,0.24415598091318522,-0.20658086450512214,-1.2349757904935899,0.2870745322376473,0.027518123622832475,0.04485272519366071,0.2994102123159713,3.4404894282032186,-0.022453007955960093,0.0,-5.999624848365784,5.753466725349426,0.11583155393600464,0.0,0.0,0.0,0.0,0.0,0.41131233979118653,0.0,0.0,0.08109075054532004,0.0,0.0,0.0,0.0,0.0,0.0
0.27000000000000013,-0.016935140171435305,-0.0017906308678452346,0.7531168916243022,0.036872011370321124,-0.047128218568139535,-1.1133266794618812,-0.019212373759741355,0.00023503377667134784,0.35979987816241676,0.24415598091318522,-0.20658086450512214,-1.2349757904935899,0.2854410294938716,0.04141543743292644,0.04863742063059337,-0.9450848607752149,2.248906425399465,-0.09392372013014758,0.0,-5.999624848365784,5.753466725349426,0.11583155393600464,0.0,0.0,0.0,0.0,0.0,0.41172087192964124,0.0,0.0,0.08232024762436707,0.0,0.0,0.0,0.0,0.0,0.0
0.27500000000000013,-0.016989440729253152,-0.001841368697990918,0.7475307608671371,-0.05435418595112955,0.02218135198782023,-1.0787728210398,-0.019212373759741355,0.00023503377667134784,0.35979987816241676,0.24415598091318522,-0.20658086450512214,-1.2349757904935899,0.2770639112891946,0.0492430304835557,0.05020623510872426,-2.2903975367173826,0.9387497920536962,-0.16584156336104844,0.0,-5.999624848365784,5.753466725349426,0.11583155393600464,0.0,0.0,0.0,0.0,0.0,0.41213552375310925,0.0,0.0,0.0835386360982424,0.0,0.0,0.0,0.0,0.0,0.0
0.28000000000000014,-0.017480949304337783,-0.0015496180790420776,0.7424314892860844,-0.14568092391852405,0.09445724627583313,-1.0480304857767697,-0.019212373759741355,0.00023503377667134784,0.35979987816241676,0.24415598091318522,-0.20658086450512214,-1.2349757904935899,0.2626592680560854,0.05065734104057983,0.0496190538426528,-3.6333159943617606,-0.3652333711682633,-0.22488662330995438,0.0,-5.999624848365784,5.753466725349426,0.11583155393600464,0.0,0.0,0.0,0.0,0.0,0.4125562398914657,0.0,0.0,0.08474598506483777,0.0,0.0,0.0,0.0,0.0,0.0
0.28500000000000014,-0.018563475134153712,-0.0009113476075314521,0.7371584615270431,-0.27733287911472904,0.14228342730621088,-1.0228382622100738,-0.019212373759741355,0.00023503377667134784,0.35979987816241676,0.24415598091318522,-0.20658086450512214,-1.2349757904935899,0.24099672481762494,0.04447326839264526,0.04669741821531945,-4.63313385234575,-2.263468579066115,-0.2812990457122892,0.0,-5.999624848365784,5.753466725349426,0.11583155393600464,0.0,0.0,0.0,0.0,0.0,0.41298296531913825,0.0,0.0,0.08594236324739417,0.0,0.0,0.0,0.0,0.0,0.0
0.29000000000000015,-0.020412439594043985,-0.0001405408459169144,0.7319987508434564,-0.43906216367437656,0.15143357140086638,-1.0029947412654487,-0.019212373759741355,0.00023503377667134784,0.35979987816241676,0.24415598091318522,-0.20658086450512214,-1.2349757904935899,0.2157750165709728,0.02752792318202675,0.04117503679256354,-5.076672074768995,-4.604683285450738,-0.324377191924563,0.0,-5.999624848365784,5.753466725349426,0.11583155393600464,0.0,0.0,0.0,0.0,0.0,0.4134156453532377,0.0,0.0,0.0871278389963921,0.0,0.0,0.0,0.0,0.0,0.0
0.29500000000000015,-0.022776817278556676,0.0005588589164641639,0.7271443781936748,-0.5187209620665213,0.13426887629541878,-1.0264078131255032,-0.019212373759741355,0.00023503377667134784,0.35979987816241676,0.24415598091318522,-0.20658086450512214,-1.2349757904935899,0.1914226851596626,0.0026925588488325557,0.03443459606531614,-4.944379371088778,-5.753757523134973,-0.33098421344495565,0.0,-5.999624848365784,5.753466725349426,0.11583155393600464,0.0,0.0,0.0,0.0,0.0,0.4138542256516995,0.0,0.0,0.08830248029143234,0.0,0.0,0.0,0.0,0.0,0.0
0.30000000000000016,-0.02536686609281517,0.0011804646515848338,0.7218002480256642,-0.4758780058867764,0.10863654332568672,-1.0638147968243503,-0.019212373759741355,0.00023503377667134784,0.35979987816241676,0.24415598091318522,-0.20658086450512214,-1.2349757904935899,0.1672896166685923,-0.024995772874066756,0.027738461258230873,-4.57154857469709,-5.145204812038115,-0.31611639309045,0.0,-5.999624848365784,5.753466725349426,0.11583155393600464,0.0,0.0,0.0,0.0,0.0,0.41429865221143347,0.0,0.0,0.08946635474310793,0.0,0.0,0.0,0.0,0.0,0.0
0.30500000000000016,-0.027594737874277173,0.001710727833767899,0.7163096433349866,-0.4034085717911148,0.10059101838140047,-1.0884910956275191,-0.027594737874277173,0.001710727833767899,0.3015607719685024,-0.4034085717911148,0.10059101838140047,-1.1791106252223862,0.1446366258887594,-0.047728638209978136,0.02254093516438526,-4.44362968129988,-4.097899351263605,-0.3076498268937851,0.0,-5.999624848365784,5.753466725349426,0.11583155393600464,0.0,0.0,0.0,0.0,0.0,0.4147488713664842,0.0,0.0,0.09061952959486701,0.0,0.0,0.0,0.0,0.0,0.0
0.31000000000000016,-0.029384474310566767,0.002120357975981516,0.7110326563081127,-0.34272422220181753,0.05987346204253009,-1.1074988814713862,-0.027594737874277173,0.001710727833767899,0.3015607719685024,-0.4034085717911148,0.10059101838140047,-1.1791106252223862,0.12465848850789661,-0.0648213390627306,0.01873905953548791,-3.865405957585839,-3.2130074227736216,-0.30574806793227144,0.0,4.540273904800415,-5.999967813491821,0.8191002607345581,0.0,0.0,0.0,0.0,0.0,0.41520482978619944,0.0,0.0,0.09176207172486651,0.0,0.0,0.0,0.0,0.0,0.0
0.31500000000000017,-0.030945035187573893,0.002244681740525235,0.7053569929307282,-0.26983150999097505,-0.01063175724866669,-1.115691151122932,-0.027594737874277173,0.001710727833767899,0.3015607719685024,-0.4034085717911148,0.10059101838140047,-1.1791106252223862,0.10776398201414554,-0.07811955375616178,0.015563143605308069,-2.886440294936968,-2.1408759267264896,-0.32402889653112626,0.0,4.540273904800415,-5.999967813491821,0.8191002607345581,0.0,0.0,0.0,0.0,0.0,0.415666474473408,0.0,0.0,0.09289404764781724,0.0,0.0,0.0,0.0,0.0,0.0
0.3200000000000002,-0.03211837476556019,0.0019920066398453652,0.6996615293941985,-0.19306815924420062,-0.08625126332668714,-1.1167310618713744,-0.027594737874277173,0.001710727833767899,0.3015607719685024,-0.4034085717911148,0.10059101838140047,-1.1791106252223862,0.09605342469111007,-0.08574155174815502,0.013057477475242586,-1.836739647998963,-0.9837023726468797,-0.34328014665057377,0.0,4.540273904800415,-5.999967813491821,0.8191002607345581,0.0,0.0,0.0,0.0,0.0,0.41613375276260767,0.0,0.0,0.09401552351681979,0.0,0.0,0.0,0.0,0.0,0.0
0.3250000000000002,-0.03286081012975202,0.001395410267175188,0.6943060122997281,-0.120183287484749,-0.15912984060479057,-1.114219178570585,-0.027594737874277173,0.001710727833767899,0.3015607719685024,-0.4034085717911148,0.10059101838140047,-1.1791106252223862,0.08995499610102432,-0.08747107230133128,0.011204046518517748,-0.8272521549264221,0.13236453754390115,-0.3536701463933804,0.0,4.540273904800415,-5.999967813491821,0.8191002607345581,0.0,0.0,0.0,0.0,0.0,0.41660661231816165,0.0,0.0,0.09512656512519153,0.0,0.0,0.0,0.0,0.0,0.0
0.3300000000000002,-0.033262088819811915,0.00037761687740779995,0.6886333397010311,-0.04231857185708514,-0.23528215013022524,-1.110484587267253,-0.027594737874277173,0.001710727833767899,0.3015607719685024,-0.4034085717911148,0.10059101838140047,-1.1791106252223862,0.08872706672011917,-0.08344551470767461,0.009712474576792368,0.2286315601504073,1.3160419456921248,-0.36708317382820094,0.0,4.540273904800415,-5.999967813491821,0.8191002607345581,0.0,0.0,0.0,0.0,0.0,0.4170850011325039,0.0,0.0,0.09622723790828512,0.0,0.0,0.0,0.0,0.0,0.0
0.3350000000000002,-0.033270827653207505,-0.0010178501998343512,0.6829739231919216,0.032918543151029316,-0.30644928171140345,-1.1095284757874182,-0.027594737874277173,0.001710727833767899,0.3015607719685024,-0.4034085717911148,0.10059101838140047,-1.1791106252223862,0.09267727974278384,-0.07354571530007215,0.008686524048315972,1.2200387828101915,2.4415172135902523,-0.3822776586829434,0.0,4.540273904800415,-5.999967813491821,0.8191002607345581,0.0,0.0,0.0,0.0,0.0,0.41756886752435407,0.0,0.0,0.09731760694529785,0.0,0.0,0.0,0.0,0.0,0.0
0.3400000000000002,-0.032929041309250326,-0.0026567144530754714,0.6776414619865553,0.10293646911974537,-0.37162282612450476,-1.1130192453040626,-0.027594737874277173,0.001710727833767899,0.3015607719685024,-0.4034085717911148,0.10059101838140047,-1.1791106252223862,0.10087124461009922,-0.059074050407368336,0.008211343188458868,2.128271251911923,3.4715116974850306,-0.3948440960269765,0.0,4.540273904800415,-5.999967813491821,0.8191002607345581,0.0,0.0,0.0,0.0,0.0,0.4180581601369411,0.0,0.0,0.09839773696107249,0.0,0.0,0.0,0.0,0.0,0.0
0.3450000000000002,-0.032228954495041484,-0.004775569132954708,0.6719377697627993,0.16234290220150288,-0.45605678515015957,-1.1247448532190845,-0.027594737874277173,0.001710727833767899,0.3015607719685024,-0.4034085717911148,0.10059101838140047,-1.1791106252223862,0.11475602769488957,-0.03882615220268256,0.008356593474850817,3.2982625488357744,4.331584309549767,-0.3983871184183289,0.0,4.540273904800415,-5.999967813491821,0.8191002607345581,0.0,0.0,0.0,0.0,0.0,0.41855282793623594,0.0,0.0,0.09946769232788925,0.0,0.0,0.0,0.0,0.0,0.0
0.3500000000000002,-0.03127949921398925,-0.007292919950096939,0.666138989603131,0.2020113511660983,-0.5185206916098648,-1.1506495224737756,-0.027594737874277173,0.001710727833767899,0.3015607719685024,-0.4034085717911148,0.10059101838140047,-1.1791106252223862,0.13410212622490533,-0.015036482984008594,0.009316873757371403,4.158666637909975,4.901833242038989,-0.38314180847570684,0.0,4.540273904800415,-5.999967813491821,0.8191002607345581,0.0,0.0,0.0,0.0,0.0,0.41905282020919365,0.0,0.0,0.1005275370672493,0.0,0.0,0.0,0.0,0.0,0.0
0.3550000000000002,-0.030281445361826143,-0.009809497982230311,0.6605245984011183,0.20326825703267046,-0.5169506716504259,-1.1874676358008998,-0.030281445361826143,-0.009809497982230311,0.24096651183911555,0.20326825703267046,-0.5169506716504259,-1.2890449706525493,0.1543156722581216,0.008780102550134889,0.010994205978047459,4.118729969996706,4.915214941472818,-0.351374396181853,0.0,4.540273904800415,-5.999967813491821,0.8191002607345581,0.0,0.0,0.0,0.0,0.0,0.4195580865620028,0.0,0.0,0.10157733485164956,0.0,0.0,0.0,0.0,0.0,0.0
0.3600000000000002,-0.029342195897059754,-0.012352306798891797,0.6544104937516872,0.15386936503335352,-0.4725316027666149,-1.2022411284512982,-0.030281445361826143,-0.009809497982230311,0.24096651183911555,0.20326825703267046,-0.5169506716504259,-1.2890449706525493,0.17375152402374378,0.032259717015000466,0.01313629302064864,3.398847904079992,4.190075149492709,-0.3302067723246464,0.0,-3.606348752975464,5.991111516952515,0.00962144136428833,0.0,0.0,0.0,0.0,0.0,0.42006857691834654,0.0,0.0,0.10261714900634873,0.0,0.0,0.0,0.0,0.0,0.0
0.3650000000000002,-0.028751709531355543,-0.014597594051355262,0.6483052799851271,0.0815973830203973,-0.4113677195821968,-1.1926091988211134,-0.030281445361826143,-0.009809497982230311,0.24096651183911555,0.20326825703267046,-0.5169506716504259,-1.2890449706525493,0.1883432622579059,0.050708411102916524,0.014801367738504606,2.378910769657425,3.1375728605651747,-0.33590540438036104,0.0,-3.606348752975464,5.991111516952515,0.00962144136428833,0.0,0.0,0.0,0.0,0.0,0.42058424151766893,0.0,0.0,0.10364704251112512,0.0,0.0,0.0,0.0,0.0,0.0
0.3700000000000002,-0.02851873879601723,-0.016433625840396534,0.6426154841407588,0.017055260566539304,-0.3548609259158164,-1.1779952575742254,-0.030281445361826143,-0.009809497982230311,0.24096651183911555,0.20326825703267046,-0.5169506716504259,-1.2890449706525493,0.1973726537738956,0.06345574523756743,0.01559484478314787,1.4046476971805257,2.185105852192929,-0.3582253395426266,0.0,-3.606348752975464,5.991111516952515,0.00962144136428833,0.0,0.0,0.0,0.0,0.0,0.4211050309134535,0.0,0.0,0.10466707800202579,0.0,0.0,0.0,0.0,0.0,0.0
0.3750000000000002,-0.028618624508092674,-0.018063757411382605,0.6366667681466344,-0.05347006282865658,-0.28723623962758216,-1.155606307610015,-0.030281445361826143,-0.009809497982230311,0.24096651183911555,0.20326825703267046,-0.5169506716504259,-1.2890449706525493,0.2013624344093228,0.07195056251775013,0.015363261603536725,0.22312028201058093,1.1175577727391697,-0.39096272708960406,0.0,-3.606348752975464,5.991111516952515,0.00962144136428833,0.0,0.0,0.0,0.0,0.0,0.4216308959715084,0.0,0.0,0.10567731777310717,0.0,0.0,0.0,0.0,0.0,0.0
0.3800000000000002,-0.02908516592977573,-0.019332634185668173,0.6308426509954745,-0.12506367744010966,-0.21528160507154595,-1.1298287056533542,-0.030281445361826143,-0.009809497982230311,0.24096651183911555,0.20326825703267046,-0.5169506716504259,-1.2890449706525493,0.19898338119574022,0.07501811973600167,0.013854063729809081,-1.0313103309660405,0.017105809513232047,-0.4252960251645036,0.0,-3.606348752975464,5.991111516952515,0.00962144136428833,0.0,0.0,0.0,0.0,0.0,0.42216178786826,0.0,0.0,0.10667782377816744,0.0,0.0,0.0,0.0,0.0,0.0
0.38500000000000023,-0.02985677498664446,-0.020189966690545298,0.6254836811364893,-0.19178439869817554,-0.14704348882783708,-1.104747965577162,-0.030281445361826143,-0.009809497982230311,0.24096651183911555,0.20326825703267046,-0.5169506716504259,-1.2890449706525493,0.19083333309833664,0.07294484203378725,0.011264352224461056,-2.21135878722285,-1.0041402663668038,-0.4619291422182792,0.0,-3.606348752975464,5.991111516952515,0.00962144136428833,0.0,0.0,0.0,0.0,0.0,0.42269765808905746,0.0,0.0,0.10766865763247033,0.0,0.0,0.0,0.0,0.0,0.0
0.39000000000000024,-0.031025644292127882,-0.02073813660711585,0.6199144476681558,-0.26116459477428444,-0.07457207635387778,-1.081627682764337,-0.030281445361826143,-0.009809497982230311,0.24096651183911555,0.20326825703267046,-0.5169506716504259,-1.2890449706525493,0.17593384820115818,0.0655488823063128,0.007375405079389472,-3.4404892356138808,-2.055583074453367,-0.5042052406685064,0.0,-3.606348752975464,5.991111516952515,0.00962144136428833,0.0,0.0,0.0,0.0,0.0,0.4232384584264828,0.0,0.0,0.10864988061446078,0.0,0.0,0.0,0.0,0.0,0.0
0.39500000000000024,-0.03257058019544395,-0.02094713154683793,0.6144405684566091,-0.34037916388556294,-0.016799178239346763,-1.0674253773121467,-0.030281445361826143,-0.009809497982230311,0.24096651183911555,0.20326825703267046,-0.5169506716504259,-1.2890449706525493,0.15532543510805022,0.05256560699427296,0.002485843689988997,-4.412432524748531,-3.238263645065965,-0.542114720426388,0.0,-3.606348752975464,5.991111516952515,0.00962144136428833,0.0,0.0,0.0,0.0,0.0,0.42378414097867234,0.0,0.0,0.10962155366747216,0.0,0.0,0.0,0.0,0.0,0.0
0.40000000000000024,-0.03442230200554647,-0.02091914480830829,0.6093316150048568,-0.4249963969289884,0.020308025092896573,-1.0628861818387263,-0.030281445361826143,-0.009809497982230311,0.24096651183911555,0.20326825703267046,-0.5169506716504259,-1.2890449706525493,0.1322225616753336,0.03447235839172085,-0.0028173696327824208,-5.030906551052281,-4.479723220945106,-0.562011530924694,0.0,-3.606348752975464,5.991111516952515,0.00962144136428833,0.0,0.0,0.0,0.0,0.0,0.42433465814764426,0.0,0.0,0.11058373740142523,0.0,0.0,0.0,0.0,0.0,0.0
0.40500000000000025,-0.036738626194695354,-0.020734885898371684,0.6038649472731663,-0.4668822447364582,0.04539123657240825,-1.084102469097118,-0.036738626194695354,-0.020734885898371684,0.1789749846355294,-0.4668822447364582,0.04539123657240825,-1.195638961191637,0.10530831874729488,0.010095713578198573,-0.008621510029896189,-5.417048090227751,-5.088398550127925,-0.5621558451276728,0.0,-3.606348752975464,5.991111516952515,0.00962144136428833,0.0,0.0,0.0,0.0,0.0,0.4248899626376369,0.0,0.0,0.11153649209451899,0.0,0.0,0.0,0.0,0.0,0.0
0.41000000000000025,-0.03910368582248566,-0.0205006554935491,0.5982519424163714,-0.44644759156312913,0.03307987634470557,-1.11234354872931,-0.036738626194695354,-0.020734885898371684,0.1789749846355294,-0.4668822447364582,0.04539123657240825,-1.195638961191637,0.0777668265423179,-0.015154553725725915,-0.013768747074726409,-5.248886466332506,-4.796501366387692,-0.5410348830113885,0.0,5.999771475791931,-5.9999953508377075,6.014111399650574,0.0,0.0,0.0,0.0,0.0,0.4254500074534532,0.0,0.0,0.11247987769491316,0.0,0.0,0.0,0.0,0.0,0.0
0.41500000000000026,-0.04110303195879433,-0.020461591363664242,0.592889279038747,-0.3861792175865267,-0.01851649098460057,-1.1188682233483198,-0.036738626194695354,-0.020734885898371684,0.1789749846355294,-0.4668822447364582,0.04539123657240825,-1.195638961191637,0.0544429447350926,-0.035772086113313645,-0.017679672695058393,-4.53299827155704,-3.9143236051958277,-0.5181316582405336,0.0,5.999771475791931,-5.9999953508377075,6.014111399650574,0.0,0.0,0.0,0.0,0.0,0.42601474589881594,0.0,0.0,0.11341395382240269,0.0,0.0,0.0,0.0,0.0,0.0
0.42000000000000026,-0.042917277071959345,-0.02067658307179957,0.5871817630787612,-0.32806105564450155,-0.06314595713345261,-1.118968550170702,-0.036738626194695354,-0.020734885898371684,0.1789749846355294,-0.4668822447364582,0.04539123657240825,-1.195638961191637,0.03323326102420083,-0.05321267424639261,-0.021047224018843923,-3.9185609753162556,-3.044690779565114,-0.4990904349477646,0.0,5.999771475791931,-5.9999953508377075,6.014111399650574,0.0,0.0,0.0,0.0,0.0,0.42658413157472885,0.0,0.0,0.11433877977008415,0.0,0.0,0.0,0.0,0.0,0.0
0.42500000000000027,-0.04443854498258671,-0.02110444575243072,0.581486294796372,-0.26998639379860095,-0.10624233853256002,-1.113138485515738,-0.036738626194695354,-0.020734885898371684,0.1789749846355294,-0.4668822447364582,0.04539123657240825,-1.195638961191637,0.014951796926942637,-0.06627973512062554,-0.023841713371392854,-3.3242398238546214,-2.146352346160998,-0.46995728654553054,0.0,5.999771475791931,-5.9999953508377075,6.014111399650574,0.0,0.0,0.0,0.0,0.0,0.42715811837784845,0.0,0.0,0.11525441450601379,0.0,0.0,0.0,0.0,0.0,0.0
0.43000000000000027,-0.04559593102510909,-0.021732751418548957,0.5761699842634611,-0.21441240435374115,-0.1564837427232515,-1.100979941180743,-0.036738626194695354,-0.020734885898371684,0.1789749846355294,-0.4668822447364582,0.04539123657240825,-1.195638961191637,0.0008930302064679585,-0.07432257938755886,-0.0260900463822309,-2.6095868920553587,-1.2565914211110605,-0.439469458091512,0.0,5.999771475791931,-5.9999953508377075,6.014111399650574,0.0,0.0,0.0,0.0,0.0,0.42773666049886183,0.0,0.0,0.11616091667485798,0.0,0.0,0.0,0.0,0.0,0.0
0.4350000000000003,-0.04652845862504239,-0.022680275550792283,0.5705991947830084,-0.1546335195912048,-0.2135552572788029,-1.0840552526915923,-0.036738626194695354,-0.020734885898371684,0.1789749846355294,-0.4668822447364582,0.04539123657240825,-1.195638961191637,-0.010031768353143325,-0.07811544530834655,-0.028249046463253283,-1.7800567687943543,-0.28617702665278444,-0.41187366275260584,0.0,5.999771475791931,-5.9999953508377075,6.014111399650574,0.0,0.0,0.0,0.0,0.0,0.42831971242087463,0.0,0.0,0.11705834459953526,0.0,0.0,0.0,0.0,0.0,0.0
0.4400000000000003,-0.0471581660838889,-0.023924002939266262,0.565114720125486,-0.09671025015192024,-0.2715971971973299,-1.0675556847654575,-0.036738626194695354,-0.020734885898371684,0.1789749846355294,-0.4668822447364582,0.04539123657240825,-1.195638961191637,-0.016667381734037378,-0.07703418819771042,-0.030291582685730217,-0.9334201307427924,0.6543679052631943,-0.38091937760313427,0.0,5.999771475791931,-5.9999953508377075,6.014111399650574,0.0,0.0,0.0,0.0,0.0,0.42890722891780586,0.0,0.0,0.11794675628285083,0.0,0.0,0.0,0.0,0.0,0.0
0.4450000000000003,-0.04748688091881948,-0.025363258994787412,0.5600279741335958,-0.04500929269714382,-0.32482662733560047,-1.053194621541875,-0.036738626194695354,-0.020734885898371684,0.1789749846355294,-0.4668822447364582,0.04539123657240825,-1.195638961191637,-0.01901249312556404,-0.07177014614756981,-0.032141520150367774,-0.15194600237997752,1.4868714059095465,-0.3497386040106183,0.0,5.999771475791931,-5.9999953508377075,6.014111399650574,0.0,0.0,0.0,0.0,0.0,0.4294991650527923,0.0,0.0,0.11882620940912263,0.0,0.0,0.0,0.0,0.0,0.0
0.4500000000000003,-0.04756768604696247,-0.02717393255921152,0.5546929650857211,0.00856376648810616,-0.38224044761210363,-1.040024758908764,-0.036738626194695354,-0.020734885898371684,0.1789749846355294,-0.4668822447364582,0.04539123657240825,-1.195638961191637,-0.017416524405466618,-0.061909720190145005,-0.03403073283730205,0.6860056769235443,2.3372668057714794,-0.31977731202834003,0.0,5.999771475791931,-5.9999953508377075,6.014111399650574,0.0,0.0,0.0,0.0,0.0,0.4300954761765987,0.0,0.0,0.1196967613458,0.0,0.0,0.0,0.0,0.0,0.0
0.4550000000000003,-0.0474295581069962,-0.029339880549460594,0.549418962187318,0.036588264425249276,-0.46736672183123085,-1.0295090231048087,-0.0474295581069962,-0.029339880549460594,0.11872284426127933,0.036588264425249276,-0.46736672183123085,-1.150067492249883,-0.010705820998465313,-0.04847981024093817,-0.035776373293715046,1.9235690359168167,2.83117872956994,-0.2882282309728774,0.0,5.999771475791931,-5.9999953508377075,6.014111399650574,0.0,0.0,0.0,0.0,0.0,0.4306961179260387,0.0,0.0,0.12055846914507425,0.0,0.0,0.0,0.0,0.0,0.0
0.4600000000000003,-0.047213760796087835,-0.03157241717058616,0.5444627842260775,0.04923842171585151,-0.43329731724757425,-1.034759356946442,-0.0474295581069962,-0.029339880549460594,0.11872284426127933,0.036588264425249276,-0.46736672183123085,-1.150067492249883,-0.0016140552422875165,-0.03431342194367986,-0.03711473480463305,1.4338039117946348,3.024126056624777,-0.23547936393641392,0.0,5.908470869064331,5.9192469120025635,8.675430595874786,0.0,0.0,0.0,0.0,0.0,0.43130104622240206,0.0,0.0,0.12141138954548139,0.0,0.0,0.0,0.0,0.0,0.0
0.4650000000000003,-0.04695754377090935,-0.03343174993635126,0.5392248366053991,0.049305481959721786,-0.2988316518305794,-1.0176108927908825,-0.0474295581069962,-0.029339880549460594,0.11872284426127933,0.036588264425249276,-0.46736672183123085,-1.150067492249883,0.0007116038355753097,-0.018999322061717054,-0.03818345036844631,-0.4836646986289683,2.9807698839827834,-0.19338798777497748,0.0,5.908470869064331,5.9192469120025635,8.675430595874786,0.0,0.0,0.0,0.0,0.0,0.4319102172698901,0.0,0.0,0.12225557897349741,0.0,0.0,0.0,0.0,0.0,0.0
0.4700000000000003,-0.04666077954112766,-0.03458261120571849,0.5340893852783564,0.06621207612786459,-0.16082455286402073,-0.9972232071802796,-0.0474295581069962,-0.029339880549460594,0.11872284426127933,0.036588264425249276,-0.46736672183123085,-1.150067492249883,-0.007050126165041245,-0.0033436225228446977,-0.03915608748070979,-2.4590688591188132,3.176077740884414,-0.17701782402660873,0.0,5.908470869064331,5.9192469120025635,8.675430595874786,0.0,0.0,0.0,0.0,0.0,0.4325235875540602,0.0,0.0,0.12309109354512524,0.0,0.0,0.0,0.0,0.0,0.0
0.4750000000000003,-0.046331395077834125,-0.03516048282629894,0.529309348960336,0.06395746147524684,-0.10296371275867168,-0.9973605385873449,-0.0474295581069962,-0.029339880549460594,0.11872284426127933,0.036588264425249276,-0.46736672183123085,-1.150067492249883,-0.02157533689502623,0.011908670855910469,-0.0401901944828279,-3.2880676564492264,3.1188088488806587,-0.16397480678370766,0.0,5.908470869064331,5.9192469120025635,8.675430595874786,0.0,0.0,0.0,0.0,0.0,0.4331411138402762,0.0,0.0,0.12391798906747456,0.0,0.0,0.0,0.0,0.0,0.0
0.4800000000000003,-0.0460429868737066,-0.03578145230332624,0.5241991988990987,0.04874902486019504,-0.15576295538609367,-1.0040176334893298,-0.0474295581069962,-0.029339880549460594,0.11872284426127933,0.036588264425249276,-0.46736672183123085,-1.150067492249883,-0.03695611806146257,0.027190313090037686,-0.04137654808599372,-2.539754265436111,2.9104745302462343,-0.12046439366528211,0.0,5.908470869064331,5.9192469120025635,8.675430595874786,0.0,0.0,0.0,0.0,0.0,0.4337627531721694,0.0,0.0,0.12473632104033379,0.0,0.0,0.0,0.0,0.0,0.0
0.4850000000000003,-0.04580287676760297,-0.036728954667860955,0.5190647790977501,0.044360600409286514,-0.2043587108197747,-1.008593821247774,-0.0474295581069962,-0.029339880549460594,0.11872284426127933,0.036588264425249276,-0.46736672183123085,-1.150067492249883,-0.04771302392304964,0.04178823381664259,-0.042487807041105295,-1.8386286670854453,2.829412265760132,-0.07687658443904676,0.0,5.908470869064331,5.9192469120025635,8.675430595874786,0.0,0.0,0.0,0.0,0.0,0.43438846287010413,0.0,0.0,0.1255461446577342,0.0,0.0,0.0,0.0,0.0,0.0
0.4900000000000003,-0.045613943778864796,-0.03767211589066527,0.514206607298559,0.032978892879026285,-0.17820595430828623,-1.0158523988706507,-0.0474295581069962,-0.029339880549460594,0.11872284426127933,0.036588264425249276,-0.46736672183123085,-1.150067492249883,-0.05700053913587955,0.05478018913394512,-0.043448290819097395,-2.1746409445354327,2.5980639497983766,-0.042371345808237204,0.0,5.908470869064331,5.9192469120025635,8.675430595874786,0.0,0.0,0.0,0.0,0.0,0.4350182005296541,0.0,0.0,0.12634751480950682,0.0,0.0,0.0,0.0,0.0,0.0
0.49500000000000033,-0.04546555071145502,-0.03847910627999062,0.5089985254316745,0.027114636652455823,-0.14825108429512002,-1.0254133996931536,-0.0474295581069962,-0.029339880549460594,0.11872284426127933,0.036588264425249276,-0.46736672183123085,-1.150067492249883,-0.06939133111168942,0.06745815336887928,-0.04437940249535287,-2.54339544210294,2.4474449162124428,-0.012746890373818986,0.0,5.908470869064331,5.9192469120025635,8.675430595874786,0.0,0.0,0.0,0.0,0.0,0.4356519240200851,0.0,0.0,0.12714048608283146,0.0,0.0,0.0,0.0,0.0,0.0
0.5000000000000003,-0.04530559312065831,-0.039264181548094926,0.5037479966084009,0.0350864928208294,-0.167130186824687,-1.0318891022170387,-0.0474295581069962,-0.029339880549460594,0.11872284426127933,0.036588264425249276,-0.46736672183123085,-1.150067492249883,-0.08181777421673515,0.08006937404145656,-0.04535207973637325,-2.218326115090415,2.5334823733781078,0.006220857155344023,0.0,5.908470869064331,5.9192469120025635,8.675430595874786,0.0,0.0,0.0,0.0,0.0,0.4362895914828451,0.0,0.0,0.12792511276377846,0.0,0.0,0.0,0.0,0.0,0.0
0.5050000000000003,-0.04511837830698977,-0.04011508476886023,0.49877883112985694,0.03930508825636124,-0.18379607050775695,-1.037913089360466,-0.04511837830698977,-0.04011508476886023,0.06184766979979389,0.03930508825636124,-0.18379607050775695,-1.1666145381993087,-0.09168545512603016,0.09233437586603402,-0.04634524692072418,-1.9272174470657344,2.563325573580078,0.025806363406905453,0.0,5.908470869064331,5.9192469120025635,8.675430595874786,0.0,0.0,0.0,0.0,0.0,0.43693116133006304,0.0,0.0,0.12870144883884282,0.0,0.0,0.0,0.0,0.0,0.0
0.5100000000000003,-0.04504060669743806,-0.04109386260797564,0.4935323917223288,-0.021697342816745957,-0.20127659546754856,-1.0115635712065383,-0.04511837830698977,-0.04011508476886023,0.06184766979979389,0.03930508825636124,-0.18379607050775695,-1.1666145381993087,-0.10063260678867643,0.10336650392591408,-0.04724243173166111,-1.5306134328008913,1.6053133484815665,0.03627816749949028,0.0,5.97601854801178,5.848878979682922,25.99228858947754,0.0,0.0,0.0,0.0,0.0,0.43757659224305434,0.0,0.0,0.12946954799647076,0.0,0.0,0.0,0.0,0.0,0.0
0.5150000000000003,-0.04537305208548245,-0.04221724319524942,0.48851607474872466,-0.10069734570031338,-0.24305602140134194,-0.9570000170293887,-0.04511837830698977,-0.04011508476886023,0.06184766979979389,0.03930508825636124,-0.18379607050775695,-1.1666145381993087,-0.10652025320245022,0.1080887417854127,-0.04756210115496967,-0.7299295783953447,0.3801694114438055,0.03010520925407968,0.0,5.97601854801178,5.848878979682922,25.99228858947754,0.0,0.0,0.0,0.0,0.0,0.4382258431708349,0.0,0.0,0.13022946362857926,0.0,0.0,0.0,0.0,0.0,0.0
0.5200000000000004,-0.04592329866446218,-0.043488889373613754,0.4840772865898534,-0.11278797881173742,-0.2798498266609678,-0.8943405546107834,-0.04511837830698977,-0.04011508476886023,0.06184766979979389,0.03930508825636124,-0.18379607050775695,-1.1666145381993087,-0.10802838082506216,0.10869439617503401,-0.04750070146179153,-0.017852873113261766,0.0925326360386731,0.02360966047494904,0.0,5.97601854801178,5.848878979682922,25.99228858947754,0.0,0.0,0.0,0.0,0.0,0.43887887332864206,0.0,0.0,0.13098124883206777,0.0,0.0,0.0,0.0,0.0,0.0
0.5250000000000004,-0.04639149057490185,-0.04486506619624143,0.47968009384555405,-0.06869843106756682,-0.25005124578177806,-0.8365212123480201,-0.04511837830698977,-0.04011508476886023,0.06184766979979389,0.03930508825636124,-0.18379607050775695,-1.1666145381993087,-0.10840129280649162,0.11024224259399867,-0.04755442197458247,-0.2805820059943275,0.5512722271594831,0.020087171705195438,0.0,5.97601854801178,5.848878979682922,25.99228858947754,0.0,0.0,0.0,0.0,0.0,0.4395356421964631,0.0,0.0,0.13172495641032286,0.0,0.0,0.0,0.0,0.0,0.0
0.5300000000000004,-0.046650739107724416,-0.04599824407313622,0.4755729277843045,-0.03966100666783889,-0.1968430299723027,-0.7751238863885831,-0.04511837830698977,-0.04011508476886023,0.06184766979979389,0.03930508825636124,-0.18379607050775695,-1.1666145381993087,-0.11142173683577329,0.11382192047612749,-0.047849585377366215,-0.8684986239949237,0.7768360936502213,0.023334873257013042,0.0,5.97601854801178,5.848878979682922,25.99228858947754,0.0,0.0,0.0,0.0,0.0,0.4401961095175717,0.0,0.0,0.13246063887471551,0.0,0.0,0.0,0.0,0.0,0.0
0.5350000000000004,-0.04681695331218604,-0.04687940289242041,0.4720204235108397,-0.03370480875121413,-0.1803594115338426,-0.7082654237059977,-0.04511837830698977,-0.04011508476886023,0.06184766979979389,0.03930508825636124,-0.18379607050775695,-1.1666145381993087,-0.11609909872111525,0.11748979815995225,-0.048123663454104834,-0.9364150824444346,0.7160765144888203,0.038292162903826206,0.0,5.97601854801178,5.848878979682922,25.99228858947754,0.0,0.0,0.0,0.0,0.0,0.4408602352970713,0.0,0.0,0.13318834844609095,0.0,0.0,0.0,0.0,0.0,0.0
0.5400000000000004,-0.04698374307253597,-0.04783191429231022,0.46860205697581286,-0.03182038480413899,-0.1959227182499877,-0.6365573015091233,-0.04511837830698977,-0.04011508476886023,0.06184766979979389,0.03930508825636124,-0.18379607050775695,-1.1666145381993087,-0.11988892453551407,0.12083000170402679,-0.048244258470456075,-0.5171706028910223,0.5977110584069151,0.06861134583765986,0.0,5.97601854801178,5.848878979682922,25.99228858947754,0.0,0.0,0.0,0.0,0.0,0.44152797980044656,0.0,0.0,0.13390813705625157,0.0,0.0,0.0,0.0,0.0,0.0
0.5450000000000004,-0.04713705492069399,-0.048835615161990094,0.4655498756211339,-0.02837741402305858,-0.19292102301247227,-0.5637429636495698,-0.04511837830698977,-0.04011508476886023,0.06184766979979389,0.03930508825636124,-0.18379607050775695,-1.1666145381993087,-0.12182987061680915,0.12353074244699912,-0.04813968081641702,-0.32475264182953395,0.45467110964345675,0.09893965433261129,0.0,5.97601854801178,5.848878979682922,25.99228858947754,0.0,0.0,0.0,0.0,0.0,0.44219930355212145,0.0,0.0,0.13462005634943225,0.0,0.0,0.0,0.0,0.0,0.0
0.5500000000000004,-0.047242712250712776,-0.0496901282849951,0.463015237259931,-0.013112449547819913,-0.16034102199244893,-0.4978384660885073,-0.04511837830698977,-0.04011508476886023,0.06184766979979389,0.03930508825636124,-0.18379607050775695,-1.1666145381993087,-0.12378176462940912,0.12568717456291897,-0.04784826773847044,-0.5631212688545179,0.4705849866985866,0.1262288092304775,0.0,5.97601854801178,5.848878979682922,25.99228858947754,0.0,0.0,0.0,0.0,0.0,0.4428741673340253,0.0,0.0,0.13532415768376888,0.0,0.0,0.0,0.0,0.0,0.0
0.5550000000000004,-0.047251539571506594,-0.050438113079748444,0.46066291271437365,0.007615471013917116,-0.13822508408235945,-0.42808937634719535,-0.047251539571506594,-0.050438113079748444,0.017110380530207747,0.007615471013917116,-0.13822508408235945,-0.5641098684799548,-0.12699419014049315,0.12840327110804253,-0.047510212545506664,-0.6558044863118923,0.5578358824440572,0.136426797581331,0.0,5.97601854801178,5.848878979682922,25.99228858947754,0.0,0.0,0.0,0.0,0.0,0.4435525321841659,0.0,0.0,0.13602049213275952,0.0,0.0,0.0,0.0,0.0,0.0
0.5600000000000004,-0.04718322613864478,-0.051308355216285226,0.45863274631115514,0.016000397822873075,-0.21810936184215474,-0.3752520338353623,-0.047251539571506594,-0.050438113079748444,0.017110380530207747,0.007615471013917116,-0.13822508408235945,-0.5641098684799548,-0.12741460343881822,0.1313958959401597,-0.047164397634454014,0.667618971178668,0.5702374565044817,0.14731577121552114,0.0,5.993107438087463,-2.4128483533859253,25.28768014907837,0.0,0.0,0.0,0.0,0.0,0.44423435939521017,0.0,0.0,0.13670911048671847,0.0,0.0,0.0,0.0,0.0,0.0
