time,pos_x,pos_y,pos_z,vel_x,vel_y,vel_z,pos_xo,pos_yo,pos_zo,vel_xo,vel_yo,vel_zo,roll,pitch,yaw,roll_vel,pitch_vel,yaw_vel,thrust_z,force_x,force_y,force_z,torque_x,torque_y,torque_z,pos_xd,pos_yd,pos_zd,vel_xd,vel_yd,vel_zd,roll_d,pitch_d,yaw_d,roll_vel_d,pitch_vel_d,yaw_vel_d,pos_xr,pos_yr,pos_zr,vel_xr,vel_yr,vel_zr
0.050001668930053714,-0.002546817297115922,-0.04945638030767441,0.18198144435882568,0.0,0.0,0.0,-0.002546817297115922,-0.04945638030767441,0.18198144435882568,0.0,0.0,-1.6320271652639708e-13,0.061024390443633614,-0.0055660677013302795,0.0026121631250113353,0.0007551220478489995,-0.0022427451331168413,0.0005967011675238613,0.0,2.6302216001366014e-14,-3.603916105917326e-15,12.949199999999461,0.0,0.0,0.0,0.0,0.0,9.079131562299719e-20,0.0,0.0,1.6320271652639708e-13,0.0,0.0,0.0,0.0,0.0,0.0,0.0,0.0,0.0,0.0,0.0,0.0
0.10000166893005372,-0.0026003795210272074,-0.04948059469461441,0.18201430141925812,-0.0014078233860579915,0.002092973076419254,-0.0019897089397726887,-0.0026003795210272074,-0.04948059469461441,0.18201188260253742,-0.0014078233860579915,0.002092973076419254,-0.002134377578585085,0.06368842072278635,-0.0036751980675076013,0.00194738795566618,0.0015056343981996179,-0.0008141507860273122,0.0007999723311513663,0.0,-1.1108786002909898,-0.1797442173392665,16.536835378109032,0.0,0.0,0.0,0.0,0.0,2.4188167206964293e-06,0.0,0.0,0.00014466863881239646,0.0,0.0,0.0,0.0,0.0,0.0,0.0,0.0,2.418575286865234e-06,0.0,0.0,0.0001446590423583
0.15000166893005373,-0.0026003795210272074,-0.04948059469461441,0.18201430141925812,-0.0012542967210251704,0.0014106250373320942,-0.0021414065356734134,-0.0026003795210272074,-0.04948059469461441,0.18199513359553093,-0.0012542967210251704,0.0014106250373320942,-0.002712805981528248,0.06368842072278635,-0.0036751980675076013,0.00194738795566618,-0.0011374792084097862,-0.0009337703231722118,-0.000832573277875781,0.0,-2.024098185355824,-0.4470492613227702,20.155396440882303,0.0,0.0,0.0,0.0,0.0,1.9167823727181827e-05,0.0,0.0,0.0005713994458548344,0.0,0.0,0.0,0.0,0.0,0.0,0.0,0.0,1.9166870117187512e-05,0.0,0.0,0.0005713806152343
0.20000166893005372,-0.001718149520456791,-0.04827871546149254,0.1848667860031128,0.02236903495491009,0.02229285775031753,0.09499364793254905,-0.001718149520456791,-0.04827871546149254,0.18480270595412548,0.02236903495491009,0.02229285775031753,0.09372423584114734,0.0463826078856302,-0.002464320167926637,-0.002829697016457189,-0.1757616251707077,0.10447756201028824,0.037498936057090745,0.0,-0.10162457338096542,0.11058309718071592,12.428850244591647,0.0,0.0,0.0,0.0,0.0,6.408004898730859e-05,0.0,0.0,0.001269412091401714,0.0,0.0,0.0,0.0,0.0,0.0,0.0,0.0,6.407793045043952e-05,0.0,0.0,0.0012693843841552
0.2500016689300537,0.00044489189167506993,-0.04655405133962631,0.1900046169757843,0.04175533196951752,0.02835735538545499,0.09508369762831004,0.00044489189167506993,-0.04655405133962631,0.18985416403858227,0.04175533196951752,0.02835735538545499,0.09285563405364425,0.033384758785319324,0.00022671857126521644,-0.006948119910595629,-0.11419478058815002,0.11753687262535095,0.03174068778753279,0.0,0.6282100389259884,0.24844673269542927,8.870263555421243,0.0,0.0,0.0,0.0,0.0,0.0001504529372020279,0.0,0.0,0.002228063574665794,0.0,0.0,0.0,0.0,0.0,0.0,0.0,0.0,0.00015044921875,0.0,0.0,0.00222802734375
0.3000016689300537,0.005349654238671064,-0.044494371861219406,0.19036437571048737,0.10776852590372007,0.036534819289987204,-0.08976128042227773,0.005349654238671064,-0.044494371861219406,0.1900733204942269,0.10776852590372007,0.036534819289987204,-0.09319812864623912,0.03458710894544215,0.02116757492497756,0.0011258512440015522,-0.04839591309428215,0.43105241656303406,0.013980966061353631,0.0,0.4280602743234797,0.2144870734125684,9.286347627970576,0.0,0.0,0.0,0.0,0.0,0.00029105521626046795,0.0,0.0,0.003436848223961396,0.0,0.0,0.0,0.0,0.0,0.0,0.0,0.0,0.0002910494804382,0.0,0.0,0.003436803817749
0.3500016689300537,0.006416266318410635,-0.044239819049835205,0.18943335115909576,0.11056294748751148,0.025628903588704826,-0.164530540922698,0.006416266318410635,-0.044239819049835205,0.18893521739540076,0.11056294748751148,0.025628903588704826,-0.1694159386194024,0.03961626087897274,0.019864346965350776,0.0012462422633188197,0.1426420360803604,-0.654778242111206,-0.032797437161207116,0.0,-0.26039174312414715,0.044554386733113155,11.64099887751238,0.0,0.0,0.0,0.0,0.0,0.0004981337636950122,0.0,0.0,0.0048853976967044065,0.0,0.0,0.0,0.0,0.0,0.0,0.0,0.0,0.0004981256103515,0.0,0.0,0.0048853454589843
0.4000016689300537,0.006416266318410635,-0.044239819049835205,0.18943335115909576,0.0585962224506291,0.0037392113493417956,0.04435022702599104,0.006416266318410635,-0.044239819049835205,0.1886499306859594,0.0585962224506291,0.0037392113493417956,0.03778674604657877,0.03961626087897274,0.019864346965350776,0.0012462422633188197,-0.06666684150695801,0.20377543568611142,-0.1823941618204117,0.0,-0.849295019981092,-0.09049760443115332,14.127571845810913,0.0,0.0,0.0,0.0,0.0,0.0007834204731363775,0.0,0.0,0.00656348097941227,0.0,0.0,0.0,0.0,0.0,0.0,0.0,0.0,0.0007834095191955,0.0,0.0,0.0065634212493896
0.45000166893005367,0.011922743171453476,-0.0415213406085968,0.18895962834358215,0.03930238724969026,0.013488229699722156,0.11101771856220932,0.011922743171453476,-0.0415213406085968,0.18780148922281345,0.03930238724969026,0.013488229699722156,0.10255671417450532,0.0464868238290288,-0.007477467036066443,-0.012386317484323506,-0.054724399000406265,-0.13237284123897552,-0.012054592370986923,0.0,-0.45988354889528055,0.05946100076764322,12.725483183304389,0.0,0.0,0.0,0.0,0.0,0.0011581391207686914,0.0,0.0,0.008461004387703997,0.0,0.0,0.0,0.0,0.0,0.0,0.0,0.0,0.001158125,0.0,0.0,0.0084609375
0.5000016689300537,0.014433222822844982,-0.04019477963447571,0.19632591307163239,0.07134762606624996,0.030186054832339913,0.12269051756013515,0.014433222822844982,-0.04019477963447571,0.1946929008398478,0.07134762606624996,0.030186054832339913,0.11212250599383498,0.062471632453753756,0.007338958740755963,-0.004813056725740061,-0.0766708254814148,-0.05646264925599098,0.01670206710696221,0.0,-0.40554201347655994,0.0041473528545735855,12.61972725386878,0.0,0.0,0.0,0.0,0.0,0.001633012231784572,0.0,0.0,0.010568011566300163,0.0,0.0,0.0,0.0,0.0,0.0,0.0,0.0,0.0016329945945739,0.0,0.0,0.0105679378509521
0.5500016689300538,0.018996920436620712,-0.03792264685034752,0.20179378986358643,0.08909344846777952,0.03865500698256825,0.10891890752028777,0.018996920436620712,-0.03792264685034752,0.1995755219167462,0.08909344846777952,0.03865500698256825,0.09604422403126486,0.059216076617950364,0.012884777776290601,0.0038416589372278764,0.00715298717841506,-0.028701793402433392,0.01875000819563866,0.0,-0.6896628990400965,-0.10911873462109832,13.19668362501576,0.0,0.0,0.0,0.0,0.0,0.0022182679468402055,0.0,0.0,0.012874683489022898,0.0,0.0,0.0,0.0,0.0,0.0,0.0,0.0,0.0022182464599609,0.0,0.0,0.0128746032714843
0.6000016689300538,0.02444876730442047,-0.03556164726614952,0.20706772804260254,0.11284150115403026,0.044275839091993355,0.10961182845956911,0.02444876730442047,-0.03556164726614952,0.2041440811540921,0.11284150115403026,0.044275839091993355,0.09424049000077321,0.06790282822612426,0.012693528555005607,0.007483016484046701,0.06711277365684509,-0.09008032083511351,0.07176754623651506,0.0,-0.6034726924508029,-0.0910431657454851,12.45159143098539,0.0,0.0,0.0,0.0,0.0,0.002923646888510422,0.0,0.0,0.015371338458795902,0.0,0.0,0.0,0.0,0.0,0.0,0.0,0.0,0.0029236212348938,0.0,0.0,0.0153712520599365
0.6500016689300538,0.03068450838327408,-0.03310374543070793,0.21154889464378357,0.13150317299832573,0.04392478853863065,0.08956536239995068,0.03068450838327408,-0.03310374543070793,0.2077904856160398,0.13150317299832573,0.04392478853863065,0.07151693029230624,0.07121207467933166,0.0030320202598792534,0.010680289192901427,0.10046829283237457,-0.09651608020067214,0.05748591572046281,0.0,-0.6095309611018802,-0.08541160732668654,12.044603207131589,0.0,0.0,0.0,0.0,0.0,0.003758409027743777,0.0,0.0,0.018048432107644435,0.0,0.0,0.0,0.0,0.0,0.0,0.0,0.0,0.00375837890625,0.0,0.0,0.01804833984375
0.7000016689300539,0.03068450838327408,-0.03310374543070793,0.21154889464378357,0.15498724097812763,0.05430739574618076,0.025903741793694108,0.03068450838327408,-0.03310374543070793,0.20681755409346594,0.15498724097812763,0.05430739574618076,0.005007184396998789,0.07121207467933166,0.0030320202598792534,0.010680289192901427,0.05100461468100548,-0.10985597968101501,0.01291971188038589,0.0,-0.7014528235088082,-0.09798135089438785,12.134885432441092,0.0,0.0,0.0,0.0,0.0,0.004731340550317629,0.0,0.0,0.02089655739669532,0.0,0.0,0.0,0.0,0.0,0.0,0.0,0.0,0.0047313056755066,0.0,0.0,0.0208964595794678
0.7500016689300539,0.03068450838327408,-0.03310374543070793,0.21154889464378357,0.16515639952785402,0.0601553727994511,-0.008503022452894898,0.03068450838327408,-0.03310374543070793,0.20569813392049036,0.16515639952785402,0.0601553727994511,-0.03240946706907183,0.07121207467933166,0.0030320202598792534,0.010680289192901427,0.03679141774773598,-0.15051282942295074,0.027899688109755533,0.0,-0.8341769568582688,-0.14056732654876752,12.536462889584815,0.0,0.0,0.0,0.0,0.0,0.005850760723293212,0.0,0.0,0.023906444616176928,0.0,0.0,0.0,0.0,0.0,0.0,0.0,0.0,0.0058507208251953,0.0,0.0,0.0239063415527344
0.800001668930054,0.05426487699151039,-0.024218495935201645,0.21055452525615692,0.1719347336084989,0.06508229202702541,-0.053479563353709285,0.05426487699151039,-0.024218495935201645,0.2034299964946862,0.1719347336084989,0.06508229202702541,-0.08054852473912852,0.08147106537960136,-0.023733362351952003,0.012415863194200405,0.044626738876104355,-0.1668677031993866,0.03109368495643141,0.0,-0.9290537055506076,-0.1712115414218245,12.859383686494924,0.0,0.0,0.0,0.0,0.0,0.007124528761470722,0.0,0.0,0.02706896138541923,0.0,0.0,0.0,0.0,0.0,0.0,0.0,0.0,0.0071244835853576,0.0,0.0,0.0270688533782959
0.850001668930054,0.0635368600487709,-0.020808521658182144,0.20679397881031036,0.1805000588558886,0.06751947364174155,-0.07166264575140609,0.0635368600487709,-0.020808521658182144,0.19823392811646598,0.1805000588558886,0.06751947364174155,-0.1020377584042598,0.0850670773988269,-0.022137500262604526,0.019985365058923676,0.06605913490056992,-0.12385017424821854,0.03173725679516794,0.0,-1.0676853463520275,-0.21705918998726473,13.067773131970833,0.0,0.0,0.0,0.0,0.0,0.008560050693844395,0.0,0.0,0.03037511265285371,0.0,0.0,0.0,0.0,0.0,0.0,0.0,0.0,0.00856,0.0,0.0,0.030375
0.9000016689300541,0.07300295680761337,-0.01747833751142025,0.20282870531082153,0.19809882726508773,0.06906906002252969,-0.06946151312816078,0.07300295680761337,-0.01747833751142025,0.19266441908076395,0.19809882726508773,0.06906906002252969,-0.10327755382417425,0.08370652457488426,-0.03178575070784806,0.01913974075012881,0.07621948421001434,-0.13082300126552582,0.008800752460956589,0.0,-1.101101418613795,-0.22674663165718179,13.012678583904586,0.0,0.0,0.0,0.0,0.0,0.010164286230057573,0.0,0.0,0.03381604069601347,0.0,0.0,0.0,0.0,0.0,0.0,0.0,0.0,0.0101642297935486,0.0,0.0,0.0338159236907959
0.9500016689300541,0.08310018479824066,-0.014090907759964466,0.19887885451316833,0.2068363429044889,0.0696894012144182,-0.06808694136492341,0.08310018479824066,-0.014090907759964466,0.18693509888631055,0.2068363429044889,0.0696894012144182,-0.10546996648645653,0.08788647532197658,-0.03234930266614633,0.019138840327935114,0.06500017642974854,-0.13899676501750946,0.00643017981201412,0.0,-1.1909221648022714,-0.24143994230360805,13.012041936162182,0.0,0.0,0.0,0.0,0.0,0.011943755626857797,0.0,0.0,0.03738302512153312,0.0,0.0,0.0,0.0,0.0,0.0,0.0,0.0,0.0119436932373047,0.0,0.0,0.0373829040527344
1.0000016689300542,0.09325222671031952,-0.010663917288184166,0.19554926455020905,0.20747607371223833,0.0669040612438369,-0.06223415613619566,0.09325222671031952,-0.010663917288184166,0.18164471799565718,0.20747607371223833,0.0669040612438369,-0.10330163900134451,0.08725353936286373,-0.04431658128541249,0.024239847755367805,0.0747816264629364,-0.11545687168836594,0.008680433034896864,0.0,-1.2656474390156727,-0.2547983229800379,13.057146962556535,0.0,0.0,0.0,0.0,0.0,0.013904546554551875,0.0,0.0,0.04106748286514886,0.0,0.0,0.0,0.0,0.0,0.0,0.0,0.0,0.0139044780158996,0.0,0.0,0.0410673580169678
1.0500016689300542,0.10334072262048721,-0.007394003216177225,0.1932392418384552,0.20986059119719566,0.06552597187155658,-0.052142444728325986,0.10334072262048721,-0.007394003216177225,0.1771869208749942,0.20986059119719566,0.06552597187155658,-0.09700341292002443,0.09717621908526874,-0.046785135468990546,0.026843851615851122,0.05525917932391167,-0.16171663999557495,0.05935085192322733,0.0,-3.0722897169121564,-0.7577147023845149,20.150435179180242,0.0,0.0,0.0,0.0,0.0,0.016052320963460973,0.0,0.0,0.04486096819169845,0.0,0.0,0.0,0.0,0.0,0.0,0.0,0.0,0.01605224609375,0.0,0.0,0.04486083984375
1.1000016689300542,0.11243735998868942,-0.004010018426924944,0.20158688724040985,0.2161770312329373,0.09002649848564907,0.299805547103243,0.11243735998868942,-0.004010018426924944,0.1831945652900342,0.2161770312329373,0.09002649848564907,0.2510503744081217,0.10081457411981809,-0.05627329562747674,0.025313447021790836,0.044706568121910095,-0.1782464236021042,0.006930099800229094,0.0,-0.46709420116569883,-0.008191686691931765,9.481334151031481,0.0,0.0,0.0,0.0,0.0,0.018392321950375667,0.0,0.0,0.048755172695121224,0.0,0.0,0.0,0.0,0.0,0.0,0.0,0.0,0.0183922405815124,0.0,0.0,0.0487550411224364
1.1500016689300543,0.12247562408447266,-0.0005279799806885421,0.21209335327148438,0.2278464574270248,0.0896047726727764,0.2467411401143782,0.12247562408447266,-0.0005279799806885421,0.19116397264647333,0.2278464574270248,0.0896047726727764,0.19399921481592014,0.1096094840013846,-0.0624241755164574,0.02878112547974343,-0.0440148301422596,0.07165860384702682,0.004683148115873328,0.0,-0.510700813932934,-0.12567910618087685,8.350522934914327,0.0,0.0,0.0,0.0,0.0,0.02092938062501105,0.0,0.0,0.052741925298458045,0.0,0.0,0.0,0.0,0.0,0.0,0.0,0.0,0.0209292926025389,0.0,0.0,0.0527417907714842
1.2000016689300543,0.1334715634584427,0.0027435356751084328,0.21438565850257874,0.21562325944395705,0.08635291160864055,-0.018565511514389184,0.1334715634584427,0.0027435356751084328,0.19071773552611693,0.21562325944395705,0.08635291160864055,-0.07537870376824057,0.08977912597837001,-0.052592961388777226,0.02628710607988971,-0.033317867666482925,0.1679106503725052,0.029852624982595423,0.0,-1.0754549380860623,-0.25126689169441296,10.361535823238777,0.0,0.0,0.0,0.0,0.0,0.0236679229764618,0.0,0.0,0.05681319225385138,0.0,0.0,0.0,0.0,0.0,0.0,0.0,0.0,0.0236678281593321,0.0,0.0,0.0568130550384519
1.2500016689300544,0.14356206357479095,0.006221200339496136,0.20840351283550262,0.20042141021011634,0.08551869987538706,-0.08983546503944088,0.14356206357479095,0.006221200339496136,0.18179153609584536,0.20042141021011634,0.08551869987538706,-0.15079654218198613,0.11256581895418138,-0.045855662984035206,0.03388122088695589,-0.08856246620416641,0.012052920646965505,0.018998948857188225,0.0,-1.5960621137366586,-0.4027270192622767,13.20504750085279,0.0,0.0,0.0,0.0,0.0,0.02661197673965726,0.0,0.0,0.06096107714254525,0.0,0.0,0.0,0.0,0.0,0.0,0.0,0.0,0.0266118749999997,0.0,0.0,0.0609609374999996
1.3000016689300544,0.1526433378458023,0.00941483024507761,0.20018185675144196,0.176787640669574,0.07424575732216522,-0.0998612080882043,0.1526433378458023,0.00941483024507761,0.17041667848962547,0.176787640669574,0.07424575732216522,-0.1650390289630895,0.09132832567129956,-0.05219328039056492,0.02848171911246311,-0.0025878306478261948,-0.09701510518789291,-0.022499285638332357,0.0,-1.7915785770531991,-0.45481204500538386,14.336724571250233,0.0,0.0,0.0,0.0,0.0,0.029765178261816495,0.0,0.0,0.0651778208748852,0.0,0.0,0.0,0.0,0.0,0.0,0.0,0.0,0.0297650694847103,0.0,0.0,0.0651776790618892
1.3500016689300545,0.160887211561203,0.011986963450908661,0.1943018138408661,0.16551630355510533,0.06374075287409901,-0.06842777925286317,0.160887211561203,0.011986963450908661,0.16117103447196268,0.16551630355510533,0.06374075287409901,-0.1378835809431815,0.0933406116550195,-0.060480294073289365,0.030232061673858723,0.053766146302223206,-0.15887515246868134,0.008205121383070965,0.0,-1.7113375838524787,-0.40955183623451924,14.188994658171897,0.0,0.0,0.0,0.0,0.0,0.03313077936890339,0.0,0.0,0.06945580169031834,0.0,0.0,0.0,0.0,0.0,0.0,0.0,0.0,0.033130663452148,0.0,0.0,0.0694556579589839
1.4000016689300545,0.16856732964515686,0.014283689670264721,0.19218918681144714,0.17100160397888886,0.06342887124521704,0.04552268824978157,0.16856732964515686,0.014283689670264721,0.1554775325793654,0.17100160397888886,0.06342887124521704,-0.028264846907611864,0.09508171601170279,-0.06981921134772184,0.030094016124509793,0.044290799647569656,-0.12849758565425873,-0.022621883079409582,0.0,-1.6403061279267381,-0.3721703258679545,13.871594771222156,0.0,0.0,0.0,0.0,0.0,0.036711654232081746,0.0,0.0,0.07378753515739343,0.0,0.0,0.0,0.0,0.0,0.0,0.0,0.0,0.0367115310859675,0.0,0.0,0.0737873897552484
1.4500016689300546,0.1761375218629837,0.016777552664279938,0.1933230459690094,0.1675661370789296,0.06466846522778662,0.0684955048304452,0.1761375218629837,0.016777552664279938,0.15281273973483905,0.1675661370789296,0.06466846522778662,-0.009670169343315507,0.1032815315474882,-0.07373950772337867,0.03318783316508167,-0.006661189720034599,-0.05280464142560959,0.026168970391154296,0.0,-1.5536635483335868,-0.35509728694141196,13.02558533556762,0.0,0.0,0.0,0.0,0.0,0.04051030623417033,0.0,0.0,0.0781656741737607,0.0,0.0,0.0,0.0,0.0,0.0,0.0,0.0,0.0405101757812493,0.0,0.0,0.0781655273437493
1.5000016689300546,0.18297967314720154,0.018859148025512695,0.19591914117336273,0.15157371688665888,0.0693392686935773,0.09576082567578709,0.18297967314720154,0.018859148025512695,0.1513902663372648,0.15157371688665888,0.0693392686935773,0.013177816709615112,0.09783193676755486,-0.06822310037299406,0.029469239835561822,0.016125142574310303,-0.0520588755607605,0.007840183563530452,0.0,-1.5458078915375983,-0.3591300209896817,12.858890261559832,0.0,0.0,0.0,0.0,0.0,0.044528874836097944,0.0,0.0,0.08258300896617198,0.0,0.0,0.0,0.0,0.0,0.0,0.0,0.0,0.044528737010955,0.0,0.0,0.0825828609466545
1.5500016689300546,0.18920870125293732,0.020972518250346184,0.1988956332206726,0.14002691199985426,0.06535278144249132,0.09624349115468732,0.18920870125293732,0.020972518250346184,0.15012649077731405,0.14002691199985426,0.06535278144249132,0.00921102406420668,0.09576068251781233,-0.08352558546323419,0.027837866166502856,0.020069081336259842,-0.02861514315009117,-0.0048207389190793,0.0,-1.5487919818145035,-0.3869019320305688,12.867158459067278,0.0,0.0,0.0,0.0,0.0,0.04876914244335855,0.0,0.0,0.08703246709048064,0.0,0.0,0.0,0.0,0.0,0.0,0.0,0.0,0.0487689971923819,0.0,0.0,0.0870323181152334
1.6000016689300547,0.1950041949748993,0.02305210754275322,0.20125281810760498,0.1171118791393261,0.061228543353404184,0.09058754543657527,0.1950041949748993,0.02305210754275322,0.1480202768351387,0.1171118791393261,0.061228543353404184,-0.0009195679950663449,0.10107843798530514,-0.07602484198374437,0.031076310747883973,-0.0019058475736528635,-0.04940085485577583,0.005883023142814642,0.0,-1.5924452063581702,-0.3991185479574023,13.076500661379068,0.0,0.0,0.0,0.0,0.0,0.05323254127246629,0.0,0.0,0.09150711343164161,0.0,0.0,0.0,0.0,0.0,0.0,0.0,0.0,0.0532323885536183,0.0,0.0,0.0915069637298574
1.6500016689300547,0.19990484416484833,0.024930600076913834,0.20386341214179993,0.10807182184282862,0.061314847161266395,0.09886085670989456,0.19990484416484833,0.024930600076913834,0.14594325192438934,0.10807182184282862,0.061314847161266395,0.002860706506183114,0.10112631107478265,-0.07934611112885692,0.031564371997784946,0.0034057036973536015,-0.016816992312669754,0.0017693014815449734,0.0,-1.5847773377697554,-0.40605870689499096,13.263158204472216,0.0,0.0,0.0,0.0,0.0,0.057920160217410595,0.0,0.0,0.09600015020371144,0.0,0.0,0.0,0.0,0.0,0.0,0.0,0.0,0.0579199999999988,0.0,0.0,0.0959999999999989
1.7000016689300548,0.20427648723125458,0.02688920684158802,0.20696371793746948,0.09072665758640228,0.057382487135416174,0.11108476827624904,0.20427648723125458,0.02688920684158802,0.1441309662213582,0.09072665758640228,0.057382487135416174,0.010579851326400852,0.10459105843226357,-0.07767109750311807,0.030984328421929774,-0.031106097623705864,-0.029596995562314984,0.014587951824069027,0.0,-1.5865712520057633,-0.4152201576322068,13.277674094536764,0.0,0.0,0.0,0.0,0.0,0.06283275171611127,0.0,0.0,0.10050491694984819,0.0,0.0,0.0,0.0,0.0,0.0,0.0,0.0,0.0628325839805589,0.0,0.0,0.1005047664642322
1.7500016689300548,0.20763806998729706,0.02868281863629818,0.2107711136341095,0.07722162158039628,0.05148685453667805,0.12091717199715145,0.20763806998729706,0.02868281863629818,0.14280037501723591,0.07722162158039628,0.05148685453667805,0.015902281454839975,0.09876296792387551,-0.07745428591334491,0.02865775506599988,0.0076654329895973206,0.015623170882463455,0.004788463003933428,0.0,-1.5050343679724412,-0.39745579247706453,13.051360111474658,0.0,0.0,0.0,0.0,0.0,0.06797073861687358,0.0,0.0,0.10501489054231147,0.0,0.0,0.0,0.0,0.0,0.0,0.0,0.0,0.0679705633544907,0.0,0.0,0.1050147399902331
1.8000016689300549,0.21050141751766205,0.029922980815172195,0.21449561417102814,0.06346508071716664,0.043536476692777375,0.12179195582035716,0.21050141751766205,0.029922980815172195,0.14116139312618486,0.06346508071716664,0.043536476692777375,0.012268270637894624,0.10691059166050865,-0.08210880522119535,0.02727681929424719,0.0226678978651762,0.0341234914958477,0.002774408785626288,0.0,-1.437506730324493,-0.3759848087654915,12.847654080028297,0.0,0.0,0.0,0.0,0.0,0.07333422104484327,0.0,0.0,0.10952368518246254,0.0,0.0,0.0,0.0,0.0,0.0,0.0,0.0,0.0733340382575972,0.0,0.0,0.1095235347747788
1.850001668930055,0.21296192705631256,0.031489040702581406,0.21866726875305176,0.05002783745433627,0.03916728149845809,0.12879446086569793,0.21296192705631256,0.031489040702581406,0.13974428548459,0.05002783745433627,0.03916728149845809,0.014769408464933853,0.1015262114079265,-0.07726120592842056,0.030893059752689744,-0.007771261502057314,-0.00314523698762059,0.01688627153635025,0.0,-3.68331570753058,-1.0050375206276243,21.865981534072922,0.0,0.0,0.0,0.0,0.0,0.07892298326846174,0.0,0.0,0.11402505240076408,0.0,0.0,0.0,0.0,0.0,0.0,0.0,0.0,0.0789227929687481,0.0,0.0,0.1140249023437485
1.900001668930055,0.21353600919246674,0.03284400701522827,0.23491822183132172,-0.02604184066471744,-0.09355151740162806,0.4012809722457933,0.21353600919246674,0.03284400701522827,0.15018172126540072,-0.02604184066471744,-0.09355151740162806,0.28276809118901286,0.09851616079508396,-0.07844001032518122,0.03130810582163335,-0.0699455589056015,0.10284242033958435,-0.0017689832020551092,0.0,-0.2704956456830416,-0.0336605362226486,8.443264011578686,0.0,0.0,0.0,0.0,0.0,0.084736500565921,0.0,0.0,0.11851288105678044,0.0,0.0,0.0,0.0,0.0,0.0,0.0,0.0,0.0847363027763346,0.0,0.0,0.1185127315521224
1.950001668930055,0.2149837762117386,0.034584227949380875,0.25296318531036377,-0.015936806253273778,-0.10424604179278525,0.30507878188232124,0.2149837762117386,0.034584227949380875,0.1621892392187449,-0.015936806253273778,-0.10424604179278525,0.1820975845431437,0.10071528630208526,-0.06681563093232068,0.0317998614471815,-0.1362215131521225,0.38056305050849915,-0.003418410895392345,0.0,-0.030261820952074664,0.33764032600928756,7.583077606471051,0.0,0.0,0.0,0.0,0.0,0.09077394609161887,0.0,0.0,0.12298119733917753,0.0,0.0,0.0,0.0,0.0,0.0,0.0,0.0,0.0907737408447242,0.0,0.0,0.1229810485839827
2.000001668930055,0.21731024980545044,0.03658505156636238,0.25992852449417114,-0.038124084424898286,-0.09270281813857617,0.012009263334670495,0.21731024980545044,0.03658505156636238,0.16289432675155718,-0.038124084424898286,-0.09270281813857617,-0.1154149014310523,0.08167852268892695,-0.044720679521908835,0.023471469083503393,-0.3128158450126648,0.43204906582832336,-0.03789253532886511,0.0,-0.6737606903214377,0.22034620567951296,10.096472129104676,0.0,0.0,0.0,0.0,0.0,0.09703419774261396,0.0,0.0,0.1274241647657228,0.0,0.0,0.0,0.0,0.0,0.0,0.0,0.0,0.0970339850807164,0.0,0.0,0.1274240169525129
2.050001668930055,0.21903017163276672,0.03907237574458122,0.2576042711734772,-0.060742349699066965,-0.09210588539009132,-0.12303191490624804,0.21903017163276672,0.03907237574458122,0.15408842614839635,-0.060742349699066965,-0.09210588539009132,-0.2548679990895333,0.0749689620368339,-0.028263288919278207,0.025729784405989164,-0.23603039979934692,0.2751482427120209,-0.03566982969641689,0.0,-1.2764655511883911,-0.02229231259663267,13.567413135009264,0.0,0.0,0.0,0.0,0.0,0.10351584502508082,0.0,0.0,0.1318360841832852,0.0,0.0,0.0,0.0,0.0,0.0,0.0,0.0,0.1035156249999972,0.0,0.0,0.1318359374999982
2.1000016689300547,0.21923552453517914,0.04142226651310921,0.2518725097179413,-0.09168874082529686,-0.0878846674732016,-0.16152874189921626,0.21923552453517914,0.04142226651310921,0.14165531379717633,-0.09168874082529686,-0.0878846674732016,-0.29774013566705165,0.0688002164149859,-0.02324517871590448,0.025200836235038437,-0.10773829370737076,-0.08808574080467224,0.015854384750127803,0.0,-1.4626895118554097,-0.0832027348533596,15.065439017987092,0.0,0.0,0.0,0.0,0.0,0.11021719592076497,0.0,0.0,0.1362113937678354,0.0,0.0,0.0,0.0,0.0,0.0,0.0,0.0,0.1102169685935944,0.0,0.0,0.1362112483978252
2.1500016689300545,0.21835748851299286,0.043779101222753525,0.24828040599822998,-0.08802903631416915,-0.07771494021009727,-0.11437508475075311,0.21835748851299286,0.043779101222753525,0.13114412224479194,-0.08802903631416915,-0.07771494021009727,-0.2549197537751985,0.0631573205467344,-0.033490883642858904,0.028546771572272256,0.04407738149166107,-0.18566863238811493,0.026887822896242166,0.0,-1.5638772096430313,-0.1376634628967795,15.855867095944621,0.0,0.0,0.0,0.0,0.0,0.11713628375343804,0.0,0.0,0.1405446690244454,0.0,0.0,0.0,0.0,0.0,0.0,0.0,0.0,0.1171360491943327,0.0,0.0,0.1405445251464824
2.2000016689300543,0.21781907975673676,0.04657840356230736,0.24943885207176208,-0.0746025290137937,-0.061698414434334894,0.026286254727421996,0.21781907975673676,0.04657840356230736,0.12516797801640933,-0.0746025290137937,-0.061698414434334894,-0.11854436805986696,0.0657536484515866,-0.03895157409225103,0.027065557327944134,-0.007431218400597572,-0.1506151556968689,0.015828887000679987,0.0,-1.3560237588373352,-0.1363825117259459,15.025580844498197,0.0,0.0,0.0,0.0,0.0,0.12427087405535275,0.0,0.0,0.14483062278728895,0.0,0.0,0.0,0.0,0.0,0.0,0.0,0.0,0.1242706323432888,0.0,0.0,0.1448304805755595
2.250001668930054,0.2174307256937027,0.05044660344719887,0.2544674873352051,-0.09050209214934513,-0.05885475237775274,0.0623893829350358,0.2174307256937027,0.05044660344719887,0.12284901590150696,-0.09050209214934513,-0.05885475237775274,-0.08667472228460557,0.07043467881374799,-0.04955360280539045,0.029431657279834766,0.05878416821360588,-0.15150824189186096,-0.00435149669647215,0.0,-1.3104310913038855,-0.1765976144150705,14.276606952501544,0.0,0.0,0.0,0.0,0.0,0.13161847143369812,0.0,0.0,0.14906410521964136,0.0,0.0,0.0,0.0,0.0,0.0,0.0,0.0,0.1316182226562463,0.0,0.0,0.1490639648437479
2.300001668930054,0.21694743633270264,0.05483929067850113,0.26170843839645386,-0.07550437827161784,-0.03358749300703332,0.10563575471524599,0.21694743633270264,0.05483929067850113,0.12253211195939953,-0.07550437827161784,-0.03358749300703332,-0.04760434909863347,0.07407571262461232,-0.053157729215079996,0.027338774591990855,0.0787903442978859,-0.0701352208852768,-0.004731354769319287,0.0,-0.999463262777055,-0.12290032610205237,13.033512367217991,0.0,0.0,0.0,0.0,0.0,0.13917632643705433,0.0,0.0,0.15324010381387945,0.0,0.0,0.0,0.0,0.0,0.0,0.0,0.0,0.1391760706901511,0.0,0.0,0.1532399654388405
2.350001668930054,0.21684382855892181,0.05977148562669754,0.2686045169830322,-0.07636910407622545,-0.0291888369888591,0.08530212068164067,0.21684382855892181,0.05977148562669754,0.12166307456118411,-0.07636910407622545,-0.0291888369888591,-0.07205162270984095,0.07656721162056535,-0.05517606640123596,0.03096941068641712,0.144269660115242,0.0455975979566574,-0.0464199222624302,0.0,-0.9562519002541274,-0.19190966440856816,12.487353941109099,0.0,0.0,0.0,0.0,0.0,0.14694144242184812,0.0,0.0,0.15735374339148162,0.0,0.0,0.0,0.0,0.0,0.0,0.0,0.0,0.146941179809566,0.0,0.0,0.1573536071777322
2.4000016689300536,0.216890349984169,0.06485641002655029,0.2728773057460785,-0.08780408573562469,-0.009771780999296955,0.012506136354213297,0.216890349984169,0.06485641002655029,0.11796672332727098,-0.08780408573562469,-0.009771780999296955,-0.1488941497488144,0.08422513805624732,-0.053254794454486554,0.026107649525291876,0.09315260499715805,0.05328434333205223,-0.015286999754607684,0.0,-1.1800498291598684,-0.2879635060790456,13.442716688846941,0.0,0.0,0.0,0.0,0.0,0.1549105824188075,0.0,0.0,0.1614002861030277,0.0,0.0,0.0,0.0,0.0,0.0,0.0,0.0,0.1549103130531265,0.0,0.0,0.1614001522064186
2.4500016689300534,0.21619591116905212,0.07074300944805145,0.27593445777893066,-0.09511558093774872,0.0015076104230527993,0.00929645175677067,0.21619591116905212,0.07074300944805145,0.11285418177951337,-0.09511558093774872,0.0015076104230527993,-0.1560786796714286,0.08420237256997476,-0.05150661818356994,0.02510718892602881,0.09510140120983124,-0.030525619164109227,0.022346319630742077,0.0,-1.4136808693778515,-0.4322559201368664,14.700860779255855,0.0,0.0,0.0,0.0,0.0,0.1630802759994173,0.0,0.0,0.16537513142819926,0.0,0.0,0.0,0.0,0.0,0.0,0.0,0.0,0.1630799999999951,0.0,0.0,0.1653749999999977
2.5000016689300533,0.21426138281822205,0.07650389522314072,0.27991756796836853,-0.11479170314892283,0.018103545053774192,0.05623500275901369,0.21426138281822205,0.07650389522314072,0.10847074182599487,-0.11479170314892283,0.018103545053774192,-0.11303881341676578,0.08690159556116317,-0.05629866763266822,0.025459910494085136,0.13075727224349976,-0.0785805806517601,-0.0002817781642079257,0.0,-1.380813121050432,-0.4811331014990441,14.650864181703374,0.0,0.0,0.0,0.0,0.0,0.17144682614237367,0.0,0.0,0.16927381617577947,0.0,0.0,0.0,0.0,0.0,0.0,0.0,0.0,0.1714465436363169,0.0,0.0,0.1692736873626685
2.550001668930053,0.21196457743644714,0.08243415504693985,0.28596556186676025,-0.11088218406109358,0.02535403660324583,0.09357593824883155,0.21196457743644714,0.08243415504693985,0.10595924576672083,-0.11088218406109358,0.02535403660324583,-0.0795160762348213,0.09442997067065706,-0.05827029616652091,0.02926093329513435,0.15753775835037231,-0.048633795231580734,0.009011477231979375,0.0,-1.0813137202169898,-0.4883890438475506,13.598731285954146,0.0,0.0,0.0,0.0,0.0,0.18000631610003942,0.0,0.0,0.17309201448365286,0.0,0.0,0.0,0.0,0.0,0.0,0.0,0.0,0.1800060272216743,0.0,0.0,0.173091888427732
2.600001668930053,0.20950354635715485,0.0884537398815155,0.29285264015197754,-0.11194995799675625,0.023568202484081858,0.09669734628690431,0.20950354635715485,0.0884537398815155,0.10409802388707798,-0.11194995799675625,0.023568202484081858,-0.0801281915319013,0.10719398927980794,-0.05673435369640156,0.024872020997349864,0.10481733828783035,0.07925022393465042,0.002165555022656908,0.0,-0.9644572283006051,-0.4998593904713743,12.9819841776281,0.0,0.0,0.0,0.0,0.0,0.18875461626489956,0.0,0.0,0.1768255378188056,0.0,0.0,0.0,0.0,0.0,0.0,0.0,0.0,0.1887543211555424,0.0,0.0,0.1768254146575903
2.6500016689300527,0.20700553059577942,0.09458276629447937,0.29844123125076294,-0.12163684070732528,0.02949453053288014,0.06254237528161107,0.20700553059577942,0.09458276629447937,0.10075384021474745,-0.12163684070732528,0.02949453053288014,-0.11792795969571444,0.1076812933021487,-0.05388233184985314,0.02654414940014327,0.06688030064105988,0.11120209097862244,-0.002635356737300767,0.0,-1.073036066590066,-0.548092508624737,13.41724746341216,0.0,0.0,0.0,0.0,0.0,0.1976873910360155,0.0,0.0,0.1804703349773255,0.0,0.0,0.0,0.0,0.0,0.0,0.0,0.0,0.197687089843744,0.0,0.0,0.1804702148437476
2.7000016689300526,0.2037186473608017,0.10076666623353958,0.3022614121437073,-0.13891019555448195,0.03278196538763851,0.04313103763739227,0.2037186473608017,0.10076666623353958,0.09546130645822656,-0.13891019555448195,0.03278196538763851,-0.14089145444700968,0.11346144374154132,-0.047134018073993644,0.028106951541269964,0.08216454088687897,0.06305349618196487,-0.007770010270178326,0.0,-1.2367658320475021,-0.641051065688379,14.276535826113852,0.0,0.0,0.0,0.0,0.0,0.2068001056854807,0.0,0.0,0.18402249208440194,0.0,0.0,0.0,0.0,0.0,0.0,0.0,0.0,0.2067997985649046,0.0,0.0,0.184022375106809
2.7500016689300524,0.19963251054286957,0.10669812560081482,0.3065264821052551,-0.13833445633493874,0.0347984444906987,0.06739675846542012,0.19963251054286957,0.10669812560081482,0.09043844888037936,-0.13833445633493874,0.0347984444906987,-0.12008147412890563,0.11487397585265269,-0.04482865265213398,0.024964792284349002,0.05071926862001419,0.009374497458338734,-0.02477647177875042,0.0,-1.2151807287563379,-0.6835535465950683,14.506305554879315,0.0,0.0,0.0,0.0,0.0,0.21608803322487577,0.0,0.0,0.18747823259432575,0.0,0.0,0.0,0.0,0.0,0.0,0.0,0.0,0.2160877203369074,0.0,0.0,0.1874781188964819
2.800001668930052,0.19503378868103027,0.11240649968385696,0.31255868077278137,-0.1332123692717653,0.05161354936875048,0.15812019071447023,0.19503378868103027,0.11240649968385696,0.08701241950105812,-0.1332123692717653,0.05161354936875048,-0.03271372657601912,0.11058843796979545,-0.05083701438825017,0.023626565583024117,0.030558962374925613,-0.05816730111837387,0.006133372429758317,0.0,-2.5928433560119184,-1.118503549254114,19.97302703244875,0.0,0.0,0.0,0.0,0.0,0.22554626127172325,0.0,0.0,0.19083391729048935,0.0,0.0,0.0,0.0,0.0,0.0,0.0,0.0,0.2255459427833487,0.0,0.0,0.1908338069915747
2.850001668930052,0.18924064934253693,0.11783123761415482,0.3266547918319702,-0.18278011290789448,0.055679476158230774,0.3094703119821591,0.18924064934253693,0.11783123761415482,0.09148509291602733,-0.18278011290789448,0.055679476158230774,0.11538426769677229,0.11735176832810534,-0.05144709295184802,0.02914270773479899,0.06420464813709259,-0.0679558590054512,-0.02255227975547313,0.0,0.010596973560289491,-0.4370874451601059,9.36498130230524,0.0,0.0,0.0,0.0,0.0,0.2351696989159429,0.0,0.0,0.19408604428538678,0.0,0.0,0.0,0.0,0.0,0.0,0.0,0.0,0.2351693749999927,0.0,0.0,0.1940859374999976
2.900001668930052,0.1854218989610672,0.12184534221887589,0.33912599086761475,-0.14521253055089645,0.036462298877379166,0.1464787348333403,0.1854218989610672,0.12184534221887589,0.094172907281308,-0.14521253055089645,0.036462298877379166,-0.05075251418727328,0.12171149168277706,-0.042075863598243224,0.024128613593434878,0.1367652267217636,0.46984395384788513,-0.06331939995288854,0.0,0.12952699194663064,-0.5000091625164719,9.066753876835167,0.0,0.0,0.0,0.0,0.0,0.24495308358630674,0.0,0.0,0.1972312490206136,0.0,0.0,0.0,0.0,0.0,0.0,0.0,0.0,0.2449527544212265,0.0,0.0,0.1972311458587622
2.9500016689300517,0.18336614966392517,0.12545619904994965,0.34201088547706604,-0.13600190458015643,0.035388569851055623,-0.0074061606527554575,0.18336614966392517,0.12545619904994965,0.08711989756017197,-0.13600190458015643,0.035388569851055623,-0.20767246491962238,0.13018047985724746,-0.015775290486979898,0.021579048153501645,0.09817108511924744,0.5422394871711731,-0.0656408220529557,0.0,-0.741907950780341,-0.6624457391045693,12.484659573706013,0.0,0.0,0.0,0.0,0.0,0.2548909879168941,0.0,0.0,0.20026630426686692,0.0,0.0,0.0,0.0,0.0,0.0,0.0,0.0,0.2548906536865155,0.0,0.0,0.200266204833982
3.0000016689300515,0.18032197654247284,0.12903013825416565,0.33878910541534424,-0.1599263449364802,0.030721009621219392,-0.10056802745924634,0.18032197654247284,0.12903013825416565,0.07381127880179772,-0.1599263449364802,0.030721009621219392,-0.3037561475831918,0.13474858134033507,0.0018209500675236967,0.018781271453295112,-7.463980000466108e-05,0.059434555470943444,-0.03250126540660859,0.0,-1.390877984089965,-0.8425702664469158,15.367248556714202,0.0,0.0,0.0,0.0,0.0,0.2649778266135465,0.0,0.0,0.2031881201239455,0.0,0.0,0.0,0.0,0.0,0.0,0.0,0.0,0.2649774875068581,0.0,0.0,0.2031880245208718
3.0500016689300513,0.17556938529014587,0.13150332868099213,0.3365922272205353,-0.16607901290267402,0.02795302856871192,-0.0604481278841436,0.17556938529014587,0.13150332868099213,0.06138436390021201,-0.16607901290267402,0.02795302856871192,-0.26644187190489305,0.12947947138959526,-0.018971935811705976,0.0068248752638302435,-0.04494811221957207,-0.22000794112682343,0.022039562463760404,0.0,-1.849790961980862,-0.9985067700664048,17.863596491208497,0.0,0.0,0.0,0.0,0.0,0.27520786332032326,0.0,0.0,0.20599374402074944,0.0,0.0,0.0,0.0,0.0,0.0,0.0,0.0,0.2752075195312414,0.0,0.0,0.2059936523437477
3.100001668930051,0.17100836336612701,0.13413701951503754,0.3408692181110382,-0.15945771289125607,0.03274317039357929,0.13731169125188866,0.17100836336612701,0.13413701951503754,0.05529400062508194,-0.15945771289125607,0.03274317039357929,-0.07136866946339215,0.1262925243921904,-0.018664266576163158,0.016846516126985733,0.009112485684454441,-0.30568525195121765,-0.036984130740165676,0.0,-1.4312926859560462,-0.8900522388790869,16.318669705446165,0.0,0.0,0.0,0.0,0.0,0.28557521748595627,0.0,0.0,0.20868036071528082,0.0,0.0,0.0,0.0,0.0,0.0,0.0,0.0,0.2855748692130953,0.0,0.0,0.2086802730560281
3.150001668930051,0.1669723093509674,0.13543961942195892,0.3518512547016144,-0.12764381285711948,0.022486239171629854,0.23556795560706265,0.1669723093509674,0.13543961942195892,0.05577738347130978,-0.12764381285711948,0.022486239171629854,0.02432266331241964,0.1277537515899727,-0.029848611935993752,0.019857499543533663,0.03938575088977814,-0.22497513890266418,-0.0025764233432709893,0.0,-0.6767609361927414,-0.7029779160717208,12.712982795676012,0.0,0.0,0.0,0.0,0.0,0.2960738712303046,0.0,0.0,0.211245292294643,0.0,0.0,0.0,0.0,0.0,0.0,0.0,0.0,0.2960735186767485,0.0,0.0,0.2112452087402321
3.200001668930051,0.16405227780342102,0.1356399804353714,0.3632110059261322,-0.10227225625146924,0.004937604710864608,0.20162284123702567,0.16405227780342102,0.1356399804353714,0.0565133297153218,-0.10227225625146924,0.004937604710864608,-0.01206315693801488,0.13145407189744907,-0.038435674173591394,0.015656522561273256,0.07213415205478668,-0.023396750912070278,-0.032603226602077484,0.0,-0.54804467123727,-0.6221702854849476,11.474422586612274,0.0,0.0,0.0,0.0,0.0,0.3066976762108104,0.0,0.0,0.21368599817504055,0.0,0.0,0.0,0.0,0.0,0.0,0.0,0.0,0.3066973195838831,0.0,0.0,0.2136859188079811
3.2500016689300506,0.16194285452365875,0.1351148635149002,0.37007296085357666,-0.08992837941212956,-0.004254013300733895,0.1268535790927558,0.16194285452365875,0.1351148635149002,0.05263260036462303,-0.08992837941212956,-0.004254013300733895,-0.08914649600902469,0.13656881526455456,-0.03268634895856559,0.015268898516326068,0.05243757739663124,0.040111176669597626,-0.01901408098638058,0.0,-1.0830285036925855,-0.705544055659526,13.349179269622125,0.0,0.0,0.0,0.0,0.0,0.31744036048895363,0.0,0.0,0.2160000751017805,0.0,0.0,0.0,0.0,0.0,0.0,0.0,0.0,0.31743999999999,0.0,0.0,0.2159999999999979
3.3000016689300504,0.15963126718997955,0.13374453783035278,0.37418311834335327,-0.09324874779124574,-0.019185105974070547,0.0815400283850637,0.15963126718997955,0.13374453783035278,0.045887582946646355,-0.09324874779124574,-0.019185105974070547,-0.13664522876420693,0.1273833108717728,-0.033920164135595066,0.01241729033941752,0.0008785361424088478,-0.0826709046959877,0.0029661282896995644,0.0,-1.6627939488666612,-0.834287898421189,15.68890898865476,0.0,0.0,0.0,0.0,0.0,0.3282955353967069,0.0,0.0,0.21818525714927062,0.0,0.0,0.0,0.0,0.0,0.0,0.0,0.0,0.3282951712608235,0.0,0.0,0.2181851863861064
3.3500016689300502,0.15637236833572388,0.13200139999389648,0.3800847828388214,-0.10198769685964755,-0.027108717731557905,0.13130719125150117,0.15637236833572388,0.13200139999389648,0.04082808043583036,-0.10198769685964755,-0.027108717731557905,-0.08893222446951929,0.13456861560948052,-0.03458418257760343,0.019065151216639542,-0.040673792362213135,-0.15373902022838593,-0.002554916543886047,0.0,-1.6013487288664041,-0.7706406297846407,15.659234415346186,0.0,0.0,0.0,0.0,0.0,0.33925670240299105,0.0,0.0,0.22023941572102046,0.0,0.0,0.0,0.0,0.0,0.0,0.0,0.0,0.3392563348388565,0.0,0.0,0.2202393493652325
3.40000166893005,0.15289519727230072,0.13015581667423248,0.38896727561950684,-0.08242691595717798,-0.025006773396048676,0.2127490689825818,0.15289519727230072,0.13015581667423248,0.038650015639377366,-0.08242691595717798,-0.025006773396048676,-0.009411490567059588,0.13036408500564356,-0.05003925260395459,0.015482602043871196,-0.0973476767539978,-0.18676123023033142,-0.0045157875865697635,0.0,-1.1378143704059678,-0.6203218783098408,13.840215268589313,0.0,0.0,0.0,0.0,0.0,0.35031725998012947,0.0,0.0,0.2221605595496414,0.0,0.0,0.0,0.0,0.0,0.0,0.0,0.0,0.3503168892097363,0.0,0.0,0.2221604976654033
3.45000166893005,0.1495688408613205,0.12740285694599152,0.3985796272754669,-0.08975895884314941,-0.03539963666031353,0.2092865900128649,0.1495688408613205,0.12740285694599152,0.037109116805162656,-0.08975895884314941,-0.03539963666031353,-0.01466024468398136,0.12087544976519249,-0.05296792910756931,0.013734969058050162,-0.08476544916629791,-0.026753574609756473,-0.019116092473268505,0.0,-0.9646852260202488,-0.561881726986434,12.639329141054482,0.0,0.0,0.0,0.0,0.0,0.36147051047030426,0.0,0.0,0.22394683469684626,0.0,0.0,0.0,0.0,0.0,0.0,0.0,0.0,0.3614701367187387,0.0,0.0,0.2239467773437483
3.5000016689300497,0.14642028510570526,0.12436192482709885,0.4056095480918884,-0.08300820044895434,-0.04578486150899512,0.1315097305591969,0.14642028510570526,0.12436192482709885,0.03289988113987852,-0.08300820044895434,-0.04578486150899512,-0.0940867939942524,0.12583601776797204,-0.05338927338474697,0.01679370271594216,-0.053631335496902466,0.07922368496656418,-0.038914207369089134,0.0,-1.1172021214663994,-0.5787992160842783,13.330193122386587,0.0,0.0,0.0,0.0,0.0,0.3727096669520099,0.0,0.0,0.2255965245534493,0.0,0.0,0.0,0.0,0.0,0.0,0.0,0.0,0.3727092904472236,0.0,0.0,0.2255964717864974
3.5500016689300495,0.14304658770561218,0.12057139724493027,0.41050735116004944,-0.09026386239778218,-0.04804064929176648,0.10416976584461278,0.14304658770561218,0.12057139724493027,0.02647949105353914,-0.09026386239778218,-0.04804064929176648,-0.12293828399475333,0.1187372679544767,-0.048703472854479735,0.009479033051066565,-0.01874694414436817,0.049240201711654656,-0.029624650254845626,0.0,-1.4818948936433745,-0.6392166449067617,14.917719477514009,0.0,0.0,0.0,0.0,0.0,0.3840278601065103,0.0,0.0,0.2271080498393661,0.0,0.0,0.0,0.0,0.0,0.0,0.0,0.0,0.3840274810790895,0.0,0.0,0.2271080017089828
3.6000016689300494,0.13943080604076385,0.11701938509941101,0.4150077998638153,-0.09677550454888122,-0.05430134027212427,0.15206042875935322,0.13943080604076385,0.11701938509941101,0.019589654779524013,-0.09677550454888122,-0.05430134027212427,-0.07641953984426128,0.11395557378353383,-0.0475973876254745,0.010338110326367556,-0.013941210694611073,-0.05717487260699272,-0.008583464659750455,0.0,-1.548861265815509,-0.6516020617350096,15.399902989080282,0.0,0.0,0.0,0.0,0.0,0.3954181450842913,0.0,0.0,0.2284799686036145,0.0,0.0,0.0,0.0,0.0,0.0,0.0,0.0,0.3954177637672301,0.0,0.0,0.2284799251556383
3.650001668930049,0.13396428525447845,0.1123683974146843,0.42332738637924194,-0.09756800668610963,-0.05448791432465801,0.1940583724022858,0.13396428525447845,0.1123683974146843,0.01645387800772341,-0.09756800668610963,-0.05448791432465801,-0.03565260382202762,0.11691754797759435,-0.0516280114463461,0.01027632202396056,-0.023121481761336327,-0.04731076583266258,-0.016443543136119836,0.0,-1.2976030150518176,-0.5606822468179025,14.410468709121306,0.0,0.0,0.0,0.0,0.0,0.40687350837151853,0.0,0.0,0.2297109762243134,0.0,0.0,0.0,0.0,0.0,0.0,0.0,0.0,0.4068731249999874,0.0,0.0,0.2297109374999986
3.700001668930049,0.12891343235969543,0.1077757477760315,0.43212494254112244,-0.09701460688139878,-0.05791916106224454,0.22311009731955878,0.12891343235969543,0.1077757477760315,0.013738067884632388,-0.09701460688139878,-0.05791916106224454,-0.007689808089124506,0.11726369783798507,-0.0541956427004342,0.013281253906588297,-0.051578227430582047,-0.036459341645240784,0.027731781825423244,0.0,-1.5972625462689787,-0.6480289382551929,15.529022356400741,0.0,0.0,0.0,0.0,0.0,0.41838687465649005,0.0,0.0,0.23079990540868328,0.0,0.0,0.0,0.0,0.0,0.0,0.0,0.0,0.4183864894676078,0.0,0.0,0.2307998714447011
3.750001668930049,0.12313414365053177,0.1029563769698143,0.4430958330631256,-0.0920200119874578,-0.061242375527946695,0.25948577871770556,0.12313414365053177,0.1029563769698143,0.013144719367032875,-0.0920200119874578,-0.061242375527946695,0.027740052524659053,0.10969927262083923,-0.052655982765621,0.011414527856933532,0.012440393678843975,0.012259341776370999,-0.02515949122607708,0.0,-0.6023592460059921,-0.3290232455754896,11.486638763032161,0.0,0.0,0.0,0.0,0.0,0.42995111369609273,0.0,0.0,0.2317457261930465,0.0,0.0,0.0,0.0,0.0,0.0,0.0,0.0,0.4299507269286979,0.0,0.0,0.2317456970214833
3.8000016689300486,0.11821849644184113,0.09812244772911072,0.4511287808418274,-0.09378773242562238,-0.06879466636971385,0.15253861031967278,0.11821849644184113,0.09812244772911072,0.009569733659569868,-0.09378773242562238,-0.06879466636971385,-0.08000893562315362,0.11939936409371477,-0.047468836555963456,0.013251732615495726,-0.04137038439512253,0.17184948921203613,-0.002282069763168714,0.0,-0.7995740010454683,-0.37121555516936455,12.140155057524321,0.0,0.0,0.0,0.0,0.0,0.4415590471822575,0.0,0.0,0.2325475459428264,0.0,0.0,0.0,0.0,0.0,0.0,0.0,0.0,0.4415586590766772,0.0,0.0,0.2325475215911857
3.8500016689300485,0.11314449459314346,0.09306319057941437,0.45464035868644714,-0.09644929797461682,-0.07574392689400884,0.10368455960784603,0.11314449459314346,0.09306319057941437,0.001436903078033458,-0.09644929797461682,-0.07574392689400884,-0.1295200497447025,0.1108488051972012,-0.04101670960499293,0.010002969645001691,-0.038568343967199326,0.14488115906715393,-0.016518317162990587,0.0,-1.5580974760224782,-0.56201639726664,15.484362164604459,0.0,0.0,0.0,0.0,0.0,0.4532034556084137,0.0,0.0,0.23320460935254853,0.0,0.0,0.0,0.0,0.0,0.0,0.0,0.0,0.4532030664062363,0.0,0.0,0.2332045898437493
3.9000016689300483,0.10713864862918854,0.08762402832508087,0.4586619734764099,-0.11935233085052542,-0.08700412698220958,0.15508560163423626,0.10713864862918854,0.08762402832508087,-0.006215111659534478,-0.11935233085052542,-0.08700412698220958,-0.07863069681160345,0.1145478165018714,-0.04183652638710855,0.004313887337647593,-0.041505951434373856,-0.10636461526155472,0.02413890138268472,0.0,-1.8324656549772327,-0.6133287131563016,16.83668576201029,0.0,0.0,0.0,0.0,0.0,0.4648770851359444,0.0,0.0,0.23371629844583972,0.0,0.0,0.0,0.0,0.0,0.0,0.0,0.0,0.4648766950797894,0.0,0.0,0.2337162837982173
3.950001668930048,0.10025300085544586,0.08218413591384888,0.4672633707523346,-0.09973472235404512,-0.0745358244951714,0.23712870293385574,0.10025300085544586,0.08218413591384888,-0.009309283708307303,-0.09973472235404512,-0.0745358244951714,0.003046570358427536,0.11047308947244261,-0.0497611161125775,0.01089067262936183,0.01476796343922615,-0.13461419939994812,-0.01642001606523989,0.0,-1.3122478881914583,-0.4374582229076107,15.05163824861252,0.0,0.0,0.0,0.0,0.0,0.4765726544606419,0.0,0.0,0.2340821325754282,0.0,0.0,0.0,0.0,0.0,0.0,0.0,0.0,0.4765722637939311,0.0,0.0,0.234082122802734
4.000001668930048,0.09335421770811081,0.07628609985113144,0.4791925549507141,-0.09677187261265438,-0.0834090340934424,0.30137109344383256,0.09335421770811081,0.07628609985113144,-0.00909030672844785,-0.09677187261265438,-0.0834090340934424,0.06706932502068863,0.11259921378013216,-0.06116013957013866,0.005908965598013793,-0.038546204566955566,-0.009969089180231096,-0.012727296911180018,0.0,-0.8500702561566281,-0.31604036167775673,12.764104926894225,0.0,0.0,0.0,0.0,0.0,0.48828286167916196,0.0,0.0,0.23430176842314393,0.0,0.0,0.0,0.0,0.0,0.0,0.0,0.0,0.4882824706458902,0.0,0.0,0.2343017635345457
4.050001668930048,0.08702708780765533,0.07056412845849991,0.48952510952949524,-0.0967015890205456,-0.08182370403153184,0.2615805826121959,0.08702708780765533,0.07056412845849991,-0.010475281625984989,-0.0967015890205456,-0.08182370403153184,0.02720558261227743,0.10933322052330618,-0.046659050278973435,0.0039185989353249795,-0.05056152492761612,0.0901724100112915,-0.01534220576286317,0.0,-0.836865099699379,-0.27722346267184517,12.496431506778512,0.0,0.0,0.0,0.0,0.0,0.5000003911554802,0.0,0.0,0.23437499999991848,0.0,0.0,0.0,0.0,0.0,0.0,0.0,0.0,0.4999999999999852,0.0,0.0,0.234375
4.100001668930048,0.08114907145500183,0.06504181772470474,0.4966280162334442,-0.10686475695448015,-0.0867947549677517,0.16903343562394824,0.08114907145500183,0.06504181772470474,-0.015089904153900768,-0.10686475695448015,-0.0867947549677517,-0.06526832302183658,0.10539031717939817,-0.035731884013316506,0.009147751773105561,-0.02826531231403351,0.09301222115755081,-0.027574993669986735,0.0,-1.2417849443132472,-0.39003255911332163,14.254789914702238,0.0,0.0,0.0,0.0,0.0,0.511717920387345,0.0,0.0,0.2343017586457848,0.0,0.0,0.0,0.0,0.0,0.0,0.0,0.0,0.5117175293540807,0.0,0.0,0.234301763534546
4.150001668930048,0.07459987699985504,0.05899832397699356,0.5024751424789429,-0.10106624270309654,-0.09173383889194285,0.17092230911143938,0.07459987699985504,0.05899832397699356,-0.020952984393792007,-0.10106624270309654,-0.09173383889194285,-0.06315980391843842,0.10871128968372856,-0.037224301737794896,0.008791761017121758,-0.032002415508031845,0.014412071555852888,-0.01922785118222237,0.0,-1.5508293948952256,-0.4619848395944534,15.958019794088894,0.0,0.0,0.0,0.0,0.0,0.5234281268727349,0.0,0.0,0.2340821130298778,0.0,0.0,0.0,0.0,0.0,0.0,0.0,0.0,0.5234277362060393,0.0,0.0,0.2340821228027347
4.200001668930048,0.06740240007638931,0.05289248749613762,0.510578989982605,-0.1030017082031936,-0.08055954980953245,0.24278313021206965,0.06740240007638931,0.05289248749613762,-0.024544704993707978,-0.1030017082031936,-0.08055954980953245,0.009066861061636178,0.10668702193657431,-0.04086022537329237,0.007132894570800019,-0.02796538919210434,-0.06680948287248611,0.014291963540017614,0.0,-1.3937403316654002,-0.3819834320739099,15.36134583698764,0.0,0.0,0.0,0.0,0.0,0.535123694976313,0.0,0.0,0.23371626915043348,0.0,0.0,0.0,0.0,0.0,0.0,0.0,0.0,0.535123304920181,0.0,0.0,0.2337162837982183
4.2500016689300475,0.06053746119141579,0.047808460891246796,0.521340012550354,-0.11019587832021845,-0.08832983218762315,0.27910453060536833,0.06053746119141579,0.047808460891246796,-0.025457310245527,-0.11019587832021845,-0.08832983218762315,0.04589996027057891,0.09922022630397276,-0.033000522774067065,0.0344137532868789,-0.025595728307962418,-0.05357898771762848,0.006485887337476022,0.0,-0.967969864412114,-0.2840746278309603,13.544223301778448,0.0,0.0,0.0,0.0,0.0,0.546797322795881,0.0,0.0,0.23320457033478942,0.0,0.0,0.0,0.0,0.0,0.0,0.0,0.0,0.5467969335937344,0.0,0.0,0.2332045898437509
4.300001668930047,0.053439367562532425,0.04203350841999054,0.5316246747970581,-0.10305203338037976,-0.08457695141490044,0.2345577173669313,0.053439367562532425,0.04203350841999054,-0.02681705423177716,-0.10305203338037976,-0.08457695141490044,0.002010220127545842,0.09355949381222484,-0.02370286933999921,0.03316315701100603,-0.047244638204574585,0.05901363864541054,-0.0034702606499195173,0.0,-0.8173373686668279,-0.2185172623745873,12.966510840655877,0.0,0.0,0.0,0.0,0.0,0.5584417290288353,0.0,0.0,0.23254749723938545,0.0,0.0,0.0,0.0,0.0,0.0,0.0,0.0,0.5584413409232933,0.0,0.0,0.2325475215911875
4.350001668930047,0.0466751754283905,0.036054790019989014,0.5397740006446838,-0.09869795224350379,-0.08615341577417596,0.20985222809707785,0.0466751754283905,0.036054790019989014,-0.030275659193938043,-0.09869795224350379,-0.08615341577417596,-0.021893439752683902,0.09819102575150485,-0.015959553305258556,0.03069164834845317,-0.024208419024944305,0.08584526181221008,0.0033961387816816464,0.0,-1.0922812388761152,-0.2921199251263278,14.147451396908604,0.0,0.0,0.0,0.0,0.0,0.5700496598386219,0.0,0.0,0.23174566784976175,0.0,0.0,0.0,0.0,0.0,0.0,0.0,0.0,0.570049273071273,0.0,0.0,0.2317456970214855
4.400001668930047,0.039715588092803955,0.030203748494386673,0.5468597412109375,-0.10117414670391402,-0.08128408384395694,0.20224113058168505,0.039715588092803955,0.030203748494386673,-0.034754154510253876,-0.10117414670391402,-0.08128408384395694,-0.028558706898876546,0.09873208932172073,-0.01928759944400138,0.029892592310888588,-0.02307470515370369,0.0004032305441796774,-0.004370972514152527,0.0,-1.3705356991505842,-0.3527628750949649,15.343938456165148,0.0,0.0,0.0,0.0,0.0,0.5816138957211914,0.0,0.0,0.2307998374805616,0.0,0.0,0.0,0.0,0.0,0.0,0.0,0.0,0.5816135105323627,0.0,0.0,0.2307998714447034
4.450001668930047,0.03213105723261833,0.024351313710212708,0.5555225014686584,-0.11634942806955406,-0.08676759504499017,0.21918363666929924,0.03213105723261833,0.024351313710212708,-0.03760475690279508,-0.11634942806955406,-0.08676759504499017,-0.010527262106229174,0.09941544211221576,-0.02472563880915235,0.03345922242061761,-0.009864664636552334,-0.058643318712711334,0.007059990428388126,0.0,-1.2937389181852454,-0.33611692971849827,15.189932307852681,0.0,0.0,0.0,0.0,0.0,0.5931272583714535,0.0,0.0,0.22971089877552842,0.0,0.0,0.0,0.0,0.0,0.0,0.0,0.0,0.5931268749999838,0.0,0.0,0.2297109375000015
4.500001668930047,0.02291332371532917,0.01584768109023571,0.5678524374961853,-0.10398188386100275,-0.07943521197777938,0.26690046359045644,0.02291332371532917,0.01584768109023571,-0.03673018005354811,-0.10398188386100275,-0.07943521197777938,0.03842058188294872,0.10089715787229725,-0.13794117564899677,-0.03417753344489416,0.009709631092846394,-0.03283758461475372,-0.007424392737448211,0.0,-0.9825398353169743,-0.23308225892663126,14.182687072346075,0.0,0.0,0.0,0.0,0.0,0.6045826175497334,0.0,0.0,0.22847988170750771,0.0,0.0,0.0,0.0,0.0,0.0,0.0,0.0,0.6045822362327409,0.0,0.0,0.2284799251556414
4.550001668930046,0.015695201233029366,0.010368797928094864,0.5784407258033752,-0.09727504098806683,-0.07809073478764983,0.26723542807347334,0.015695201233029366,0.010368797928094864,-0.03753217214485094,-0.09727504098806683,-0.07809073478764983,0.04012747449502613,0.09752538234400543,-0.1358476269227129,-0.034575159389571564,-0.024755241349339485,0.04704936966300011,-0.004833173006773001,0.0,-0.8515280738429868,-0.1926092474246584,13.425136058980627,0.0,0.0,0.0,0.0,0.0,0.6159728979482262,0.0,0.0,0.2271079535784472,0.0,0.0,0.0,0.0,0.0,0.0,0.0,0.0,0.6159725189208816,0.0,0.0,0.2271080017089864
4.600001668930046,0.010074524208903313,0.007779931183904409,0.5860098004341125,-0.10051906489836274,-0.0717460146488135,0.21248268510402257,0.010074524208903313,0.007779931183904409,-0.04128128562333855,-0.10051906489836274,-0.0717460146488135,-0.013113733915372572,0.08261644708774218,-0.02475962307770674,0.02598007072417552,-0.03960077837109566,0.07922251522541046,-0.023190123960375796,0.0,-1.00599993365798,-0.2267227876079212,14.005790772374917,0.0,0.0,0.0,0.0,0.0,0.6272910860574511,0.0,0.0,0.22559641901939514,0.0,0.0,0.0,0.0,0.0,0.0,0.0,0.0,0.627290709552748,0.0,0.0,0.2255964717865014
4.650001668930046,0.002812036545947194,0.003097428008913994,0.5937691330909729,-0.1001125908420389,-0.0672486421945089,0.20404299868705963,0.002812036545947194,0.003097428008913994,-0.04476110394173449,-0.1001125908420389,-0.0672486421945089,-0.019903721303442062,0.08682830224763638,-0.023032282472734256,0.0325119857049021,-0.017434025183320045,0.029495773836970326,-0.01777175068855286,0.0,-1.1989363794927885,-0.3000453403146579,15.03422412354693,0.0,0.0,0.0,0.0,0.0,0.6385302370327074,0.0,0.0,0.2239467199905017,0.0,0.0,0.0,0.0,0.0,0.0,0.0,0.0,0.6385298632812328,0.0,0.0,0.2239467773437529
4.700001668930046,-0.00505890091881156,-0.002852093894034624,0.6024374961853027,-0.11744852301415316,-0.06170465922501088,0.23698253532010144,-0.00505890091881156,-0.002852093894034624,-0.04724598537522795,-0.11744852301415316,-0.06170465922501088,0.014822099539082534,0.09365307315135762,-0.027925991155031582,0.004789394800388536,0.025680532678961754,-0.035520005971193314,-0.0004937674384564118,0.0,-1.4217850921198822,-0.372048403799229,16.067689420058084,0.0,0.0,0.0,0.0,0.0,0.6496834815605307,0.0,0.0,0.2221604357810189,0.0,0.0,0.0,0.0,0.0,0.0,0.0,0.0,0.6496831107902354,0.0,0.0,0.2221604976654082
4.750001668930046,-0.012847152538597584,-0.007667461410164833,0.6140322685241699,-0.09814536032460272,-0.048835326580338734,0.2860621262270494,-0.012847152538597584,-0.007667461410164833,-0.046711764200975114,-0.09814536032460272,-0.048835326580338734,0.06582284321774895,0.09116664561533128,-0.039489091388527076,0.00508588782937025,0.026482436805963516,-0.08506257086992264,0.014929060824215423,0.0,-0.7131934706308638,-0.18826310709427208,13.424215849534427,0.0,0.0,0.0,0.0,0.0,0.660744032725145,0.0,0.0,0.22023928300930046,0.0,0.0,0.0,0.0,0.0,0.0,0.0,0.0,0.6607436651611158,0.0,0.0,0.2202393493652374
4.8000016689300455,-0.019714446738362312,-0.012379549443721771,0.625551164150238,-0.09063878004089106,-0.05077451496172182,0.2532592282269871,-0.019714446738362312,-0.012379549443721771,-0.04615402872468244,-0.09063878004089106,-0.05077451496172182,0.03507411260418669,0.0683968942916704,-0.030274371196684413,-0.006986196050638327,-0.010323417373001575,0.08644121140241623,-0.03726428002119066,0.0,-0.647298964465019,-0.18865020743596828,12.81275018075305,0.0,0.0,0.0,0.0,0.0,0.6717051928749205,0.0,0.0,0.2181851156228004,0.0,0.0,0.0,0.0,0.0,0.0,0.0,0.0,0.6717048287391487,0.0,0.0,0.2181851863861117
4.850001668930045,-0.02648349106311798,-0.016827771440148354,0.6344720125198364,-0.08823024943008753,-0.04977734812970477,0.20718549726884325,-0.02648349106311798,-0.016827771440148354,-0.04808834796899064,-0.08823024943008753,-0.04977734812970477,-0.008814427629232874,0.06792518267611802,-0.02540149593975638,-0.006361117774005276,-0.00808373000472784,0.12706564366817474,-0.03347967565059663,0.0,-1.0240729250574259,-0.27681580935988986,14.371921282186628,0.0,0.0,0.0,0.0,0.0,0.6825603604888271,0.0,0.0,0.21599992489807612,0.0,0.0,0.0,0.0,0.0,0.0,0.0,0.0,0.6825599999999824,0.0,0.0,0.2160000000000038
4.900001668930045,-0.03390653431415558,-0.020772960036993027,0.6426576972007751,-0.09392262714547699,-0.04018876110025708,0.20353844915160946,-0.03390653431415558,-0.020772960036993027,-0.05064533984211583,-0.09392262714547699,-0.04018876110025708,-0.010147390289175773,0.09331700862301373,-0.027903438828549287,0.004284826394870933,-0.007670217659324408,-0.013427839614450928,0.030630428344011307,0.0,-1.33430420109875,-0.3588414060391302,15.809785814012898,0.0,0.0,0.0,0.0,0.0,0.693303037042891,0.0,0.0,0.21368583944078523,0.0,0.0,0.0,0.0,0.0,0.0,0.0,0.0,0.6933026804160896,0.0,0.0,0.213685918807987
4.950001668930045,-0.0409538708627224,-0.02464372292160988,0.6519793272018433,-0.1075023707064422,-0.049362928150836344,0.24050371069462992,-0.0409538708627224,-0.02464372292160988,-0.051947506674804855,-0.1075023707064422,-0.049362928150836344,0.029258585508942198,0.0701254014547752,-0.02630608078754504,-0.010140599315108467,0.009681358933448792,-0.055279720574617386,0.013022234663367278,0.0,-1.1889428193052516,-0.34583609791347714,15.423732004239113,0.0,0.0,0.0,0.0,0.0,0.7039268338766481,0.0,0.0,0.21124512518568772,0.0,0.0,0.0,0.0,0.0,0.0,0.0,0.0,0.7039264813232243,0.0,0.0,0.2112452087402385
5.000001668930045,-0.04791877791285515,-0.02784646861255169,0.6638579964637756,-0.09819573237453237,-0.03809392926494973,0.2875779823460064,-0.04791877791285515,-0.02784646861255169,-0.050567482595824886,-0.09819573237453237,-0.03809392926494973,0.07889779694936205,0.07044866698668795,-0.02529630708338093,-0.0035866339871999386,-0.007966826669871807,-0.030297150835394856,0.014899842441082004,0.0,-0.7926294137374783,-0.2136233218357945,13.967004166174426,0.0,0.0,0.0,0.0,0.0,0.7144254790596005,0.0,0.0,0.20868018539664435,0.0,0.0,0.0,0.0,0.0,0.0,0.0,0.0,0.7144251307868786,0.0,0.0,0.2086802730560347
