time,pos_x,pos_y,pos_z,vel_x,vel_y,vel_z,pos_xo,pos_yo,pos_zo,vel_xo,vel_yo,vel_zo,roll,pitch,yaw,roll_vel,pitch_vel,yaw_vel,thrust_z,force_x,force_y,force_z,torque_x,torque_y,torque_z,pos_xd,pos_yd,pos_zd,vel_xd,vel_yd,vel_zd,roll_d,pitch_d,yaw_d,roll_vel_d,pitch_vel_d,yaw_vel_d,pos_xr,pos_yr,pos_zr,vel_xr,vel_yr,vel_zr
0.050003576278686526,-0.012730740010738373,-0.05422038212418556,0.18685804307460785,-0.006472392260196718,0.0015568955504648568,0.0010134571985042527,-0.012730740010738373,-0.05422038212418556,-0.21314195692784776,-0.006472392260196718,0.0015568955504648568,0.0010120839114176393,0.08604393269266186,-0.00045114442742821836,0.011925131497136476,0.0,0.0,0.0,0.0,-0.05565336748959767,-0.3575193218326642,12.452863138201211,0.0,0.0,0.0,0.0,0.0,0.4000000000024556,0.0,0.0,1.3732870866135091e-06,0.0,0.0,0.0,0.0,0.0,0.0,0.0,0.0,0.4,0.0,0.0,0.0
0.10000357627868653,-0.012700648978352547,-0.053992487490177155,0.1866818070411682,-0.006591177687245919,0.0011033878377592157,0.00026752151141869787,-0.012700648978352547,-0.053992487490177155,-0.2137856489022223,-0.006591177687245919,0.0011033878377592157,-0.018180902382370964,0.0720478170097465,-0.0020396151685173614,0.007906212973692206,-0.016345150768756866,-0.013950192369520654,0.08828456699848175,0.0,2.3868825197109165,4.662614499592911,23.2848,0.0,0.0,0.0,0.0,0.0,0.4004674559433905,0.0,0.0,0.018448423893789662,0.0,0.0,0.0,0.0,0.0,0.0,0.0,0.0,0.4004673899689503,0.0,0.0,0.0184471572317246
0.15000357627868655,-0.01256471499800682,-0.052793070673942566,0.18958348035812378,0.01912352467521883,0.04199597270198031,0.1443348483848008,-0.01256471499800682,-0.052793070673942566,-0.21223725395616022,0.01912352467521883,0.04199597270198031,0.10888601439624175,0.06379354793885783,-0.0022576760672756713,0.010625208509964068,-0.33494362235069275,0.14581429958343506,0.06795029342174529,0.0,2.7254308743068956,-0.006727347871946059,23.2848,0.0,0.0,0.0,0.0,0.0,0.401820734314284,0.0,0.0,0.03544883398855904,0.0,0.0,0.0,0.0,0.0,0.0,0.0,0.0,0.40182060754146,0.0,0.0,0.0354476677012468
0.20000357627868653,-0.008601030334830284,-0.049386825412511826,0.2068595439195633,0.1390626661587489,0.031214408520162107,0.4408840626609956,-0.008601030334830284,-0.049386825412511826,-0.19713010530840358,0.1390626661587489,0.031214408520162107,0.3897963736694797,0.055352273805158614,0.01638718107065884,0.011417305124028054,-0.02763434499502182,0.3077075481414795,-0.019738093018531837,0.0,-5.329856482025461,1.812039674265426,20.224827769235283,0.0,0.0,0.0,0.0,0.0,0.4039896492279669,0.0,0.0,0.05108768899151589,0.0,0.0,0.0,0.0,0.0,0.0,0.0,0.0,0.4039894665260701,0.0,0.0,0.0510866171549083
0.2500035762786865,-0.006321372929960489,-0.04408518597483635,0.2446121722459793,0.009947796506316909,0.2488537048695014,0.9961097839450597,-0.006321372929960489,-0.04408518597483635,-0.1622959846835772,0.009947796506316909,0.2488537048695014,0.9306641579527509,0.038005384841984124,0.0033131793573657475,0.011490136811747043,-0.3926146924495697,-1.056233525276184,0.011603934690356385,0.0,-6.472366023698293,2.3272298828208093,22.71310848345427,0.0,0.0,0.0,0.0,0.0,0.4069081569295565,0.0,0.0,0.0654456259923087,0.0,0.0,0.0,0.0,0.0,0.0,0.0,0.0,0.4069079228795169,0.0,0.0,0.065444642992605
0.3000035762786865,-0.00995334330946207,-0.03493240848183632,0.30080583691596985,0.047224990594440394,0.305114378431881,1.2826264974532282,-0.00995334330946207,-0.03493240848183632,-0.10970830195838854,0.047224990594440394,0.305114378431881,1.204027445676167,0.017049363689042085,-0.06833772051874654,0.012085858339505151,-0.4571891725063324,-1.6232240200042725,0.027272842824459274,0.0,-4.532978706453067,0.9919742603094843,16.955066730277153,0.0,0.0,0.0,0.0,0.0,0.4105141388743584,0.0,0.0,0.07859905177706109,0.0,0.0,0.0,0.0,0.0,0.0,0.0,0.0,0.4105138577838531,0.0,0.0,0.0785981522954863
0.3500035762786865,-0.01619301736354828,-0.021968727931380272,0.3801549971103668,0.32587387772671356,0.18511023059988072,1.5341541589090206,-0.01619301736354828,-0.021968727931380272,-0.034594198338277815,0.32587387772671356,0.18511023059988072,1.443533808312453,-0.03097843584011084,-0.14293289067159076,-0.0031023128488660845,-0.0948638916015625,-1.2423388957977295,0.028847359120845947,0.0,2.5204474659938687,-1.4571240583206722,14.491906171059357,0.0,0.0,0.0,0.0,0.0,0.41474919544864464,0.0,0.0,0.09062035059656759,0.0,0.0,0.0,0.0,0.0,0.0,0.0,0.0,0.4147488713664842,0.0,0.0,0.090619529594867
0.4000035762786865,-0.015027418732643127,-0.01368784811347723,0.452531099319458,0.36141326962852427,0.14962826810619656,1.466917291646638,-0.015027418732643127,-0.01368784811347723,0.03297264948726131,0.36141326962852427,0.14962826810619656,1.3653392095016064,-0.0027907444073855814,-0.13150122165765188,-0.001462510091220004,1.0401685237884521,0.9320064187049866,-0.08137118816375744,0.0,0.9696418156448163,-2.495020475775885,9.86714186988582,0.0,0.0,0.0,0.0,0.0,0.4195584498321967,0.0,0.0,0.10157808214503153,0.0,0.0,0.0,0.0,0.0,0.0,0.0,0.0,0.4195580865620028,0.0,0.0,0.1015773348516495
0.4500035762786865,-0.010715119540691376,-0.009533015079796314,0.5100213289260864,0.2255687006375377,0.22502303566269433,1.1775092186214142,-0.010715119540691376,-0.009533015079796314,0.0851309674016576,0.2255687006375377,0.22502303566269433,1.0659720484238069,0.0525414890928535,-0.08111480669022697,-0.0008157999128433069,1.551424503326416,1.0964717864990234,-0.0575174801051618,0.0,-2.026512051755502,-2.8956247113262723,2.2572597490901796,0.0,0.0,0.0,0.0,0.0,0.42489036152442883,0.0,0.0,0.11153717019760744,0.0,0.0,0.0,0.0,0.0,0.0,0.0,0.0,0.4248899626376369,0.0,0.0,0.1115364920945189
0.5000035762786865,-0.011876985430717468,-0.0065573654137551785,0.562765896320343,0.10113326989040058,0.24492867516509556,1.0205893195654054,-0.011876985430717468,-0.0065573654137551785,0.13206934724252417,0.10113326989040058,0.24492867516509556,0.9000302372304956,0.1451984210080246,-0.06474692448032959,0.012672501616917131,1.610239028930664,-0.33026957511901855,0.05639459565281872,0.0,2.719072511850297,-2.8553506311392365,4.201347495514909,0.0,0.0,0.0,0.0,0.0,0.43069654907781885,0.0,0.0,0.12055908233490986,0.0,0.0,0.0,0.0,0.0,0.0,0.0,0.0,0.4306961179260387,0.0,0.0,0.1205584691450742
0.5500035762786866,-0.014453631825745106,-0.0047098551876842976,0.5958670973777771,0.10256012652225986,0.28352544155967513,0.45230877106664946,-0.014453631825745106,-0.0047098551876842976,0.15893547577447809,0.10256012652225986,0.28352544155967513,0.3236067699032156,0.2189516967531424,-0.06083171602861537,0.019787681372003263,1.5693880319595337,0.5557551980018616,0.04842003062367432,0.0,-1.5562245833850326,-0.19625581817783977,7.70129597532965,0.0,0.0,0.0,0.0,0.0,0.436931621603299,0.0,0.0,0.12870200116343392,0.0,0.0,0.0,0.0,0.0,0.0,0.0,0.0,0.436931161330063,0.0,0.0,0.1287014488388428
0.6000035762786866,-0.01523543894290924,-0.0006467881030403078,0.6109725832939148,0.023860660157482335,0.3160733108746741,0.26311139743993345,-0.01523543894290924,-0.0006467881030403078,0.1674195646616763,0.023860660157482335,0.3160733108746741,0.12709041001746643,0.28617518463489144,-0.04936915931307473,0.04272927178162256,0.059972889721393585,-0.5254974365234375,0.18465614318847662,0.0,-4.561893825114432,-1.7701765681066763,8.226181446398265,0.0,0.0,0.0,0.0,0.0,0.4435530186322385,0.0,0.0,0.13602098742246702,0.0,0.0,0.0,0.0,0.0,0.0,0.0,0.0,0.4435525321841659,0.0,0.0,0.1360204921327595
0.6500035762786867,-0.025126321241259575,0.006567458622157574,0.6151189208030701,-0.17924178280585615,0.26378404850979503,0.08849032961179966,-0.025126321241259575,0.006567458622157574,0.16459806286432943,-0.17924178280585615,0.26378404850979503,-0.054077805738717274,0.27747497433614043,-0.09912672979611958,0.05284635708162355,-0.45747920870780945,-1.6566905975341797,0.08685640990734121,0.0,-4.259288800990573,0.2551009618124933,11.192101731689593,0.0,0.0,0.0,0.0,0.0,0.45052085793874064,0.0,0.0,0.14256813535051693,0.0,0.0,0.0,0.0,0.0,0.0,0.0,0.0,0.450520348076147,0.0,0.0,0.1425676934721349
0.7000035762786867,-0.04001704230904579,0.014670600183308125,0.6093469858169556,-0.20798783965939624,0.24596037673992416,-0.010975396010983511,-0.04001704230904579,0.014670600183308125,0.15154919487274932,-0.20798783965939624,0.24596037673992416,-0.15936811667848452,0.2205434627277687,-0.18306045352844214,0.04136064777402648,-1.1005302667617798,-0.7594027519226074,-0.05500065162777892,0.0,0.5518347038674492,-0.9970042528381908,14.04187417329237,0.0,0.0,0.0,0.0,0.0,0.45779779094420625,0.0,0.0,0.148392720667501,0.0,0.0,0.0,0.0,0.0,0.0,0.0,0.0,0.4577972602511827,0.0,0.0,0.1483923287733606
0.7500035762786867,-0.04948704317212105,0.02077345922589302,0.5990015864372253,-0.10223797936132077,0.13413682165812593,-0.14470269738625186,-0.04948704317212105,0.02077345922589302,0.13365272109370607,-0.10223797936132077,0.13413682165812593,-0.2982440388991586,0.1705528934659677,-0.19853660944397777,0.02745664834926309,-0.7965710759162903,0.73086017370224,-0.08018508553504952,0.0,1.6516957093693652,-1.3920364556509195,13.861670317157696,0.0,0.0,0.0,0.0,0.0,0.46534886534351927,0.0,0.0,0.1535413415129068,0.0,0.0,0.0,0.0,0.0,0.0,0.0,0.0,0.4653483162375093,0.0,0.0,0.1535409963625615
0.8000035762786868,-0.052929848432540894,0.022453008219599724,0.5845375657081604,-0.09474689204112292,0.077356476913016,-0.21615967568951538,-0.052929848432540894,0.022453008219599724,0.11139617109931987,-0.09474689204112292,0.077356476913016,-0.3742177283543213,0.14246781900799732,-0.13151637572947106,0.014947316529258181,-0.3070789873600006,1.7094511985778809,-0.05963300913572332,0.0,2.044098354219918,-1.532940162610147,15.005432057155247,0.0,0.0,0.0,0.0,0.0,0.4731413946088405,0.0,0.0,0.1580580526648059,0.0,0.0,0.0,0.0,0.0,0.0,0.0,0.0,0.4731408293497346,0.0,0.0,0.1580577511950796
0.8500035762786868,-0.05578405037522316,0.02028072066605091,0.5684296488761902,-0.10831456825603411,0.022429133073015257,-0.2621050653124257,-0.05578405037522316,0.02028072066605091,0.08728481483332495,-0.10831456825603411,0.022429133073015257,-0.42408955866238296,0.14618905745094013,-0.05598587860229909,0.0161345795291421,-0.23492096364498138,1.6397286653518677,-0.028182556852698527,0.0,0.3689367638225182,-0.17111523629562558,15.589320027347096,0.0,0.0,0.0,0.0,0.0,0.48114483404286523,0.0,0.0,0.16198449334995726,0.0,0.0,0.0,0.0,0.0,0.0,0.0,0.0,0.4811442547416404,0.0,0.0,0.1619842326660245
0.9000035762786869,-0.061286985874176025,0.01748722977936268,0.5512018799781799,-0.1493713809902302,0.02114918561177364,-0.24742661572384392,-0.061286985874176025,0.01748722977936268,0.06187121690961661,-0.1493713809902302,0.02114918561177364,-0.41278662466507915,0.12906558864426598,0.013544719180729636,0.012690183527039878,-0.4001598656177521,0.6327925324440002,0.03461880981922142,0.0,-1.0866239402165565,-0.9041244830687111,15.948319782288392,0.0,0.0,0.0,0.0,0.0,0.4893306630685633,0.0,0.0,0.16536000894123523,0.0,0.0,0.0,0.0,0.0,0.0,0.0,0.0,0.4893300716954858,0.0,0.0,0.1653597863081285
0.9500035762786869,-0.07125173509120941,0.013409089297056198,0.5353664755821228,-0.19122633644578077,-0.015403523833818605,-0.19367583629656449,-0.07125173509120941,0.013409089297056198,0.03769420212522878,-0.19122633644578077,-0.015403523833818605,-0.36189760312180674,0.11296567205392716,0.029956913573225386,0.013472188297189547,-0.24947725236415863,0.05309666693210602,0.01811068877577781,0.0,1.0598701087843554,-0.508848755092591,16.266914685722085,0.0,0.0,0.0,0.0,0.0,0.497672273456894,0.0,0.0,0.16822176682524226,0.0,0.0,0.0,0.0,0.0,0.0,0.0,0.0,0.4976716718493094,0.0,0.0,0.1682215796597662
1.000003576278687,-0.0806092843413353,0.007923751138150692,0.5215357542037964,-0.15610514904915346,-0.03387401681016275,-0.18552237537954203,-0.0806092843413353,0.007923751138150692,0.01539089099598745,-0.15610514904915346,-0.03387401681016275,-0.35612724208972235,0.10565370377492123,0.031604376737826456,0.013848457808063763,-0.19773802161216736,0.2343277782201767,-0.0037490054965019512,0.0,1.12070427047745,-0.3676723831171828,15.812913212782483,0.0,0.0,0.0,0.0,0.0,0.5061448632078089,0.0,0.0,0.1706048667101803,0.0,0.0,0.0,0.0,0.0,0.0,0.0,0.0,0.506144253077536,0.0,0.0,0.1706047125732149
1.050003576278687,-0.08859709650278091,0.0013348679058253765,0.5071880221366882,-0.11884192483231813,-0.04805505129454929,-0.18300602147874115,-0.08859709650278091,0.0013348679058253765,-0.007537313676362789,-0.11884192483231813,-0.04805505129454929,-0.3555484671105809,0.09212846349011983,0.047803292509045026,0.011248911833301456,-0.14459650218486786,0.1803167760372162,0.02362362854182718,0.0,-0.21839586148440882,-0.867469402508266,15.500825395025265,0.0,0.0,0.0,0.0,0.0,0.514725335813051,0.0,0.0,0.17254244563183976,0.0,0.0,0.0,0.0,0.0,0.0,0.0,0.0,0.5147247187534008,0.0,0.0,0.1725423222210131
1.100003576278687,-0.09407559037208557,-0.00435458542779088,0.4973512589931488,-0.11547094781374503,-0.06043521746760973,-0.1736506090104175,-0.09407559037208557,-0.00435458542779088,-0.02604094564870929,-0.11547094781374503,-0.06043521746760973,-0.34771638691430795,0.09722081509335911,0.04459533739973054,0.01791493209204109,-0.03848961368203163,-0.0902988612651825,0.00778859155252577,0.0,0.4931564385140278,-0.38335829824421086,15.97568113830561,0.0,0.0,0.0,0.0,0.0,0.5233922046418581,0.0,0.0,0.17406577790389047,0.0,0.0,0.0,0.0,0.0,0.0,0.0,0.0,0.523391582134296,0.0,0.0,0.1740656830466049
1.150003576278687,-0.09900109469890594,-0.010801865719258785,0.4864128828048706,-0.059866095207932735,-0.0688056231873305,-0.162908412848742,-0.09900109469890594,-0.010801865719258785,-0.04571261939783866,-0.059866095207932735,-0.0688056231873305,-0.3381127830962469,0.08592623186086135,0.04314209499590227,0.01483760719966476,-0.1118355244398117,-0.026411738246679306,0.00957417115569115,0.0,0.7109373249149318,-0.13669906322816522,15.972898864899843,0.0,0.0,0.0,0.0,0.0,0.5321255022027093,0.0,0.0,0.1752043702475049,0.0,0.0,0.0,0.0,0.0,0.0,0.0,0.0,0.532124875623176,0.0,0.0,0.1752043018942999
1.2000035762786871,-0.10126541554927826,-0.016668397933244705,0.47706517577171326,-0.04038201005322121,-0.06402914292460546,-0.1561504634490116,-0.10126541554927826,-0.016668397933244705,-0.0638415182740163,-0.04038201005322121,-0.06402914292460546,-0.33213651577369707,0.07964841443671755,0.04773833050589893,0.01366261184192652,-0.1336761713027954,0.0174765232950449,0.0011895971838384845,0.0,0.1998188208576281,-0.23237407170099672,15.814827794363204,0.0,0.0,0.0,0.0,0.0,0.5409066940457296,0.0,0.0,0.17598605232468548,0.0,0.0,0.0,0.0,0.0,0.0,0.0,0.0,0.5409060646706392,0.0,0.0,0.1759860085429214
1.2500035762786872,-0.10201702266931534,-0.022242238745093346,0.4688076972961426,-0.014959806529182957,-0.07038741630941504,-0.13773945006046576,-0.10201702266931534,-0.022242238745093346,-0.08091089978519572,-0.014959806529182957,-0.07038741630941504,-0.3141765129499495,0.07553315867575039,0.03992947277050529,0.016194823444683593,-0.09065152704715729,-0.06703922897577286,-0.006013595499098293,0.0,0.2508717280300499,-0.20352605370483584,15.917077521259081,0.0,0.0,0.0,0.0,0.0,0.5497185970813383,0.0,0.0,0.17643706288948377,0.0,0.0,0.0,0.0,0.0,0.0,0.0,0.0,0.5497179660932676,0.0,0.0,0.1764370418573316
1.3000035762786872,-0.10136307775974274,-0.02745559997856617,0.4619649350643158,0.005508467227160289,-0.0681022726710699,-0.1280438873927261,-0.10136307775974274,-0.02745559997856617,-0.09658036703686779,0.005508467227160289,-0.0681022726710699,-0.30462601915429577,0.06869051320932051,0.04125193016534556,0.015564589058835843,-0.07943926006555557,-0.065670907497406,0.0005743466317653736,0.0,0.30280667865443683,-0.04622286897556928,15.966385675347013,0.0,0.0,0.0,0.0,0.0,0.5585453021011836,0.0,0.0,0.17658213176156964,0.0,0.0,0.0,0.0,0.0,0.0,0.0,0.0,0.5585446705942685,0.0,0.0,0.1765821317622923
1.3500035762786873,-0.09901154041290283,-0.03211025148630142,0.45651745796203613,0.0557263017843304,-0.06069787503353065,-0.10436745480605394,-0.09901154041290283,-0.03211025148630142,-0.11085464233536335,0.0557263017843304,-0.06069787503353065,-0.28081201262336486,0.06800402616296086,0.035810872810342786,0.017080290532655695,-0.11634597927331924,-0.05993318557739258,0.014719807542860515,0.0,0.133275428610763,-0.04648145942589654,15.94232853744042,0.0,0.0,0.0,0.0,0.0,0.5673721002973995,0.0,0.0,0.1764445578173109,0.0,0.0,0.0,0.0,0.0,0.0,0.0,0.0,0.5673714692824521,0.0,0.0,0.1764445772338231
1.4000035762786873,-0.09497997164726257,-0.03600788861513138,0.45197051763534546,0.06763572620570084,-0.062235285197960864,-0.09315870205309139,-0.09497997164726257,-0.03600788861513138,-0.12421489595040769,0.06763572620570084,-0.062235285197960864,-0.26920498523773534,0.05943779288366091,0.035205941517873374,0.017558395197148968,-0.04078094661235809,-0.07910225540399551,0.0263735093176365,0.0,-0.00462244344919463,0.009415948373896782,15.915046840230712,0.0,0.0,0.0,0.0,0.0,0.5761854135857531,0.0,0.0,0.17604628318464396,0.0,0.0,0.0,0.0,0.0,0.0,0.0,0.0,0.5761847839951146,0.0,0.0,0.1760463204943365
1.4500035762786874,-0.08973388373851776,-0.03926010802388191,0.44893521070480347,0.1057172910564952,-0.05680832466227264,-0.06761781050097207,-0.08973388373851776,-0.03926010802388191,-0.13603751784254903,0.1057172910564952,-0.05680832466227264,-0.24302577432050076,0.05994661369318921,0.02866949058488455,0.019001892473522908,-0.06494012475013733,-0.08009685575962067,-0.006876383908092966,0.0,-0.005278081741520599,0.08207113148264958,15.946755998642214,0.0,0.0,0.0,0.0,0.0,0.5849727285473525,0.0,0.0,0.1754079638195287,0.0,0.0,0.0,0.0,0.0,0.0,0.0,0.0,0.5849721012394924,0.0,0.0,0.1754080175893461
1.5000035762786874,-0.08306411653757095,-0.04144284874200821,0.44708287715911865,0.11938221912272111,-0.04756227220272026,-0.053301381907575045,-0.08306411653757095,-0.04144284874200821,-0.1466396566531476,0.11938221912272111,-0.04756227220272026,-0.22785041854125146,0.055456489913630946,0.025195147217146552,0.01721645344481537,-0.07927211374044418,-0.10824456810951233,0.01340782362967731,0.0,-0.17608436417903006,0.10752019767185557,15.872943549820498,0.0,0.0,0.0,0.0,0.0,0.5937225338122663,0.0,0.0,0.1745490366336764,0.0,0.0,0.0,0.0,0.0,0.0,0.0,0.0,0.5937219095761419,0.0,0.0,0.1745491055154348
1.5500035762786875,-0.07538667321205139,-0.04289836809039116,0.4462403357028961,0.15227747180230822,-0.0354986981336528,-0.028803585411527007,-0.07538667321205139,-0.04289836809039116,-0.15618392501380707,0.15227747180230822,-0.0354986981336528,-0.202291368747021,0.048226680815766976,0.01708255824259819,0.016771759730950464,-0.07323487102985382,-0.09034227579832077,0.015852389857172976,0.0,-0.2465739929105781,0.10913650227824151,15.866864267206942,0.0,0.0,0.0,0.0,0.0,0.6024242607167032,0.0,0.0,0.173487783335494,0.0,0.0,0.0,0.0,0.0,0.0,0.0,0.0,0.6024236402758913,0.0,0.0,0.1734878660614286
1.6000035762786875,-0.06651835143566132,-0.04321876913309097,0.44696059823036194,0.16675834063938338,-0.027510823647744168,-0.017574746742450995,-0.06651835143566132,-0.04321876913309097,-0.16410762884294083,0.16675834063938338,-0.027510823647744168,-0.18981613788124266,0.053121197724089964,0.016610721795751626,0.01880255489201943,-0.03918622061610222,-0.09212551265954971,-0.006069153547286976,0.0,-0.36885745985324125,0.12400420183269444,15.816005439399873,0.0,0.0,0.0,0.0,0.0,0.6110682270733028,0.0,0.0,0.17224139113879167,0.0,0.0,0.0,0.0,0.0,0.0,0.0,0.0,0.611067611089914,0.0,0.0,0.1722414865173232
1.6500035762786875,-0.056959930807352066,-0.04254160821437836,0.4485337734222412,0.18554202179169224,-0.008103433333596474,0.005092987158959137,-0.056959930807352066,-0.04254160821437836,-0.17111181047940094,0.18554202179169224,-0.008103433333596474,-0.16573302332777454,0.04865936506558821,0.0057926025890919774,0.019294120516190283,0.006422589533030987,-0.11890347301959991,0.002028030343353763,0.0,-0.4660017689168388,0.11726894313429485,15.812073314300598,0.0,0.0,0.0,0.0,0.0,0.6196455839016421,0.0,0.0,0.17082601048673368,0.0,0.0,0.0,0.0,0.0,0.0,0.0,0.0,0.6196449729800284,0.0,0.0,0.1708261173984428
1.7000035762786876,-0.046764712780714035,-0.04085883870720863,0.4510667324066162,0.19588891523052787,0.0029026080159399075,0.017780100090532765,-0.046764712780714035,-0.04085883870720863,-0.17708153256665204,0.19588891523052787,0.0029026080159399075,-0.1514767098412299,0.05040762114943087,0.0028221492882050114,0.018671712226689507,-0.01704874262213707,-0.13179829716682434,0.002518135355785505,0.0,-0.5749860627068478,0.07983611228225596,15.759471965108153,0.0,0.0,0.0,0.0,0.0,0.6281482649732683,0.0,0.0,0.16925680993176268,0.0,0.0,0.0,0.0,0.0,0.0,0.0,0.0,0.628147659663534,0.0,0.0,0.1692569273255632
1.7500035762786876,-0.03601072356104851,-0.038108933717012405,0.4544562101364136,0.20840874874145382,0.0273093621506356,0.036459960515708906,-0.03601072356104851,-0.038108933717012405,-0.18211272889602104,0.20840874874145382,0.0273093621506356,-0.13108806779007157,0.048178966782431054,-0.0033847033207656807,0.018510545756329932,0.018429648131132126,-0.13362272083759308,0.01961441524326803,0.0,-0.654775927001964,0.05529448687954785,15.749618013403472,0.0,0.0,0.0,0.0,0.0,0.6365689390324346,0.0,0.0,0.16754802830578047,0.0,0.0,0.0,0.0,0.0,0.0,0.0,0.0,0.6365683398337625,0.0,0.0,0.1675481551952818
1.8000035762786877,-0.025007324293255806,-0.03405624255537987,0.45848268270492554,0.2223035092751578,0.040064698246486494,0.04997736529546262,-0.025007324293255806,-0.03405624255537987,-0.18641828185536047,0.2223035092751578,0.040064698246486494,-0.1157356590132482,0.058028558877641245,-0.011544398173999326,0.023312013545814025,0.026240894570946693,-0.12383779883384705,-0.009466079063713535,0.0,-0.763425007559565,-0.01591172753861189,15.703958199211577,0.0,0.0,0.0,0.0,0.0,0.644900964560286,0.0,0.0,0.16571302430871082,0.0,0.0,0.0,0.0,0.0,0.0,0.0,0.0,0.6449003719240842,0.0,0.0,0.1657131597687601
1.8500035762786877,-0.013742574490606785,-0.02925936132669449,0.4631078839302063,0.22828009782840972,0.059582218422363775,0.06836325254061788,-0.013742574490606785,-0.02925936132669449,-0.1900304630262839,0.22828009782840972,0.059582218422363775,-0.09540107109706854,0.05927909008837284,-0.017814140010654178,0.023148465506404037,0.06687889993190765,-0.09828651696443558,0.0004475334426388265,0.0,-0.8672133205890327,-0.05936998184004662,15.68848618756915,0.0,0.0,0.0,0.0,0.0,0.6531383469564902,0.0,0.0,0.16376432363768642,0.0,0.0,0.0,0.0,0.0,0.0,0.0,0.0,0.6531377612893712,0.0,0.0,0.1637644668010832
1.9000035762786878,-0.0022197135258466005,-0.023484988138079643,0.4686492681503296,0.23156686953561378,0.07257988209336017,0.08077627119880895,-0.0022197135258466005,-0.023484988138079643,-0.19262642986795464,0.23156686953561378,0.07257988209336017,-0.08093739257467875,0.06292168170020318,-0.022348086661941657,0.02408272069296835,0.044495414942502975,-0.10944131761789322,0.003378950990736498,0.0,-0.9559578428965384,-0.13181192165535302,15.652284586358974,0.0,0.0,0.0,0.0,0.0,0.6612756980182842,0.0,0.0,0.1617136637734877,0.0,0.0,0.0,0.0,0.0,0.0,0.0,0.0,0.6612751196848838,0.0,0.0,0.1617138138278613
1.9500035762786878,0.009148411452770233,-0.01683240942656994,0.47483691573143005,0.2335535579476257,0.08970279764195613,0.09843971087672719,0.009148411452770233,-0.01683240942656994,-0.19447128187117402,0.2335535579476257,0.08970279764195613,-0.06113232565876632,0.06356281182859203,-0.02458626730972613,0.02546226628394077,0.0790736973285675,-0.11347272247076035,0.024864261969923987,0.0,-1.0297039410985316,-0.1980153646605275,15.629431020236257,0.0,0.0,0.0,0.0,0.0,0.6693081976026041,0.0,0.0,0.1595720365354935,0.0,0.0,0.0,0.0,0.0,0.0,0.0,0.0,0.6693076269282483,0.0,0.0,0.1595721927203367
2.000003576278688,0.020168064162135124,-0.009359714575111866,0.4814777672290802,0.23391384467330506,0.0980244646982917,0.10517808281590094,0.020168064162135124,-0.009359714575111866,-0.19575379013331484,0.23391384467330506,0.0980244646982917,-0.05217164569538196,0.06474839458785775,-0.03281797229936956,0.02549630490718524,0.04811086878180504,-0.11657574772834778,0.027201278135180487,0.0,-1.120652030801645,-0.28236942536185966,15.580332605376118,0.0,0.0,0.0,0.0,0.0,0.677231557362395,0.0,0.0,0.1573497285112829,0.0,0.0,0.0,0.0,0.0,0.0,0.0,0.0,0.6772309946356223,0.0,0.0,0.1573498901151335
2.0500035762786877,0.031109124422073364,-0.001246588071808219,0.4882306456565857,0.23227849944173395,0.11570417280880477,0.11980414434559374,0.031109124422073364,-0.001246588071808219,-0.19681134079680307,0.23227849944173395,0.11570417280880477,-0.03525221511653838,0.06897763920542399,-0.033769614676726345,0.024741278926070365,0.06335100531578064,-0.10184777528047562,0.009154232218861592,0.0,-1.1835302875176683,-0.34645826619171854,15.58142527526205,0.0,0.0,0.0,0.0,0.0,0.6850419864533888,0.0,0.0,0.15505635946213212,0.0,0.0,0.0,0.0,0.0,0.0,0.0,0.0,0.6850414319283344,0.0,0.0,0.1550565258198963
2.1000035762786875,0.041701167821884155,0.0070298356004059315,0.49545812606811523,0.2261966677848553,0.11902210750021293,0.12453083603695612,0.041701167821884155,0.0070298356004059315,-0.19727803304445835,0.2261966677848553,0.11902210750021293,-0.028170082764025203,0.06842994329293273,-0.036068192966496326,0.025942176282632623,0.11287719011306763,-0.08599535375833511,-0.006239592097699632,0.0,-1.2579783040203318,-0.4441664939579812,15.544853353670142,0.0,0.0,0.0,0.0,0.0,0.6927361591125736,0.0,0.0,0.15270091880098133,0.0,0.0,0.0,0.0,0.0,0.0,0.0,0.0,0.6927356130112239,0.0,0.0,0.1527010892913911
2.1500035762786873,0.051655180752277374,0.01574997790157795,0.5029034614562988,0.22163001358436316,0.13339963604396207,0.13957022320632534,0.051655180752277374,0.01574997790157795,-0.19740772255800332,0.22163001358436316,0.13339963604396207,-0.010721577028657003,0.07707620438245488,-0.04764570774310917,0.027107937229880363,0.07139957696199417,-0.09822138398885727,-0.007769388146698463,0.0,-1.3090795060992142,-0.5118191008965639,15.552076868030587,0.0,0.0,0.0,0.0,0.0,0.7003111840143021,0.0,0.0,0.15029180023498234,0.0,0.0,0.0,0.0,0.0,0.0,0.0,0.0,0.7003106465286254,0.0,0.0,0.1502919742781813
2.200003576278687,0.06114703416824341,0.024764718487858772,0.5107032656669617,0.21484688991214107,0.13374396598438457,0.14373045876522061,0.06114703416824341,0.024764718487858772,-0.197061309647519,0.21484688991214107,0.13374396598438457,-0.004106375895258529,0.07678667793339011,-0.048408668190006665,0.024800068320016244,0.12004966288805008,-0.0704760029911995,0.01908324100077153,0.0,-1.3721764669243885,-0.6112013410296974,15.512590189455045,0.0,0.0,0.0,0.0,0.0,0.7077645753144807,0.0,0.0,0.14783683466047914,0.0,0.0,0.0,0.0,0.0,0.0,0.0,0.0,0.7077640466084396,0.0,0.0,0.14783701171573
2.250003576278687,0.07006167620420456,0.0336262583732605,0.5187067985534668,0.19714875772267892,0.1373907751058792,0.1538301773637271,0.07006167620420456,0.0336262583732605,-0.19638742674410525,0.19714875772267892,0.1373907751058792,0.008486855969521118,0.08086604630316785,-0.055120201210405284,0.02611180684316583,0.11450691521167755,-0.08856096118688583,0.019601287320256244,0.0,-1.4190818609278586,-0.6766641078275226,15.521557726396379,0.0,0.0,0.0,0.0,0.0,0.715094225297572,0.0,0.0,0.14534332139420597,0.0,0.0,0.0,0.0,0.0,0.0,0.0,0.0,0.7150937055090247,0.0,0.0,0.1453435009577143
2.300003576278687,0.07825440913438797,0.042094938457012177,0.5268783569335938,0.191330348453376,0.13932665444759007,0.16364277821729237,0.07825440913438797,0.042094938457012177,-0.19542002161164196,0.191330348453376,0.13932665444759007,0.020824720396689034,0.0892510876701369,-0.056439203765190626,0.02899346559615701,0.11129390448331833,-0.07035358250141144,-0.01848815940320491,0.0,-1.4393140571651686,-0.7593018062214769,15.503947928385122,0.0,0.0,0.0,0.0,0.0,0.7222983785452357,0.0,0.0,0.14281805782060333,0.0,0.0,0.0,0.0,0.0,0.0,0.0,0.0,0.722297867787731,0.0,0.0,0.1428182394234521
2.3500035762786866,0.08541052043437958,0.05063927173614502,0.5354394912719727,0.1712097764046362,0.1370495777285691,0.17284360799466475,0.08541052043437958,0.05063927173614502,-0.19393611627735907,0.1712097764046362,0.1370495777285691,0.03257624046321961,0.09584611396188958,-0.0595162648901848,0.02958736814033891,0.08369395136833191,-0.04648019000887871,-0.02517674677073955,0.0,-1.4874627851016686,-0.8274380721155552,15.485670522866988,0.0,0.0,0.0,0.0,0.0,0.7293756075493317,0.0,0.0,0.14026736753144514,0.0,0.0,0.0,0.0,0.0,0.0,0.0,0.0,0.7293751059138034,0.0,0.0,0.1402675507376337
2.4000035762786864,0.09212642908096313,0.0589965358376503,0.5439615249633789,0.15492835738413133,0.1359284934925321,0.17677866702617312,0.09212642908096313,0.0589965358376503,-0.1923632647323561,0.15492835738413133,0.1359284934925321,0.03908153999574382,0.09543171633262526,-0.06151158148374325,0.024998605810150565,0.10558377206325531,-0.026389751583337784,-0.008985968306660649,0.0,-1.493480999466437,-0.8967304876932353,15.469164216517836,0.0,0.0,0.0,0.0,0.0,0.736324789695735,0.0,0.0,0.1376971270304293,0.0,0.0,0.0,0.0,0.0,0.0,0.0,0.0,0.7363242972521009,0.0,0.0,0.1376973114350135
2.4500035762786863,0.09779203683137894,0.06676620244979858,0.5523186922073364,0.12966764612900158,0.12450754633836365,0.17874145560740548,0.09779203683137894,0.06676620244979858,-0.19082639334161633,0.12966764612900158,0.12450754633836365,0.04362866453539982,0.10493992416836839,-0.06265663332491034,0.028538814088302722,0.1010059118270874,-0.03602917864918709,-0.01211128663271665,0.0,-1.5033271305624325,-0.967062516228875,15.472590159518573,0.0,0.0,0.0,0.0,0.0,0.7431450855489528,0.0,0.0,0.13511279107200566,0.0,0.0,0.0,0.0,0.0,0.0,0.0,0.0,0.7431446023476227,0.0,0.0,0.1351129762993322
2.500003576278686,0.10263418406248093,0.07380945980548859,0.5609843134880066,0.12390832906820634,0.11586461740255936,0.18730600767623196,0.10263418406248093,0.07380945980548859,-0.18885160488291508,0.12390832906820634,0.11586461740255936,0.05478659097574365,0.10990875492704433,-0.06417617796530539,0.027647523787489803,0.08861260116100311,-0.017738243564963344,-0.01798382773995399,0.0,-1.4804275846974644,-1.0126376647535698,15.487021781171267,0.0,0.0,0.0,0.0,0.0,0.7498359183709217,0.0,0.0,0.1325194167004883,0.0,0.0,0.0,0.0,0.0,0.0,0.0,0.0,0.7498354444442201,0.0,0.0,0.1325196024025207
2.550003576278686,0.10670460760593414,0.08022694289684296,0.569818377494812,0.09661216113991974,0.10490321834619847,0.1999938856920136,0.10670460760593414,0.08022694289684296,-0.1865785773157742,0.09661216113991974,0.10490321834619847,0.07007219963959394,0.11229941942709676,-0.0628084310624697,0.02690974263010304,0.06511829793453217,-0.016672521829605106,-0.020816497504711148,0.0,-1.5105782501709197,-1.0479433301626448,15.47111055812135,0.0,0.0,0.0,0.0,0.0,0.7563969548105862,0.0,0.0,0.12992168605241966,0.0,0.0,0.0,0.0,0.0,0.0,0.0,0.0,0.7563964901740932,0.0,0.0,0.1299218719071498
2.6000035762786857,0.10976427793502808,0.08605436235666275,0.5786224603652954,0.08044842470178878,0.09584336513733449,0.2002802576144944,0.10976427793502808,0.08605436235666275,-0.18420562633863768,0.08044842470178878,0.09584336513733449,0.07295632963228033,0.11966628501617738,-0.06340279777169222,0.02617471040355035,0.07676880806684494,-0.006544073577970267,-0.003757402300834655,0.0,-1.4831703522909996,-1.0897666941942723,15.437590538821281,0.0,0.0,0.0,0.0,0.0,0.7628280867039331,0.0,0.0,0.12732392798221406,0.0,0.0,0.0,0.0,0.0,0.0,0.0,0.0,0.7628276313577471,0.0,0.0,0.1273241136921563
2.6500035762786855,0.11203387379646301,0.09092825651168823,0.5874387621879578,0.05419644934427927,0.07726670506493638,0.20281247048972972,0.11203387379646301,0.09092825651168823,-0.18169065173912935,0.05419644934427927,0.07726670506493638,0.0780823319214264,0.12014551770047976,-0.06370184100872756,0.026203197120151067,0.051094748079776764,0.015528209507465363,-0.005027108360081913,0.0,-1.4715017513814292,-1.1270334495143106,15.452918605999823,0.0,0.0,0.0,0.0,0.0,0.7691294139270871,0.0,0.0,0.12473013856830333,0.0,0.0,0.0,0.0,0.0,0.0,0.0,0.0,0.7691289678570156,0.0,0.0,0.1247303238590664
2.7000035762786854,0.11342400312423706,0.09489599615335464,0.5961133241653442,0.039458121545012485,0.06622981256727335,0.20502264732799216,0.11342400312423706,0.09489599615335464,-0.1791879040825246,0.039458121545012485,0.06622981256727335,0.0828786467736653,0.1244249173515879,-0.0627674325894425,0.02578355509682062,0.03388085588812828,0.04832908883690834,-0.00445579923689366,0.0,-1.4272793183326342,-1.1394793912865708,15.461259769609262,0.0,0.0,0.0,0.0,0.0,0.7753012282478688,0.0,0.0,0.12214400055432686,0.0,0.0,0.0,0.0,0.0,0.0,0.0,0.0,0.7753007914265488,0.0,0.0,0.1221441851732601
2.750003576278685,0.1142146959900856,0.09798207879066467,0.6046378016471863,0.016134245693998094,0.04196711625660188,0.21141088308185554,0.1142146959900856,0.09798207879066467,-0.1767061964766905,0.016134245693998094,0.04196711625660188,0.09184198130450102,0.12602284000098418,-0.058134615396951084,0.022763019251721417,0.04867684841156006,0.028269240632653236,-0.010471811518073085,0.0,-1.4103684423887994,-1.1600841210507638,15.468239650864701,0.0,0.0,0.0,0.0,0.0,0.7813439981238768,0.0,0.0,0.11956890177735452,0.0,0.0,0.0,0.0,0.0,0.0,0.0,0.0,0.7813435705118292,0.0,0.0,0.119569085492265
2.800003576278685,0.11424346268177032,0.10013831406831741,0.6133931875228882,0.0024989338916591225,0.02812323718585838,0.21637105465899922,0.11424346268177032,0.10013831406831741,-0.17386516687480424,0.0024989338916591225,0.02812323718585838,0.09936310202630928,0.12703497554261478,-0.059416395011675505,0.025088257716168627,0.014942584559321404,0.04657454043626785,-0.014874299056828027,0.0,-1.3688454580099065,-1.1475923562677979,15.466054746247258,0.0,0.0,0.0,0.0,0.0,0.7872583543976924,0.0,0.0,0.11700795263268994,0.0,0.0,0.0,0.0,0.0,0.0,0.0,0.0,0.7872579359443147,0.0,0.0,0.1170081352306264
2.850003576278685,0.11374197900295258,0.10105931013822556,0.6220048666000366,-0.021783557015143232,0.0035519992666261536,0.21344116952441783,0.11374197900295258,0.10105931013822556,-0.17104021024219285,-0.021783557015143232,0.0035519992666261536,0.09897716690194433,0.1238535204570721,-0.05667966668213076,0.022396331107426448,0.007618073374032974,0.04442964494228363,-0.020715599879622466,0.0,-1.3441135109414508,-1.146647361092932,15.45484900569822,0.0,0.0,0.0,0.0,0.0,0.7930450768422295,0.0,0.0,0.1144640026224735,0.0,0.0,0.0,0.0,0.0,0.0,0.0,0.0,0.7930446674867282,0.0,0.0,0.1144641839085745
2.9000035762786847,0.11256033182144165,0.1010855883359909,0.6307423114776611,-0.033876502564633856,-0.010108821760455345,0.21665224574555883,0.11256033182144165,0.1010855883359909,-0.1679627700338886,-0.033876502564633856,-0.010108821760455345,0.1047125897124754,0.12463969109807849,-0.05292837866749078,0.019972419843112377,-0.026887662708759308,0.04581112414598465,-0.006834832020103937,0.0,-1.2841758301208666,-1.1132828253512501,15.484407985904797,0.0,0.0,0.0,0.0,0.0,0.7987050815115497,0.0,0.0,0.11193965603308342,0.0,0.0,0.0,0.0,0.0,0.0,0.0,0.0,0.798704681183818,0.0,0.0,0.1119398358294861
2.9500035762786845,0.11079930514097214,0.10010190308094025,0.6392039060592651,-0.047805313130418976,-0.03756702612415758,0.21803953600214557,0.11079930514097214,0.10010190308094025,-0.16503550279540125,-0.047805313130418976,-0.03756702612415758,0.10860224921793316,0.13060489198802383,-0.050337385128610634,0.025226568406574224,-0.020448671653866768,0.06674239784479141,-0.008804321289062509,0.0,-1.2565133189420132,-1.0999858954184267,15.482943962760249,0.0,0.0,0.0,0.0,0.0,0.8042394088546664,0.0,0.0,0.10943728678421241,0.0,0.0,0.0,0.0,0.0,0.0,0.0,0.0,0.8042390174761075,0.0,0.0,0.109437464929019
3.0000035762786843,0.10874328017234802,0.09819019585847855,0.6479318737983704,-0.05721534080156516,-0.051081516650242104,0.22016444600628618,0.10874328017234802,0.09819019585847855,-0.16171733875357908,-0.05721534080156516,-0.051081516650242104,0.11320539351581213,0.12342341874982621,-0.04764538529889517,0.018292187592493292,-0.016085583716630936,0.05118769779801369,-0.012363785877823837,0.0,-1.2137365890072314,-1.044161751769693,15.49135434501636,0.0,0.0,0.0,0.0,0.0,0.8096492125519494,0.0,0.0,0.10695905249047405,0.0,0.0,0.0,0.0,0.0,0.0,0.0,0.0,0.8096488300362501,0.0,0.0,0.1069592288367733
3.050003576278684,0.10622193664312363,0.09508156031370163,0.6569293141365051,-0.07282196224886617,-0.08041363042877936,0.22352115655001534,0.10622193664312363,0.09508156031370163,-0.15800643489923194,-0.07282196224886617,-0.08041363042877936,0.11901424877555104,0.1183850054345652,-0.042749997687872465,0.015776552047500836,-0.020871000364422798,0.06977551430463791,-0.01797905936837197,0.0,-1.1898606757085126,-1.0196026456325014,15.490976872301696,0.0,0.0,0.0,0.0,0.0,0.8149357490357371,0.0,0.0,0.1045069077744643,0.0,0.0,0.0,0.0,0.0,0.0,0.0,0.0,0.8149353752895941,0.0,0.0,0.1045070821894052
3.100003576278684,0.10365021973848343,0.09106644988059998,0.6659656763076782,-0.08053175937433692,-0.09491672884084969,0.22838185172314973,0.10365021973848343,0.09106644988059998,-0.15413469135098734,-0.08053175937433692,-0.09491672884084969,0.12629923485479028,0.12029954775918439,-0.0423269257050789,0.017075412524071965,-0.027345648035407066,0.05746065825223923,-0.017414867877960212,0.0,-1.1389956455403376,-0.9441501817633615,15.489522671472628,0.0,0.0,0.0,0.0,0.0,0.8201003676586656,0.0,0.0,0.10208261686835947,0.0,0.0,0.0,0.0,0.0,0.0,0.0,0.0,0.8201000025824663,0.0,0.0,0.1020827892322745
3.1500035762786838,0.10087510943412781,0.08629105240106583,0.6751671433448792,-0.09124211136357048,-0.11686211794415213,0.23015955700422389,0.10087510943412781,0.08629105240106583,-0.149977358130151,-0.09124211136357048,-0.11686211794415213,0.13047179146484733,0.11941233330311496,-0.04180305523386707,0.015733509242366495,-0.05052475258708,0.06150678172707558,-0.005820150487124928,0.0,-1.114299427907006,-0.8964029916068398,15.476904662532982,0.0,0.0,0.0,0.0,0.0,0.8251445014750302,0.0,0.0,0.09968776553937654,0.0,0.0,0.0,0.0,0.0,0.0,0.0,0.0,0.8251441449634904,0.0,0.0,0.0996879357449521
3.2000035762786836,0.09765023738145828,0.08083479851484299,0.684528648853302,-0.09854210589886586,-0.13206810869894425,0.23346348375153264,0.09765023738145828,0.08083479851484299,-0.14554100974891837,-0.09854210589886586,-0.13206810869894425,0.1361397113787876,0.11708383474318573,-0.03297745398755936,0.011759661338690997,-0.060412902384996414,0.03575771674513816,-0.029725855216383937,0.0,-1.0742001399149572,-0.8252706050777954,15.478099806408704,0.0,0.0,0.0,0.0,0.0,0.8300696586022204,0.0,0.0,0.09732377237274505,0.0,0.0,0.0,0.0,0.0,0.0,0.0,0.0,0.8300693105449831,0.0,0.0,0.0973239403242365
3.2500035762786834,0.09446090459823608,0.07495079189538956,0.6941452026367188,-0.10505568771784071,-0.1544337099202996,0.23793612802318023,0.09446090459823608,0.07495079189538956,-0.14073221149419424,-0.10505568771784071,-0.1544337099202996,0.14294422857894093,0.11521908137077874,-0.03112575788512606,0.011598035071047619,-0.10923415422439575,0.04534557461738586,-0.036231201142072685,0.0,-1.0427105170665976,-0.7659568077892204,15.468293150618319,0.0,0.0,0.0,0.0,0.0,0.834877414130913,0.0,0.0,0.0949918994442393,0.0,0.0,0.0,0.0,0.0,0.0,0.0,0.0,0.8348770744131074,0.0,0.0,0.0949920650567288
3.3000035762786832,0.091022789478302,0.06841716170310974,0.7038077116012573,-0.10882642293635879,-0.1580042782714438,0.23542051984374485,0.091022789478302,0.06841716170310974,-0.13576169095301183,-0.10882642293635879,-0.1580042782714438,0.14272725743094877,0.10945477716263241,-0.03096058152438186,0.009902751538403365,-0.09273552149534225,0.02421087212860584,-0.021033203229308132,0.0,-1.0118351763945337,-0.6805355324324477,15.453645117021173,0.0,0.0,0.0,0.0,0.0,0.8395694025542692,0.0,0.0,0.09269326241279607,0.0,0.0,0.0,0.0,0.0,0.0,0.0,0.0,0.8395690710570345,0.0,0.0,0.0926934256114908
3.350003576278683,0.08768223971128464,0.061418429017066956,0.713523268699646,-0.11400491655195986,-0.17435919787427745,0.23230000924561456,0.08768223971128464,0.061418429017066956,-0.1306240419882273,-0.11400491655195986,-0.17435919787427745,0.14187116918332843,0.09955127236972139,-0.030934729808152817,0.008015420161470388,-0.10383148491382599,0.026534190401434895,-0.014178460463881496,0.0,-0.9869336566197122,-0.6422146622420649,15.460866981176865,0.0,0.0,0.0,0.0,0.0,0.8441473106878733,0.0,0.0,0.09042884006228612,0.0,0.0,0.0,0.0,0.0,0.0,0.0,0.0,0.8441469872888485,0.0,0.0,0.0904290007818545
3.400003576278683,0.08430415391921997,0.05412138253450394,0.723292887210846,-0.11101414194886546,-0.17810306826121822,0.23330663247545874,0.08430415391921997,0.05412138253450394,-0.12531998384272336,-0.11101414194886546,-0.17810306826121822,0.14510714915533873,0.09923485881481131,-0.029838731960608378,0.007650631879608127,-0.0665450245141983,0.03178119286894798,-0.005907949060201648,0.0,-0.9524221526877262,-0.5630812369245604,15.474021509768288,0.0,0.0,0.0,0.0,0.0,0.8486128710535693,0.0,0.0,0.08819948332012001,0.0,0.0,0.0,0.0,0.0,0.0,0.0,0.0,0.84861255562735,0.0,0.0,0.0881996415040653
3.4500035762786827,0.08102133125066757,0.04667425900697708,0.7330223321914673,-0.1134999598029354,-0.18691152684636606,0.2326072809680082,0.08102133125066757,0.04667425900697708,-0.11994552351023136,-0.1134999598029354,-0.18691152684636606,0.1466013571889616,0.09404295786915817,-0.02678787417327122,0.006617320247962688,-0.08832842856645584,0.034975096583366394,-0.026728501543402675,0.0,-0.9462205483450599,-0.5105605288348475,15.464529704200052,0.0,0.0,0.0,0.0,0.0,0.8529678557016986,0.0,0.0,0.08600592377904659,0.0,0.0,0.0,0.0,0.0,0.0,0.0,0.0,0.8529675481202643,0.0,0.0,0.0860060793791139
3.5000035762786825,0.07789529114961624,0.039173658937215805,0.743019163608551,-0.11267595732146592,-0.19157395041997563,0.23692028830918896,0.07789529114961624,0.039173658937215805,-0.11419490683898381,-0.11267595732146592,-0.19157395041997563,0.15307150656195193,0.09117319083193554,-0.02889744955330542,0.005893487963882116,-0.07552085816860199,0.022643465548753735,-0.015487972646951679,0.0,-0.9221181988458254,-0.4451494986479201,15.46247269662912,0.0,0.0,0.0,0.0,0.0,0.8572140704475348,0.0,0.0,0.08384878174723703,0.0,0.0,0.0,0.0,0.0,0.0,0.0,0.0,0.8572137705806462,0.0,0.0,0.0838489347228542
3.5500035762786823,0.07475972920656204,0.03184950351715088,0.752688467502594,-0.1080992121438054,-0.19069355899781668,0.22715477645227644,0.07475972920656204,0.03184950351715088,-0.10866488199633428,-0.1080992121438054,-0.19069355899781668,0.14542620260173056,0.08474293100088515,-0.0235908505278708,0.003573663269150984,-0.08280713111162186,0.030979678034782406,-0.021237131208181385,0.0,-0.9120687797309117,-0.38679146693884603,15.436140718783983,0.0,0.0,0.0,0.0,0.0,0.8613533494989283,0.0,0.0,0.08172857385054587,0.0,0.0,0.0,0.0,0.0,0.0,0.0,0.0,0.8613530572144987,0.0,0.0,0.0817287241682951
3.600003576278682,0.0718793123960495,0.0249361302703619,0.7619732618331909,-0.1091770532691659,-0.19103895217384562,0.21829664216176364,0.0718793123960495,0.0249361302703619,-0.10341428862015456,-0.1091770532691659,-0.19103895217384562,0.13865092195207307,0.08333051693403482,-0.02296428033938902,0.004613656885458894,-0.07791280746459961,0.024758255109190937,-0.018744576722383503,0.0,-0.9032058342375364,-0.34208484355539687,15.466099542770543,0.0,0.0,0.0,0.0,0.0,0.8653875504533455,0.0,0.0,0.07964572020969056,0.0,0.0,0.0,0.0,0.0,0.0,0.0,0.0,0.8653872656177859,0.0,0.0,0.0796458678428097
3.650003576278682,0.06916063278913498,0.017902955412864685,0.7710930109024048,-0.10171872869560332,-0.19245087534938823,0.21083092814245735,0.06916063278913498,0.017902955412864685,-0.09822553874118811,-0.10171872869560332,-0.19245087534938823,0.13323037692846076,0.07986268240662087,-0.022716775756203234,0.004368566784511252,-0.038120709359645844,0.007511408999562264,0.007623294368386268,0.0,-0.8800701648965387,-0.29799248120083044,15.493325145322123,0.0,0.0,0.0,0.0,0.0,0.8693185496435929,0.0,0.0,0.07760055121399659,0.0,0.0,0.0,0.0,0.0,0.0,0.0,0.0,0.8693182721221324,0.0,0.0,0.0776006961419086
3.700003576278682,0.06668335944414139,0.011019629426300526,0.7799388766288757,-0.09804776277111432,-0.19284447058969828,0.20843224599752638,0.06668335944414139,0.011019629426300526,-0.09320936118369827,-0.09804776277111432,-0.19284447058969828,0.1328389320852143,0.07706231088119697,-0.023629623875304873,0.005040829872577035,-0.06006558984518051,0.020108476281166073,-0.018495701253414158,0.0,-0.8806562277752988,-0.24250332344775904,15.515010363207788,0.0,0.0,0.0,0.0,0.0,0.873148237812574,0.0,0.0,0.0755933139123121,0.0,0.0,0.0,0.0,0.0,0.0,0.0,0.0,0.8731479674695585,0.0,0.0,0.0755934561201812
3.7500035762786816,0.06444012373685837,0.004469422623515129,0.7886481881141663,-0.09294794355253763,-0.1880146053221784,0.20075015240098204,0.06444012373685837,0.004469422623515129,-0.088230327984265,-0.09294794355253763,-0.1880146053221784,0.12712597436028392,0.07256150318537902,-0.02184398616564387,0.0006509686413798121,-0.06408815830945969,-0.008425270207226276,-0.006576369516551494,0.0,-0.8763619855028177,-0.19134957538882583,15.515075402568499,0.0,0.0,0.0,0.0,0.0,0.8768785160984313,0.0,0.0,0.07362417804069812,0.0,0.0,0.0,0.0,0.0,0.0,0.0,0.0,0.8768782527975992,0.0,0.0,0.073624317519011
3.8000035762786815,0.062397491186857224,-0.0016486162785440683,0.7971711754798889,-0.08932053820804375,-0.1873501496038331,0.19828903217521188,0.062397491186857224,-0.0016486162785440683,-0.0833401168324941,-0.08932053820804375,-0.1873501496038331,0.1265957904696572,0.07198700325197871,-0.026008023865057073,0.00391335351551092,-0.04705612361431122,-0.006816760636866093,0.0019215829670429238,0.0,-0.8748650506905266,-0.15560352187961954,15.535257766454972,0.0,0.0,0.0,0.0,0.0,0.880511292312383,0.0,0.0,0.07169324170555469,0.0,0.0,0.0,0.0,0.0,0.0,0.0,0.0,0.8805110359171224,0.0,0.0,0.0716933784497263
3.8500035762786813,0.06062925606966019,-0.007481332402676344,0.8056128025054932,-0.07987457002823599,-0.17296435724185555,0.19169233181332315,0.06062925606966019,-0.007481332402676344,-0.07843567498698112,-0.07987457002823599,-0.17296435724185555,0.12189179507338788,0.06871858918603868,-0.017149780664724723,0.005173328856695747,-0.04889537766575813,0.006456807255744932,-0.011210746131837368,0.0,-0.8727653010689997,-0.10913026369749912,15.534617477356132,0.0,0.0,0.0,0.0,0.0,0.8840484774924743,0.0,0.0,0.06980053673993528,0.0,0.0,0.0,0.0,0.0,0.0,0.0,0.0,0.8840482278660591,0.0,0.0,0.0698006707499364
3.900003576278681,0.059033188968896866,-0.012626822106540203,0.8141483664512634,-0.07678607561047511,-0.16758158905699871,0.19056885081327612,0.059033188968896866,-0.012626822106540203,-0.07334361626606312,-0.07678607561047511,-0.16758158905699871,0.1226228170633347,0.06372278887349792,-0.02369538802116189,0.0016133433498008998,-0.056579332798719406,-9.608920663607302e-07,-0.009882391430437565,0.0,-0.8894670884307313,-0.10055672837419538,15.54655285768844,0.0,0.0,0.0,0.0,0.0,0.8874919827173265,0.0,0.0,0.06794603374994143,0.0,0.0,0.0,0.0,0.0,0.0,0.0,0.0,0.8874917397231357,0.0,0.0,0.0679461650299491
3.950003576278681,0.0577404722571373,-0.017575031146407127,0.8224775195121765,-0.06717140869142943,-0.15415193253852075,0.1864912530403015,0.0577404722571373,-0.017575031146407127,-0.0683661966526189,-0.06717140869142943,-0.15415193253852075,0.12036160617303457,0.0648673390086123,-0.020684649431796043,7.499448312753287e-05,-0.03629736974835396,-0.02119570970535278,0.02465988136827946,0.0,-0.8914429113688396,-0.07299443478310791,15.537624866898682,0.0,0.0,0.0,0.0,0.0,0.8908437161647954,0.0,0.0,0.06612964686726694,0.0,0.0,0.0,0.0,0.0,0.0,0.0,0.0,0.8908434796665152,0.0,0.0,0.0661297754253342
4.000003576278681,0.056448012590408325,-0.021889038383960724,0.8308808207511902,-0.060061905910465084,-0.1454374190797283,0.185987946851679,0.056448012590408325,-0.021889038383960724,-0.06322475965003982,-0.060061905910465084,-0.1454374190797283,0.12163670862850282,0.056525221996800656,-0.0216495603084077,0.0015486765482481957,-0.024719463661313057,-0.014165274798870083,0.028583105653524402,0.0,-0.9130846106498254,-0.0660594703452081,15.537936608202648,0.0,0.0,0.0,0.0,0.0,0.89410558040123,0.0,0.0,0.06435123822317618,0.0,0.0,0.0,0.0,0.0,0.0,0.0,0.0,0.8941053502630396,0.0,0.0,0.0643513640709218
4.050003576278681,0.05534747615456581,-0.025122694671154022,0.8395991921424866,-0.05920385706627116,-0.13012503796341837,0.18051605911258825,0.05534747615456581,-0.025122694671154022,-0.05768027774528406,-0.05920385706627116,-0.13012503796341837,0.11790543695413216,0.04186667494119023,-0.018159232022829208,-0.007917578883837706,-0.006390097551047802,-0.02755057066679001,0.008767703548073772,0.0,-0.9301376484968735,-0.050236237739100076,15.523682749802127,0.0,0.0,0.0,0.0,0.0,0.8972794698877706,0.0,0.0,0.06261062215845609,0.0,0.0,0.0,0.0,0.0,0.0,0.0,0.0,0.8972792459745131,0.0,0.0,0.0626107453107726
4.100003576278681,0.05466040223836899,-0.02823430486023426,0.8477153182029724,-0.05192347480070175,-0.11886832955281866,0.17287380252264234,0.05466040223836899,-0.02823430486023426,-0.05265195048786109,-0.05192347480070175,-0.11886832955281866,0.11196623333947467,0.04299348368184441,-0.019041434931071244,-0.0051461520367106495,0.02714388817548752,0.008935874328017233,-0.00890204403549433,0.0,-0.930594764997822,-0.0651236398584557,15.527039988321524,0.0,0.0,0.0,0.0,0.0,0.9003672686908335,0.0,0.0,0.06090756918316766,0.0,0.0,0.0,0.0,0.0,0.0,0.0,0.0,0.9003670508681729,0.0,0.0,0.0609076896579468
4.150003576278681,0.054448045790195465,-0.03088761493563652,0.8550906777381897,-0.044159542401088055,-0.09870493196129389,0.17171697868968916,0.054448045790195465,-0.03088761493563652,-0.048280170646413545,-0.044159542401088055,-0.09870493196129389,0.11247516899034332,0.02062965582849907,-0.016646496990079918,-0.015456822210172305,-0.001701153232716024,-0.020883940160274506,0.011746318079531195,0.0,-0.9466504140712827,-0.06520408971386388,15.54117399128733,0.0,0.0,0.0,0.0,0.0,0.9033708483846032,0.0,0.0,0.059241809699345845,0.0,0.0,0.0,0.0,0.0,0.0,0.0,0.0,0.9033706365191676,0.0,0.0,0.0592419275172203
4.2000035762786805,0.05350480228662491,-0.0330953486263752,0.8632645010948181,-0.04033379812799613,-0.08979032413508216,0.16875839801122267,0.05350480228662491,-0.0330953486263752,-0.04302756503917726,-0.04033379812799613,-0.08979032413508216,0.11114536051207331,0.04300464726806341,-0.021323666399499785,-0.0058666098504209785,0.036865148693323135,-0.020376605913043026,-0.01726129092276096,0.0,-0.9743728031721369,-0.09358636079344271,15.525875108876201,0.0,0.0,0.0,0.0,0.0,0.9062920661339954,0.0,0.0,0.05761303749914935,0.0,0.0,0.0,0.0,0.0,0.0,0.0,0.0,0.906291860093508,0.0,0.0,0.0576131526832505
4.25000357627868,0.05300718918442726,-0.034890662878751755,0.871115505695343,-0.032832136667358174,-0.07298637285770707,0.16567194240676444,0.05300718918442726,-0.034890662878751755,-0.03801725725181926,-0.032832136667358174,-0.07298637285770707,0.10965102935641803,0.04038073122430319,-0.020436337128184157,-0.005993143368998588,0.029286909848451614,-0.022302700206637383,-0.010312345810234543,0.0,-0.9850468962692085,-0.09625238750949147,15.519580839925123,0.0,0.0,0.0,0.0,0.0,0.9091327629471623,0.0,0.0,0.05602091305034641,0.0,0.0,0.0,0.0,0.0,0.0,0.0,0.0,0.9091325626005602,0.0,0.0,0.0560210256260764
4.30000357627868,0.053176477551460266,-0.03586522117257118,0.8784247040748596,-0.032848721226377345,-0.05770362494838597,0.1608155620376345,0.053176477551460266,-0.03586522117257118,-0.033470058012332604,-0.032848721226377345,-0.05770362494838597,0.10635049545719868,0.027772617196931026,-0.01933328196439099,-0.015505873632524647,0.06174767389893532,-0.017650693655014038,-0.005177041050046681,0.0,-1.0103571436679395,-0.12275733653004574,15.511064946974066,0.0,0.0,0.0,0.0,0.0,0.9118947620871922,0.0,0.0,0.054465066580435824,0.0,0.0,0.0,0.0,0.0,0.0,0.0,0.0,0.9118945673047354,0.0,0.0,0.0544651765752542
4.35000357627868,0.05291058495640755,-0.03674847632646561,0.8859298229217529,-0.025096397768112132,-0.04303784663147122,0.16165947487024412,0.05291058495640755,-0.03674847632646561,-0.028650044711453937,-0.025096397768112132,-0.04303784663147122,0.10871437390010155,0.02965128424615715,-0.0219894913277483,-0.013113501188252386,0.027808643877506256,-0.021607402712106708,-0.014903395436704155,0.0,-1.0165097948704822,-0.15572015944385875,15.510617619962456,0.0,0.0,0.0,0.0,0.0,0.9145798676332069,0.0,0.0,0.052945100970142565,0.0,0.0,0.0,0.0,0.0,0.0,0.0,0.0,0.9145796782865752,0.0,0.0,0.0529452084133658
4.40000357627868,0.05261470749974251,-0.03694699704647064,0.8933526873588562,-0.028705328488195857,-0.03411357222228804,0.1577441030125434,0.05261470749974251,-0.03694699704647064,-0.023837175822723378,-0.028705328488195857,-0.03411357222228804,0.1062835085460474,0.030736101384683412,-0.023265863058589797,-0.014425328381524327,0.024001469835639,-0.01933429017663002,-0.011792112141847609,0.0,-1.0464913922350652,-0.18320907626785599,15.485143865738166,0.0,0.0,0.0,0.0,0.0,0.9171898631815796,0.0,0.0,0.051460594466496,0.0,0.0,0.0,0.0,0.0,0.0,0.0,0.0,0.9171896791439614,0.0,0.0,0.0514606993891094
4.45000357627868,0.0523642972111702,-0.03669402003288269,0.9006267786026001,-0.023930570822254596,-0.01980036943089476,0.15663166439994797,0.0523642972111702,-0.03669402003288269,-0.01909973207590221,-0.023930570822254596,-0.01980036943089476,0.1066205611747578,0.032230560878868,-0.0232091825651235,-0.01564241239575992,0.06419716030359268,-0.02863280288875103,0.008965034037828449,0.0,-1.0410011201460985,-0.20714762196750505,15.480585954264823,0.0,0.0,0.0,0.0,0.0,0.9197265106785023,0.0,0.0,0.05001110322519018,0.0,0.0,0.0,0.0,0.0,0.0,0.0,0.0,0.9197263318246732,0.0,0.0,0.0500112056596723
4.500003576278679,0.052037764340639114,-0.0360441617667675,0.9077044725418091,-0.02480676783672482,-0.004230468199675695,0.15067585809911363,0.052037764340639114,-0.0360441617667675,-0.014487076833785029,-0.02480676783672482,-0.004230468199675695,0.10207969440767092,0.036897541632984865,-0.02386466781359209,-0.014201786172845843,0.018115725368261337,-0.002079188125208023,-0.021076392382383347,0.0,-1.0619412898631788,-0.24423454336019212,15.461861145929507,0.0,0.0,0.0,0.0,0.0,0.9221915493755941,0.0,0.0,0.0485961636914427,0.0,0.0,0.0,0.0,0.0,0.0,0.0,0.0,0.9221913755819876,0.0,0.0,0.0485962636716005
4.550003576278679,0.051793694496154785,-0.03507824242115021,0.9146134257316589,-0.022729325939536266,0.010336716732768777,0.13860554299120714,0.051793694496154785,-0.03507824242115021,-0.009973269169040289,-0.022729325939536266,0.010336716732768777,0.09139024816309815,0.033877070207086746,-0.029721674298076373,-0.012216060523964956,-0.0005844167317263782,-0.033072397112846375,0.023324476554989818,0.0,-1.0648002223291755,-0.2938761968522138,15.462841120258226,0.0,0.0,0.0,0.0,0.0,0.9245866949006992,0.0,0.0,0.047215294828108996,0.0,0.0,0.0,0.0,0.0,0.0,0.0,0.0,0.9245865260454692,0.0,0.0,0.0472153923889235
4.600003576278679,0.05129266157746315,-0.03400402143597603,0.9213623404502869,-0.016644537590441637,0.007757153423588035,0.1346839834850654,0.05129266157746315,-0.03400402143597603,-0.005551297986159165,-0.016644537590441637,0.007757153423588035,0.08881598328569604,0.05625554453467485,-0.0287069334708967,-0.0032919619758073893,0.06811156868934631,-0.020184978842735287,0.024430427700281147,0.0,-1.0709665535306023,-0.34319101177144967,15.49040966851048,0.0,0.0,0.0,0.0,0.0,0.926913638436446,0.0,0.0,0.045868000199369374,0.0,0.0,0.0,0.0,0.0,0.0,0.0,0.0,0.9269134743995212,0.0,0.0,0.045868095376852
4.650003576278679,0.05117383599281311,-0.03269048407673836,0.9272929430007935,-0.017008812270408787,0.0225647536122843,0.13274955135293331,0.05117383599281311,-0.03269048407673836,-0.0018811029987519934,-0.017008812270408787,0.0225647536122843,0.08819578143504361,0.040961058381349336,-0.035848602142465325,-0.016272957484778416,0.0642789825797081,-0.011673020198941233,-0.010257418267428873,0.0,-1.0873444494079991,-0.33898025547254157,15.489087708259076,0.0,0.0,0.0,0.0,0.0,0.9291740459995455,0.0,0.0,0.04455376991788971,0.0,0.0,0.0,0.0,0.0,0.0,0.0,0.0,0.9291738866626786,0.0,0.0,0.0445538627489473
4.700003576278679,0.05062029883265495,-0.031511273235082626,0.9338200092315674,-0.01806494126444922,0.02817339846069166,0.12639469674059028,0.05062029883265495,-0.031511273235082626,0.0024504514173768754,-0.01806494126444922,0.02817339846069166,0.08312261427763179,0.04618019608981205,-0.02979476397927172,-0.012414618268965949,0.05395341292023659,-0.012069825083017353,-0.02205580100417137,0.0,-1.0958653237992397,-0.3921402173257118,15.474604379613716,0.0,0.0,0.0,0.0,0.0,0.9313695578141905,0.0,0.0,0.04327208246295849,0.0,0.0,0.0,0.0,0.0,0.0,0.0,0.0,0.9313694030609996,0.0,0.0,0.043272172985268
4.7500035762786785,0.0500921756029129,-0.03018348291516304,0.9397343397140503,-0.0205730312285628,0.02993338074237199,0.11834730669643398,0.0500921756029129,-0.03018348291516304,0.006232551940762332,-0.0205730312285628,0.02993338074237199,0.07632490031970922,0.045840027388434734,-0.03003038030243843,-0.013126452936986777,0.04666707664728165,-0.018689250573515895,-0.015442382544279097,0.0,-1.0942523356911529,-0.4205663495160719,15.47975229842163,0.0,0.0,0.0,0.0,0.0,0.933501787773288,0.0,0.0,0.04202240637672476,0.0,0.0,0.0,0.0,0.0,0.0,0.0,0.0,0.9335016374892908,0.0,0.0,0.042022494628616
4.800003576278678,0.04941992461681366,-0.028879277408123016,0.9453754425048828,-0.020585979774485744,0.03872457190611862,0.11293348748469555,0.04941992461681366,-0.028879277408123016,0.009803119523288828,-0.020585979774485744,0.03872457190611862,0.0721292856393942,0.049193699638251154,-0.031061740795593096,-0.013229182305372955,0.03730667009949684,-0.0050946082919836036,0.008575523272156715,0.0,-1.0858609422678156,-0.44001764523330855,15.495144699033727,0.0,0.0,0.0,0.0,0.0,0.935572322981594,0.0,0.0,0.04080420184530134,0.0,0.0,0.0,0.0,0.0,0.0,0.0,0.0,0.93557217705424,0.0,0.0,0.0408042878656479
4.850003576278678,0.04868399724364281,-0.027385706081986427,0.9507243633270264,-0.022214585965611888,0.044496430372572046,0.10196755273353235,0.04868399724364281,-0.027385706081986427,0.01314163995186357,-0.022214585965611888,0.044496430372572046,0.06235063056237845,0.0500464498052513,-0.031658464946479725,-0.012751095548217073,0.04503471776843071,0.00034112879075110083,0.010148102417588234,0.0,-1.0881037489054362,-0.480015524225402,15.497851658271827,0.0,0.0,0.0,0.0,0.0,0.9375827233751628,0.0,0.0,0.0396169221711539,0.0,0.0,0.0,0.0,0.0,0.0,0.0,0.0,0.9375825816938556,0.0,0.0,0.0396170059992716
4.900003576278678,0.04799744486808777,-0.026037028059363365,0.9558790326118469,-0.022849070805415837,0.04038710881309025,0.09898727832649397,0.04799744486808777,-0.026037028059363365,0.016344511200023115,-0.022849070805415837,0.04038710881309025,0.060527263183622976,0.05073626494025696,-0.0284973489378455,-0.010531893264164705,0.054628923535346985,0.006623590365052223,0.001444720313884317,0.0,-1.080032636081908,-0.5149912008994226,15.526058162014575,0.0,0.0,0.0,0.0,0.0,0.9395345214118238,0.0,0.0,0.03846001514287099,0.0,0.0,0.0,0.0,0.0,0.0,0.0,0.0,0.9395343838679424,0.0,0.0,0.0384600968184233
4.950003576278678,0.047162752598524094,-0.024954985827207565,0.9610220789909363,-0.0215713231849717,0.04740924660991914,0.09425207160499834,0.047162752598524094,-0.024954985827207565,0.01959285716323389,-0.0215713231849717,0.04740924660991914,0.05691914729689986,0.053628525835818674,-0.031815457152981175,-0.012030208460764857,0.03432469442486763,0.013831153512001038,0.000769475300330667,0.0,-1.0770670396116995,-0.5177976944625075,15.5242281740067,0.0,0.0,0.0,0.0,0.0,0.9414292218277024,0.0,0.0,0.037332924308098474,0.0,0.0,0.0,0.0,0.0,0.0,0.0,0.0,0.9414290883146158,0.0,0.0,0.0373330038710089
5.000003576278678,0.04620199277997017,-0.023928102105855942,0.9659108519554138,-0.025185641669620888,0.05013572978966568,0.09010788133861984,0.04620199277997017,-0.023928102105855942,0.02264255050033115,-0.025185641669620888,0.05013572978966568,0.053872791183493474,0.05452326816389652,-0.028249866245221966,-0.0117031767439717,0.004408208187669516,-0.0015100324526429178,-0.0020064993295818567,0.0,-1.0810107352982827,-0.5515921841371623,15.526346044813323,0.0,0.0,0.0,0.0,0.0,0.9432683014550827,0.0,0.0,0.03623509015512637,0.0,0.0,0.0,0.0,0.0,0.0,0.0,0.0,0.9432681718681608,0.0,0.0,0.0362351676454972
