time,pos_x,pos_y,pos_z,vel_x,vel_y,vel_z,pos_xo,pos_yo,pos_zo,vel_xo,vel_yo,vel_zo,roll,pitch,yaw,roll_vel,pitch_vel,yaw_vel,thrust_z,force_x,force_y,force_z,torque_x,torque_y,torque_z,pos_xd,pos_yd,pos_zd,vel_xd,vel_yd,vel_zd,roll_d,pitch_d,yaw_d,roll_vel_d,pitch_vel_d,yaw_vel_d
0.005,-0.00761825219620978,0.013069984184791838,0.978601776849505,-0.023385542259817725,0.040950023238650914,-0.37174160665198036,-0.00761825219620978,0.013069984184791838,0.578601776849505,-0.023385542259817725,0.040950023238650914,-0.37174160665198036,-0.003559964909133843,0.012938078537582796,-0.010363911681053259,-0.01762309616148963,0.014789996784572369,-0.008772386441496737,0.0,0.0,0.0,0.0,0.0,0.0,0.0,0.0,0.0,0.4,0.0,0.0,0.0,0.0,0.0,0.0,0.0,0.0,0.0
0.01,-0.00773429681091943,0.013264432242898886,0.9767137690596287,-0.0260199298305999,0.03931493879432117,-0.40520439466982144,-0.00761825219620978,0.013069984184791838,0.578601776849505,-0.023385542259817725,0.040950023238650914,-0.37174160665198036,-0.003613543425248142,0.012944293800951585,-0.010421229287440593,0.007385401938850893,-0.02835622210184171,-0.01449587603411689,0.0,0.004274266396485657,-0.0022689679812554044,12.932116703037188,0.0,0.0,0.0,0.0,0.0,0.40000478721917954,0.0,0.0,0.001912335339540464,0.0,0.0,0.0,0.0,0.0,0.0
0.015,-0.007877442977032186,0.013463597983448627,0.9746284009445845,-0.029302395205866985,0.03947825657886944,-0.4103943329345409,-0.00761825219620978,0.013069984184791838,0.578601776849505,-0.023385542259817725,0.040950023238650914,-0.37174160665198036,-0.0035480388707713347,0.012628735264299714,-0.010504121311408742,0.008481841469606746,-0.08277176783931953,-0.017592475788502236,0.0,0.004274266396485657,-0.0022689679812554044,12.932116703037188,0.0,0.0,0.0,0.0,0.0,0.4000190979065458,0.0,0.0,0.0038094025529743134,0.0,0.0,0.0,0.0,0.0,0.0
0.02,-0.008023186774560757,0.013672750280313757,0.972531454831676,-0.02686513816007804,0.04267213493720384,-0.41217555179959925,-0.00761825219620978,0.013069984184791838,0.578601776849505,-0.023385542259817725,0.040950023238650914,-0.37174160665198036,-0.0036126643561571895,0.012249238977885398,-0.010593326212057367,-0.035695581468263224,-0.05134798192327585,-0.01778428823097161,0.0,0.004274266396485657,-0.0022689679812554044,12.932116703037188,0.0,0.0,0.0,0.0,0.0,0.4000428559502358,0.0,0.0,0.00569129306608472,0.0,0.0,0.0,0.0,0.0,0.0
0.025,-0.008145819935766473,0.013883442093436579,0.9705464200369333,-0.025161906457121932,0.04446754266459858,-0.4147041502498994,-0.00761825219620978,0.013069984184791838,0.578601776849505,-0.023385542259817725,0.040950023238650914,-0.37174160665198036,-0.0038648567531715332,0.012091034125410184,-0.010672304632469773,-0.05997954036198169,-0.027183593056235505,-0.01433168448502229,0.0,0.004274266396485657,-0.0022689679812554044,12.932116703037188,0.0,0.0,0.0,0.0,0.0,0.40007598569429814,0.0,0.0,0.0075580978180245905,0.0,0.0,0.0,0.0,0.0,0.0
0.030000000000000002,-0.008279697578173784,0.014110533431184749,0.9684235014476853,-0.027678625411415102,0.04392867872518347,-0.41737141850305437,-0.00761825219620978,0.013069984184791838,0.578601776849505,-0.023385542259817725,0.040950023238650914,-0.37174160665198036,-0.004173437492653444,0.011882277381827422,-0.010712084227882768,-0.0519309855814549,-0.059405509469852825,-0.0009102772539539275,0.0,0.004274266396485657,-0.0022689679812554044,12.932116703037188,0.0,0.0,0.0,0.0,0.0,0.40011841193626585,0.0,0.0,0.009409907263744853,0.0,0.0,0.0,0.0,0.0,0.0
0.035,-0.008424220035130107,0.014333368331741373,0.9662882385499998,-0.02855617161300757,0.04306095381998357,-0.41981233692129427,-0.00761825219620978,0.013069984184791838,0.578601776849505,-0.023385542259817725,0.040950023238650914,-0.37174160665198036,-0.0044250838237596965,0.0115394680489382,-0.010672564233247661,-0.04160533008274527,-0.07014553750990919,0.014280345628699283,0.0,0.004274266396485657,-0.0022689679812554044,12.932116703037188,0.0,0.0,0.0,0.0,0.0,0.40017005992474053,0.0,0.0,0.011246811376411116,0.0,0.0,0.0,0.0,0.0,0.0
0.04,-0.008553267759094738,0.014537335322942602,0.9642673087109934,-0.02530303165340927,0.04147172555127238,-0.4220357479017457,-0.00761825219620978,0.013069984184791838,0.578601776849505,-0.023385542259817725,0.040950023238650914,-0.37174160665198036,-0.00459116980295529,0.011308504436599193,-0.01058235049459596,-0.021357742823069133,-0.028197976223254474,0.020836752719075476,0.0,0.004274266396485657,-0.0022689679812554044,12.932116703037188,0.0,0.0,0.0,0.0,0.0,0.400230855356991,0.0,0.0,0.01306889964980876,0.0,0.0,0.0,0.0,0.0,0.0
0.045,-0.008681955343816612,0.014745838421322219,0.9621091009281898,-0.025610270980282505,0.04013751967913831,-0.42415806792061467,-0.00761825219620978,0.013069984184791838,0.578601776849505,-0.023385542259817725,0.040950023238650914,-0.37174160665198036,-0.0046583755737066536,0.011153133188413976,-0.010479628990044381,-0.0028839259170243972,-0.038429597083021155,0.017900468205976728,0.0,0.004274266396485657,-0.0022689679812554044,12.932116703037188,0.0,0.0,0.0,0.0,0.0,0.40030072437656083,0.0,0.0,0.014876261100736476,0.0,0.0,0.0,0.0,0.0,0.0
0.049999999999999996,-0.008813675223516426,0.014950290790578835,0.9599373955148338,-0.025885038002332956,0.0403642015008683,-0.42755776758095576,-0.00761825219620978,0.013069984184791838,0.578601776849505,-0.023385542259817725,0.040950023238650914,-0.37174160665198036,-0.004668583392482157,0.010936324286864153,-0.010404545537772652,-0.006069988246679311,-0.044266030098436895,0.011966225180413216,0.0,0.004274266396485657,-0.0022689679812554044,12.932116703037188,0.0,0.0,0.0,0.0,0.0,0.4003795935708907,0.0,0.0,0.016668984271388368,0.0,0.0,0.0,0.0,0.0,0.0
0.05499999999999999,-0.008938696909546242,0.015147424767341508,0.9578761791861737,-0.026017081919261616,0.04211640300250424,-0.43114181725801476,-0.008938696909546242,0.015147424767341508,0.5574087892172234,-0.026017081919261616,0.04211640300250424,-0.44958897448973933,-0.0047517782783483,0.01071023630204459,-0.010351911689251621,-0.03418062785710686,-0.046983043218398635,0.010354639775711048,0.0,0.004274266396485657,-0.0022689679812554044,12.932116703037188,0.0,0.0,0.0,0.0,0.0,0.40046738996895037,0.0,0.0,0.018447157231724604,0.0,0.0,0.0,0.0,0.0,0.0
0.05999999999999999,-0.009071550413548604,0.015363624439197487,0.9556663854337557,-0.026050808158284186,0.0421105146638529,-0.43505765059595153,-0.008938696909546242,0.015147424767341508,0.5574087892172234,-0.026017081919261616,0.04211640300250424,-0.44958897448973933,-0.0049536679296313,0.010479328037483008,-0.010291737738187971,-0.03681227616778089,-0.0428008698177486,0.01341932748804855,0.0,0.024024680384528853,-0.007598915885864315,12.907954998004817,0.0,0.0,0.0,0.0,0.0,0.40056404103888354,0.0,0.0,0.020210867581830744,0.0,0.0,0.0,0.0,0.0,0.0
0.06499999999999999,-0.009206381699280996,0.015577842705595112,0.9534395106551647,-0.026773665589415522,0.04176821921847063,-0.43796363324038773,-0.008938696909546242,0.015147424767341508,0.5574087892172234,-0.026017081919261616,0.04211640300250424,-0.44958897448973933,-0.005136110537123789,0.010250498987200663,-0.010203509182947964,-0.03320592416057954,-0.04736038118395347,0.02088697231045039,0.0,0.024024680384528853,-0.007598915885864315,12.907954998004817,0.0,0.0,0.0,0.0,0.0,0.40066947468566505,0.0,0.0,0.02196020245426571,0.0,0.0,0.0,0.0,0.0,0.0
0.06999999999999999,-0.009334246265494298,0.01577667089428876,0.9513315151307568,-0.026408286207720687,0.04118954400400846,-0.4401878622370034,-0.008938696909546242,0.015147424767341508,0.5574087892172234,-0.026017081919261616,0.04211640300250424,-0.44958897448973933,-0.005268386936337116,0.010040333525046997,-0.010081003305361692,-0.02360637454215673,-0.03977888077826078,0.02916387952520801,0.0,0.024024680384528853,-0.007598915885864315,12.907954998004817,0.0,0.0,0.0,0.0,0.0,0.40078361924876804,0.0,0.0,0.023695248516398523,0.0,0.0,0.0,0.0,0.0,0.0
0.075,-0.00946555336813705,0.015985671982969792,0.9490814934220739,-0.025441959292009424,0.04068590395485734,-0.44215589017236423,-0.008938696909546242,0.015147424767341508,0.5574087892172234,-0.026017081919261616,0.04211640300250424,-0.44958897448973933,-0.005362520170147557,0.009887290341406415,-0.00990920302898966,-0.013015343950752331,-0.026107464535748533,0.0367847060758956,0.0,0.024024680384528853,-0.007598915885864315,12.907954998004817,0.0,0.0,0.0,0.0,0.0,0.40090640349984485,0.0,0.0,0.025416091972733854,0.0,0.0,0.0,0.0,0.0,0.0
0.08,-0.009594571769886578,0.01619241523477233,0.9468213898446283,-0.025158296982363156,0.0404879607999246,-0.4438437464469238,-0.008938696909546242,0.015147424767341508,0.5574087892172234,-0.026017081919261616,0.04211640300250424,-0.44958897448973933,-0.0054082068972697355,0.009757958933885253,-0.009716174646276624,-0.007248884870453275,-0.025611622834472877,0.037159813091236726,0.0,0.024024680384528853,-0.007598915885864315,12.907954998004817,0.0,0.0,0.0,0.0,0.0,0.40103775664041785,0.0,0.0,0.027122818567226366,0.0,0.0,0.0,0.0,0.0,0.0
0.085,-0.009718879673141133,0.01638945756141096,0.9446862218873963,-0.02649209948803962,0.04179632980399161,-0.44584195179447483,-0.008938696909546242,0.015147424767341508,0.5574087892172234,-0.026017081919261616,0.04211640300250424,-0.44958897448973933,-0.005471722692249419,0.00957467662993265,-0.009543571803757785,-0.02272642619653573,-0.04876126896116775,0.034808980588420926,0.0,0.024024680384528853,-0.007598915885864315,12.907954998004817,0.0,0.0,0.0,0.0,0.0,0.40117760829958227,0.0,0.0,0.028815513585584013,0.0,0.0,0.0,0.0,0.0,0.0
0.09000000000000001,-0.009850979863863862,0.01660219556883842,0.9424079320031035,-0.024902432360466575,0.041639994471172045,-0.44762228692679407,-0.008938696909546242,0.015147424767341508,0.5574087892172234,-0.026017081919261616,0.04211640300250424,-0.44958897448973933,-0.00557527779092796,0.009362589109581402,-0.009364413082390938,-0.01968100917835818,-0.028830604050605748,0.03546062278769163,0.0,0.024024680384528853,-0.007598915885864315,12.907954998004817,0.0,0.0,0.0,0.0,0.0,0.4013258885317216,0.0,0.0,0.030494261857560257,0.0,0.0,0.0,0.0,0.0,0.0
0.09500000000000001,-0.00997464547586647,0.016814384200917923,0.9401194625690013,-0.02369600232702062,0.041844530120189787,-0.4496496271368975,-0.008938696909546242,0.015147424767341508,0.5574087892172234,-0.026017081919261616,0.04211640300250424,-0.44958897448973933,-0.00567691575808827,0.009257137362954467,-0.009175478887845378,-0.024800648626349158,-0.013933627478348073,0.03873344295772157,0.0,0.024024680384528853,-0.007598915885864315,12.907954998004817,0.0,0.0,0.0,0.0,0.0,0.40148252781423244,0.0,0.0,0.03215914775923528,0.0,0.0,0.0,0.0,0.0,0.0
0.10000000000000002,-0.01009051790406707,0.017021332036583636,0.9379550908278546,-0.024716827578775233,0.04417537129965479,-0.4520092692167911,-0.008938696909546242,0.015147424767341508,0.5574087892172234,-0.026017081919261616,0.04211640300250424,-0.44958897448973933,-0.0058817185710480216,0.009159718863695382,-0.008974932172113757,-0.05812880498857241,-0.028910250719766096,0.04425827328949804,0.0,0.024024680384528853,-0.007598915885864315,12.907954998004817,0.0,0.0,0.0,0.0,0.0,0.40164745704526283,0.0,0.0,0.03381025521528627,0.0,0.0,0.0,0.0,0.0,0.0
0.10500000000000002,-0.010217358278215311,0.01724774867709745,0.9356404752964186,-0.024785936785371082,0.04419512993161187,-0.4556698717587648,-0.010217358278215311,0.01724774867709745,0.5338198677549586,-0.024785936785371082,0.04419512993161187,-0.4911175394600116,-0.006188861880992943,0.009003150178656053,-0.008737397147384423,-0.057368238682871664,-0.02958051056743626,0.047602773481605215,0.0,0.024024680384528853,-0.007598915885864315,12.907954998004817,0.0,0.0,0.0,0.0,0.0,0.40182060754146,0.0,0.0,0.03544766770124683,0.0,0.0,0.0,0.0,0.0,0.0
0.11000000000000003,-0.010347497489468394,0.017473197470065503,0.9333065431920025,-0.026778625866164647,0.04477905325334014,-0.459610437430929,-0.010217358278215311,0.01724774867709745,0.5338198677549586,-0.024785936785371082,0.04419512993161187,-0.4911175394600116,-0.0064711856660117795,0.008807103345808578,-0.008493973721112947,-0.061892346459449965,-0.055105119135442096,0.04666310623182992,0.0,-0.03937562834947665,0.044785679067689745,12.898728405312026,0.0,0.0,0.0,0.0,0.0,0.4020019110357309,0.0,0.0,0.03707146824575544,0.0,0.0,0.0,0.0,0.0,0.0
0.11500000000000003,-0.01047847066369865,0.01768715442166127,0.9310907882300048,-0.027316421750591072,0.04415368965735634,-0.46348918166296615,-0.010217358278215311,0.01724774867709745,0.5338198677549586,-0.024785936785371082,0.04419512993161187,-0.4911175394600116,-0.006735011736844847,0.00852389802994743,-0.008278063734697697,-0.04599743836107572,-0.05744646039434999,0.04252534578938681,0.0,-0.03937562834947665,0.044785679067689745,12.898728405312026,0.0,0.0,0.0,0.0,0.0,0.402191299675013,0.0,0.0,0.03868173943279329,0.0,0.0,0.0,0.0,0.0,0.0
0.12000000000000004,-0.01061797171860226,0.01791313860443185,0.9287163897932387,-0.02724586421483013,0.04435271628039755,-0.46728780680952253,-0.010217358278215311,0.01724774867709745,0.5338198677549586,-0.024785936785371082,0.04419512993161187,-0.4911175394600116,-0.006954996586701681,0.00824000650109893,-0.00806794382088786,-0.03982704845581407,-0.05297252734072236,0.039958106456980474,0.0,-0.03937562834947665,0.044785679067689745,12.898728405312026,0.0,0.0,0.0,0.0,0.0,0.40238870601805676,0.0,0.0,0.04027856340391121,0.0,0.0,0.0,0.0,0.0,0.0
0.12500000000000003,-0.01075795226548512,0.01814044370632054,0.9263228401638892,-0.027614286150069167,0.04457806843355753,-0.4707400137195285,-0.010217358278215311,0.01724774867709745,0.5338198677549586,-0.024785936785371082,0.04419512993161187,-0.4911175394600116,-0.007147937059802519,0.007970208212720646,-0.007859905563244474,-0.03447782697081242,-0.05308313079195921,0.04127821668775337,0.0,-0.03937562834947665,0.044785679067689745,12.898728405312026,0.0,0.0,0.0,0.0,0.0,0.4025940630332189,0.0,0.0,0.04186202186044599,0.0,0.0,0.0,0.0,0.0,0.0
0.13000000000000003,-0.010890408786954218,0.018355419588136024,0.924056205008087,-0.027466684251034802,0.04501698253799669,-0.4733501100175952,-0.010217358278215311,0.01724774867709745,0.5338198677549586,-0.024785936785371082,0.04419512993161187,-0.4911175394600116,-0.007311772636648944,0.007731168328757684,-0.007652503840265175,-0.035997949421846934,-0.04641071083608998,0.04450502704077446,0.0,-0.03937562834947665,0.044785679067689745,12.898728405312026,0.0,0.0,0.0,0.0,0.0,0.40280730409626664,0.0,0.0,0.04343219606572607,0.0,0.0,0.0,0.0,0.0,0.0
0.13500000000000004,-0.011027960747800445,0.01858215818227257,0.9216370183607606,-0.026598464007627422,0.044520706107442534,-0.4752520180785842,-0.010217358278215311,0.01724774867709745,0.5338198677549586,-0.024785936785371082,0.04419512993161187,-0.4911175394600116,-0.0074467925244890805,0.007541031572248654,-0.007410220966664163,-0.026884652231701466,-0.03128790473421709,0.0498618977422145,0.0,-0.03937562834947665,0.044785679067689745,12.898728405312026,0.0,0.0,0.0,0.0,0.0,0.403028362988194,0.0,0.0,0.04498916684726656,0.0,0.0,0.0,0.0,0.0,0.0
0.14000000000000004,-0.011165653293788632,0.01880933844916787,0.9192091862470443,-0.027159384050093965,0.04485275203517883,-0.476939054365267,-0.010217358278215311,0.01724774867709745,0.5338198677549586,-0.024785936785371082,0.04419512993161187,-0.4911175394600116,-0.007572937273250269,0.007357799466748243,-0.0071437294529857935,-0.027440817625553546,-0.038378795373677874,0.05306963764517033,0.0,-0.03937562834947665,0.044785679067689745,12.898728405312026,0.0,0.0,0.0,0.0,0.0,0.4032571738930468,0.0,0.0,0.046533014598953766,0.0,0.0,0.0,0.0,0.0,0.0
0.14500000000000005,-0.011298695223776797,0.0190285929249037,0.9169164590907776,-0.027985437752381128,0.04621619421934417,-0.47828577547768397,-0.010217358278215311,0.01724774867709745,0.5338198677549586,-0.024785936785371082,0.04419512993161187,-0.4911175394600116,-0.007749218703941465,0.0071339343125022036,-0.006890688256586397,-0.043346401873629814,-0.05182918305791301,0.050972584759699034,0.0,-0.03937562834947665,0.044785679067689745,12.898728405312026,0.0,0.0,0.0,0.0,0.0,0.40349367139576164,0.0,0.0,0.04806381928321922,0.0,0.0,0.0,0.0,0.0,0.0
0.15000000000000005,-0.011440083603947004,0.019266092504517683,0.9144708725315723,-0.027869328776101668,0.04649835676118019,-0.48069209972519206,-0.010217358278215311,0.01724774867709745,0.5338198677549586,-0.024785936785371082,0.04419512993161187,-0.4911175394600116,-0.007985077131605164,0.006890324311047354,-0.006642331318582705,-0.04390818256133151,-0.04949053901584878,0.04588230127303474,0.0,-0.03937562834947665,0.044785679067689745,12.898728405312026,0.0,0.0,0.0,0.0,0.0,0.40373779048001235,0.0,0.0,0.0495816604332033,0.0,0.0,0.0,0.0,0.0,0.0
0.15500000000000005,-0.011584533692970158,0.019504394826899352,0.9120118140095244,-0.029051918000179366,0.046975835517049994,-0.4836872695439104,-0.011584533692970158,0.019504394826899352,0.5080223474834542,-0.029051918000179366,0.046975835517049994,-0.5347738866988186,-0.008208679510670376,0.006622990650481532,-0.006418172357317129,-0.044847873054984465,-0.05969806380786697,0.04165667253704729,0.0,-0.03937562834947665,0.044785679067689745,12.898728405312026,0.0,0.0,0.0,0.0,0.0,0.40398946652607015,0.0,0.0,0.0510866171549083,0.0,0.0,0.0,0.0,0.0,0.0
0.16000000000000006,-0.011722207450639472,0.019725658310968775,0.9096818526499194,-0.027500665063859613,0.0448307161822875,-0.4869852722400982,-0.011584533692970158,0.019504394826899352,0.5080223474834542,-0.029051918000179366,0.046975835517049994,-0.5347738866988186,-0.00834557476146585,0.006385570481364713,-0.006221637615850478,-0.007783803472647576,-0.029116848906152536,0.03994994824394435,0.0,0.06274791506406145,-0.03329187175945833,12.896030125849276,0.0,0.0,0.0,0.0,0.0,0.40424863530867283,0.0,0.0,0.052578768129341355,0.0,0.0,0.0,0.0,0.0,0.0
0.16500000000000006,-0.011857125007502158,0.01994801925156344,0.9071893979616499,-0.025908840529261942,0.04300814266114183,-0.4902279487639177,-0.011584533692970158,0.019504394826899352,0.5080223474834542,-0.029051918000179366,0.046975835517049994,-0.5347738866988186,-0.008279187365029177,0.006335564744555024,-0.006013022460758827,0.023567426334509943,0.000979419415007204,0.042186095117869166,0.0,0.06274791506406145,-0.03329187175945833,12.896030125849276,0.0,0.0,0.0,0.0,0.0,0.4045152329949051,0.0,0.0,0.05405819161464694,0.0,0.0,0.0,0.0,0.0,0.0
0.17000000000000007,-0.011991209093005563,0.020168391657167807,0.904679171216582,-0.02708311319263687,0.043932062442339506,-0.4939045187302636,-0.011584533692970158,0.019504394826899352,0.5080223474834542,-0.029051918000179366,0.046975835517049994,-0.5347738866988186,-0.008159465066374228,0.00633033825250027,-0.0057866929764965325,0.015567403861626613,-0.010318551321795722,0.046298848736538174,0.0,0.06274791506406145,-0.03329187175945833,12.896030125849276,0.0,0.0,0.0,0.0,0.0,0.40478919614208964,0.0,0.0,0.055524965448229116,0.0,0.0,0.0,0.0,0.0,0.0
0.17500000000000007,-0.012121272424207333,0.020386656676071764,0.9023000239735511,-0.02643349254499688,0.04679305047216549,-0.4971162557496314,-0.011584533692970158,0.019504394826899352,0.5080223474834542,-0.029051918000179366,0.046975835517049994,-0.5347738866988186,-0.0081677968927517,0.006292632241126616,-0.005556832652858575,-0.016379663906522013,0.0032799678591524635,0.048815887110634865,0.0,0.06274791506406145,-0.03329187175945833,12.896030125849276,0.0,0.0,0.0,0.0,0.0,0.40507046169568883,0.0,0.0,0.056979167048863626,0.0,0.0,0.0,0.0,0.0,0.0
0.18000000000000008,-0.012253023798814565,0.02062785138262927,0.899755850721009,-0.025178146976393593,0.0473252565497724,-0.5003787249667715,-0.011584533692970158,0.019504394826899352,0.5080223474834542,-0.029051918000179366,0.046975835517049994,-0.5347738866988186,-0.008254897829015109,0.006366436259274017,-0.005312590026480365,-0.012685833459586517,0.024851879582019114,0.0459045153540224,0.0,0.06274791506406145,-0.03329187175945833,12.896030125849276,0.0,0.0,0.0,0.0,0.0,0.40535896698721685,0.0,0.0,0.058420873418799785,0.0,0.0,0.0,0.0,0.0,0.0
0.18500000000000008,-0.01237768077454103,0.02086694070061191,0.897196471900552,-0.02451345194882019,0.0464676134577703,-0.5032816626816472,-0.011584533692970158,0.019504394826899352,0.5080223474834542,-0.029051918000179366,0.046975835517049994,-0.5347738866988186,-0.008264937351419815,0.006549876766525485,-0.005105089069827955,0.006475236400710246,0.03479559282758009,0.03621784986105792,0.0,0.06274791506406145,-0.03329187175945833,12.896030125849276,0.0,0.0,0.0,0.0,0.0,0.4056546497321616,0.0,0.0,0.05985016114585228,0.0,0.0,0.0,0.0,0.0,0.0
0.19000000000000009,-0.012502966269192962,0.021089962148170324,0.8947735361101984,-0.028163201340011438,0.046583671716641434,-0.5059206417249567,-0.011584533692970158,0.019504394826899352,0.5080223474834542,-0.029051918000179366,0.046975835517049994,-0.5347738866988186,-0.008223889972977605,0.00661081928491559,-0.004950389535683173,0.007936767775367295,-0.016114127009196077,0.029820202782979685,0.0,0.06274791506406145,-0.03329187175945833,12.896030125849276,0.0,0.0,0.0,0.0,0.0,0.4059574480279191,0.0,0.0,0.06126710640548294,0.0,0.0,0.0,0.0,0.0,0.0
0.1950000000000001,-0.012652772230994596,0.021330963842287443,0.8921863164877932,-0.029705834690193583,0.04777079565846287,-0.5082002905925602,-0.011584533692970158,0.019504394826899352,0.5080223474834542,-0.029051918000179366,0.046975835517049994,-0.5347738866988186,-0.00822786780165995,0.006451655822267002,-0.004803889397619355,-0.008045651472463894,-0.03473838161085956,0.027727842971661018,0.0,0.06274791506406145,-0.03329187175945833,12.896030125849276,0.0,0.0,0.0,0.0,0.0,0.4062673003517354,0.0,0.0,0.0626717849628724,0.0,0.0,0.0,0.0,0.0,0.0
0.2000000000000001,-0.012802165916795318,0.021574000072032622,0.8895891527393507,-0.028243650021585975,0.047150008591021066,-0.5102239499257244,-0.011584533692970158,0.019504394826899352,0.5080223474834542,-0.029051918000179366,0.046975835517049994,-0.5347738866988186,-0.008259018014397688,0.006312250973749529,-0.004659027435983876,0.0009322876531728235,-0.011730757441719013,0.02934599954332184,0.0,0.06274791506406145,-0.03329187175945833,12.896030125849276,0.0,0.0,0.0,0.0,0.0,0.4065841455586616,0.0,0.0,0.0640642721749819,0.0,0.0,0.0,0.0,0.0,0.0
0.2050000000000001,-0.012935392157124342,0.02180000974773856,0.8871354360314567,-0.027663150004840983,0.04714907448575209,-0.5121849653309448,-0.012935392157124342,0.02180000974773856,0.4802275131519398,-0.027663150004840983,0.04714907448575209,-0.5776296083235499,-0.008247442340178369,0.006296158899728854,-0.0045039928043382966,0.0017972376258323331,-0.0011895262941643216,0.03533291925458727,0.0,0.06274791506406145,-0.03329187175945833,12.896030125849276,0.0,0.0,0.0,0.0,0.0,0.40690792287951694,0.0,0.0,0.06544464299260506,0.0,0.0,0.0,0.0,0.0,0.0
0.2100000000000001,-0.01308451985457588,0.022050585646804646,0.8845154964376443,-0.031580624606213005,0.051965167990182165,-0.5151440710660324,-0.012935392157124342,0.02180000974773856,0.4802275131519398,-0.027663150004840983,0.04714907448575209,-0.5776296083235499,-0.008373253281131417,0.006181627462010963,-0.004306518659905737,-0.06337739248860254,-0.05552984624881993,0.04068841844736597,0.0,-0.04388609394722737,0.12754022769980905,12.841026485561933,0.0,0.0,0.0,0.0,0.0,0.4072385719188636,0.0,0.0,0.06681297196240991,0.0,0.0,0.0,0.0,0.0,0.0
0.2150000000000001,-0.013249534659958886,0.02232653626938677,0.8818808708198634,-0.0319308743107426,0.054763835294409854,-0.517946197373237,-0.012935392157124342,0.02180000974773856,0.4802275131519398,-0.027663150004840983,0.04714907448575209,-0.5776296083235499,-0.008828338544803761,0.005847930046694556,-0.004093450821209272,-0.09475015068055385,-0.059281130619876624,0.040860191848673656,0.0,-0.04388609394722737,0.12754022769980905,12.841026485561933,0.0,0.0,0.0,0.0,0.0,0.40757603265299125,0.0,0.0,0.06816933322897092,0.0,0.0,0.0,0.0,0.0,0.0
0.2200000000000001,-0.013397321249984852,0.02258512805483982,0.8793868690542382,-0.029506112426809027,0.05226784302972767,-0.521111754461707,-0.012935392157124342,0.02180000974773856,0.4802275131519398,-0.027663150004840983,0.04714907448575209,-0.5776296083235499,-0.009199072541347343,0.005646106349996295,-0.0039031500358423896,-0.05128610885120864,-0.02371583120775638,0.03723320654235886,0.0,-0.04388609394722737,0.12754022769980905,12.841026485561933,0.0,0.0,0.0,0.0,0.0,0.40792024542791083,0.0,0.0,0.06951380053679138,0.0,0.0,0.0,0.0,0.0,0.0
0.22500000000000012,-0.01354544077252762,0.02284638761696429,0.8767192817752849,-0.029391844465564584,0.051065188891036145,-0.5250076604328291,-0.012935392157124342,0.02180000974773856,0.4802275131519398,-0.027663150004840983,0.04714907448575209,-0.5776296083235499,-0.009369850865165405,0.005563147814440992,-0.0037317413069137485,-0.029188173589428837,-0.021129346214220496,0.02960448189895624,0.0,-0.04388609394722737,0.12754022769980905,12.841026485561933,0.0,0.0,0.0,0.0,0.0,0.40827115095736055,0.0,0.0,0.07084644723231605,0.0,0.0,0.0,0.0,0.0,0.0
0.23000000000000012,-0.013701428178042268,0.023112734303216,0.8740304675866165,-0.03215234910150118,0.05410261053489929,-0.5291290988435617,-0.012935392157124342,0.02180000974773856,0.4802275131519398,-0.027663150004840983,0.04714907448575209,-0.5776296083235499,-0.009584495424539768,0.005370942717842765,-0.0035960522736382785,-0.06560137883061767,-0.06029973459353634,0.02443945035888709,0.0,-0.04388609394722737,0.12754022769980905,12.841026485561933,0.0,0.0,0.0,0.0,0.0,0.4086286903208194,0.0,0.0,0.07216734626593393,0.0,0.0,0.0,0.0,0.0,0.0
0.23500000000000013,-0.013856870674091784,0.023378131120886388,0.871481339966305,-0.03194126361810696,0.05563893062863576,-0.5326936993228989,-0.012935392157124342,0.02180000974773856,0.4802275131519398,-0.027663150004840983,0.04714907448575209,-0.5776296083235499,-0.009958172719856448,0.005075403170834031,-0.0034694796784834,-0.07940177577243514,-0.0532536345396316,0.028429278633108797,0.0,-0.04388609394722737,0.12754022769980905,12.841026485561933,0.0,0.0,0.0,0.0,0.0,0.40899280496153245,0.0,0.0,0.07347657019397169,0.0,0.0,0.0,0.0,0.0,0.0
0.24000000000000013,-0.014017926165267926,0.023658290759532873,0.8687536691219655,-0.0307053164506728,0.05388324978304717,-0.5368182788997246,-0.012935392157124342,0.02180000974773856,0.4802275131519398,-0.027663150004840983,0.04714907448575209,-0.5776296083235499,-0.010294236028576355,0.004855300112283894,-0.0032954295900783455,-0.04904978320922931,-0.02670793833229273,0.038456991668610045,0.0,-0.04388609394722737,0.12754022769980905,12.841026485561933,0.0,0.0,0.0,0.0,0.0,0.4093634366845452,0.0,0.0,0.07477419118067714,0.0,0.0,0.0,0.0,0.0,0.0
0.24500000000000013,-0.014175185817081225,0.02392928316844796,0.8660034932539917,-0.03126865325017947,0.05283230932559617,-0.5412501501906183,-0.012935392157124342,0.02180000974773856,0.4802275131519398,-0.027663150004840983,0.04714907448575209,-0.5776296083235499,-0.010478526959165528,0.004736664529190965,-0.003077847614681632,-0.03006005277172161,-0.026023788814432687,0.04477856034136926,0.0,-0.04388609394722737,0.12754022769980905,12.841026485561933,0.0,0.0,0.0,0.0,0.0,0.40974052765474867,0.0,0.0,0.0760602810001935,0.0,0.0,0.0,0.0,0.0,0.0
0.2500000000000001,-0.014330342842284323,0.02418473731472055,0.8633963616828157,-0.03345375957527663,0.05349343496992531,-0.544593472030002,-0.012935392157124342,0.02180000974773856,0.4802275131519398,-0.027663150004840983,0.04714907448575209,-0.5776296083235499,-0.01063360463938434,0.004559759153700842,-0.0028607325798289352,-0.03346083175189192,-0.05053961156937746,0.04386873499780014,0.0,-0.04388609394722737,0.12754022769980905,12.841026485561933,0.0,0.0,0.0,0.0,0.0,0.41012402039493323,0.0,0.0,0.07733491103852384,0.0,0.0,0.0,0.0,0.0,0.0
0.2550000000000001,-0.01450162805572769,0.02445985013900567,0.8606130292992134,-0.03348488837093984,0.05455521206383551,-0.5468761264343764,-0.01450162805572769,0.02445985013900567,0.4500991715153603,-0.03348488837093984,0.05455521206383551,-0.6254742787298627,-0.010814790065736917,0.004308644237630882,-0.0026500102742750263,-0.04112453323153179,-0.046655182457857214,0.03725146692967161,0.0,-0.04388609394722737,0.12754022769980905,12.841026485561933,0.0,0.0,0.0,0.0,0.0,0.4105138577838531,0.0,0.0,0.0785981522954863,0.0,0.0,0.0,0.0,0.0,0.0
0.2600000000000001,-0.01466186554646661,0.024729695676410087,0.8578184621709295,-0.028720641813476742,0.050965288770938574,-0.5491732878188501,-0.01450162805572769,0.02445985013900567,0.4500991715153603,-0.03348488837093984,0.05455521206383551,-0.6254742787298627,-0.01088689236327456,0.004228395642138753,-0.0024861121586990586,0.016140676926268197,0.02308342404534701,0.027311806684618977,0.0,0.08032410305913884,-0.011555038792292296,12.871825286920343,0.0,0.0,0.0,0.0,0.0,0.4109099830542998,0.0,0.0,0.07985007538665972,0.0,0.0,0.0,0.0,0.0,0.0
0.2650000000000001,-0.014794125045547606,0.02497017324191786,0.8551764087707179,-0.027540306809804627,0.05039566914304359,-0.5515803955114339,-0.01450162805572769,0.02445985013900567,0.4500991715153603,-0.03348488837093984,0.05455521206383551,-0.6254742787298627,-0.010736767115911339,0.0044199365691601255,-0.0023767254020594115,0.02951433545610052,0.039968707384118785,0.020199566390873145,0.0,0.08032410305913884,-0.011555038792292296,12.871825286920343,0.0,0.0,0.0,0.0,0.0,0.41131233979118653,0.0,0.0,0.08109075054532004,0.0,0.0,0.0,0.0,0.0,0.0
0.27000000000000013,-0.014941070573596388,0.025236102401014184,0.8523538758303671,-0.030121035860539838,0.05371693308036135,-0.5548952728555304,-0.01450162805572769,0.02445985013900567,0.4500991715153603,-0.03348488837093984,0.05455521206383551,-0.6254742787298627,-0.010696652533247648,0.004533272325608701,-0.0022851550023191944,-0.011623908964884813,0.003798898153144664,0.017577612007398016,0.0,0.08032410305913884,-0.011555038792292296,12.871825286920343,0.0,0.0,0.0,0.0,0.0,0.41172087192964124,0.0,0.0,0.08232024762436707,0.0,0.0,0.0,0.0,0.0,0.0
0.27500000000000013,-0.015097912267258434,0.025514438652446264,0.8495148911079672,-0.030652993780995303,0.054323029109376225,-0.5583330447210363,-0.01450162805572769,0.02445985013900567,0.4500991715153603,-0.03348488837093984,0.05455521206383551,-0.6254742787298627,-0.010800638509819015,0.004512065402420406,-0.002182560073786188,-0.014366169376864045,-0.0019464560802463894,0.023616820336579566,0.0,0.08032410305913884,-0.011555038792292296,12.871825286920343,0.0,0.0,0.0,0.0,0.0,0.41213552375310925,0.0,0.0,0.0835386360982424,0.0,0.0,0.0,0.0,0.0,0.0
0.28000000000000014,-0.015242503000525497,0.02577110378303772,0.8468257876857592,-0.02973666197836975,0.052777520189317896,-0.5620587604295256,-0.01450162805572769,0.02445985013900567,0.4500991715153603,-0.03348488837093984,0.05455521206383551,-0.6254742787298627,-0.010802975332867743,0.004547841636837564,-0.002049560871369063,0.010829744217463477,0.014236593012196463,0.030605634358727676,0.0,0.08032410305913884,-0.011555038792292296,12.871825286920343,0.0,0.0,0.0,0.0,0.0,0.4125562398914657,0.0,0.0,0.08474598506483777,0.0,0.0,0.0,0.0,0.0,0.0
0.28500000000000014,-0.015390592424016867,0.026040726807621938,0.8439487268285111,-0.028811179028118222,0.05349994460952249,-0.5659238818260357,-0.01450162805572769,0.02445985013900567,0.4500991715153603,-0.03348488837093984,0.05455521206383551,-0.6254742787298627,-0.01073478051113377,0.004682893807911286,-0.0018916387375973428,0.008334894147028392,0.031030688640312297,0.030866836082306257,0.0,0.08032410305913884,-0.011555038792292296,12.871825286920343,0.0,0.0,0.0,0.0,0.0,0.41298296531913825,0.0,0.0,0.08594236324739417,0.0,0.0,0.0,0.0,0.0,0.0
0.29000000000000015,-0.01553816726878986,0.026316784716179615,0.8410531499919033,-0.02955830642539473,0.054302570411898864,-0.5692714259993625,-0.01450162805572769,0.02445985013900567,0.4500991715153603,-0.03348488837093984,0.05455521206383551,-0.6254742787298627,-0.01071224217150379,0.004835835148841773,-0.0017491986194565613,0.005415194852230726,0.020890266993975937,0.02492030078033803,0.0,0.08032410305913884,-0.011555038792292296,12.871825286920343,0.0,0.0,0.0,0.0,0.0,0.4134156453532377,0.0,0.0,0.0871278389963921,0.0,0.0,0.0,0.0,0.0,0.0
0.29500000000000015,-0.01568480024100919,0.02657615612732745,0.8383106865090073,-0.03149642836905291,0.053735949413747826,-0.5732638050439021,-0.01450162805572769,0.02445985013900567,0.4500991715153603,-0.03348488837093984,0.05455521206383551,-0.6254742787298627,-0.010655181976161391,0.0048685651758749995,-0.0016540105963726453,0.018275373276896267,-0.006802545260681598,0.015567810320008936,0.0,0.08032410305913884,-0.011555038792292296,12.871825286920343,0.0,0.0,0.0,0.0,0.0,0.4138542256516995,0.0,0.0,0.08830248029143234,0.0,0.0,0.0,0.0,0.0,0.0
0.30000000000000016,-0.01585298536919656,0.026851729015679643,0.8353758973791885,-0.03375624022470731,0.05471311792117717,-0.577418021836051,-0.01450162805572769,0.02445985013900567,0.4500991715153603,-0.03348488837093984,0.05455521206383551,-0.6254742787298627,-0.010565006948453286,0.00473121582937976,-0.0015885631782245992,0.011894485384343168,-0.037169485686583965,0.011032288839809347,0.0,0.08032410305913884,-0.011555038792292296,12.871825286920343,0.0,0.0,0.0,0.0,0.0,0.41429865221143347,0.0,0.0,0.08946635474310793,0.0,0.0,0.0,0.0,0.0,0.0
0.30500000000000016,-0.016022173012964026,0.027131339124732073,0.832423179112397,-0.03225719980604226,0.054830824046944046,-0.580274639532894,-0.016022173012964026,0.027131339124732073,0.41767430774591285,-0.03225719980604226,0.054830824046944046,-0.670894169127761,-0.010485652124510157,0.00459313505579884,-0.0015301938622600206,0.01982802490493798,-0.012478099403586202,0.012119444066241741,0.0,0.08032410305913884,-0.011555038792292296,12.871825286920343,0.0,0.0,0.0,0.0,0.0,0.4147488713664842,0.0,0.0,0.09061952959486701,0.0,0.0,0.0,0.0,0.0,0.0
0.31000000000000016,-0.016171293375063272,0.02740842550691748,0.8296313073858778,-0.03049922015761174,0.061841804383472795,-0.5829674251620456,-0.016022173012964026,0.027131339124732073,0.41767430774591285,-0.03225719980604226,0.054830824046944046,-0.670894169127761,-0.010573108150661986,0.004630393081529982,-0.0014573176232200325,-0.07471657024980016,0.019340335830158435,0.019016017615923055,0.0,0.05571279750091158,0.24244641554446447,12.705493473027673,0.0,0.0,0.0,0.0,0.0,0.41520482978619944,0.0,0.0,0.09176207172486651,0.0,0.0,0.0,0.0,0.0,0.0
0.31500000000000017,-0.016332876967108386,0.027740993876908857,0.8266482030188725,-0.0330088026757438,0.06709852489973817,-0.5866557296023229,-0.016022173012964026,0.027131339124732073,0.41767430774591285,-0.03225719980604226,0.054830824046944046,-0.670894169127761,-0.011183469612914856,0.004672516312616513,-0.0013316931985154871,-0.1446388624462212,-0.005881667287427059,0.0295630767464347,0.0,0.05571279750091158,0.24244641554446447,12.705493473027673,0.0,0.0,0.0,0.0,0.0,0.415666474473408,0.0,0.0,0.09289404764781724,0.0,0.0,0.0,0.0,0.0,0.0
0.3200000000000002,-0.016505318181781387,0.028082072702675223,0.8236448581399558,-0.03418031175591602,0.06557910267963014,-0.590802326572995,-0.016022173012964026,0.027131339124732073,0.41767430774591285,-0.03225719980604226,0.054830824046944046,-0.670894169127761,-0.011884806362357624,0.004610625580776692,-0.0011658932435627061,-0.1161382939116296,-0.014205798605297543,0.03346505187014025,0.0,0.05571279750091158,0.24244641554446447,12.705493473027673,0.0,0.0,0.0,0.0,0.0,0.41613375276260767,0.0,0.0,0.09401552351681979,0.0,0.0,0.0,0.0,0.0,0.0
0.3250000000000002,-0.01666681733548618,0.028392474896169657,0.8207985460741939,-0.03330989504212248,0.06417411710627369,-0.5949819824007153,-0.016022173012964026,0.027131339124732073,0.41767430774591285,-0.03225719980604226,0.054830824046944046,-0.670894169127761,-0.012364164564840742,0.004593773293773811,-0.0010098141981919784,-0.09117364072117075,0.0029684907963900124,0.030988953760210616,0.0,0.05571279750091158,0.24244641554446447,12.705493473027673,0.0,0.0,0.0,0.0,0.0,0.41660661231816165,0.0,0.0,0.09512656512519153,0.0,0.0,0.0,0.0,0.0,0.0
0.3300000000000002,-0.016837406905554676,0.028717669734847406,0.8177536220629915,-0.03399062371029636,0.06364518404728856,-0.5990253542496445,-0.016022173012964026,0.027131339124732073,0.41767430774591285,-0.03225719980604226,0.054830824046944046,-0.670894169127761,-0.012786883617640944,0.004612592047362985,-0.0008680037901163136,-0.07943813375257555,-0.0023145860026299505,0.024404536740980993,0.0,0.05571279750091158,0.24244641554446447,12.705493473027673,0.0,0.0,0.0,0.0,0.0,0.4170850011325039,0.0,0.0,0.09622723790828512,0.0,0.0,0.0,0.0,0.0,0.0
0.3350000000000002,-0.017017489619723557,0.029039938844964995,0.8146875661247592,-0.036331143543275546,0.06283397140923225,-0.6031557632854406,-0.016022173012964026,0.027131339124732073,0.41767430774591285,-0.03225719980604226,0.054830824046944046,-0.670894169127761,-0.013138707731251037,0.004516718932570601,-0.0007625533730780953,-0.06032271754168652,-0.032103316307828575,0.017605048242087442,0.0,0.05571279750091158,0.24244641554446447,12.705493473027673,0.0,0.0,0.0,0.0,0.0,0.41756886752435407,0.0,0.0,0.09731760694529785,0.0,0.0,0.0,0.0,0.0,0.0
0.3400000000000002,-0.01719215314832262,0.029342841308055208,0.811783119578057,-0.035671679612024686,0.06338107306905018,-0.6066420523821624,-0.016022173012964026,0.027131339124732073,0.41767430774591285,-0.03225719980604226,0.054830824046944046,-0.670894169127761,-0.013420822003770814,0.00436466269272737,-0.00067935182573331,-0.05800182958800844,-0.02113480647053504,0.017225585908223172,0.0,0.05571279750091158,0.24244641554446447,12.705493473027673,0.0,0.0,0.0,0.0,0.0,0.4180581601369411,0.0,0.0,0.09839773696107249,0.0,0.0,0.0,0.0,0.0,0.0
0.3450000000000002,-0.01736999969395166,0.029669270810773613,0.8086792313639735,-0.03403378871858155,0.06449950931182298,-0.6105183077943835,-0.016022173012964026,0.027131339124732073,0.41767430774591285,-0.03225719980604226,0.054830824046944046,-0.670894169127761,-0.013729177066341625,0.004322043872150687,-0.000579225691993698,-0.06248866524861921,0.005049207794461542,0.022652052455090565,0.0,0.05571279750091158,0.24244641554446447,12.705493473027673,0.0,0.0,0.0,0.0,0.0,0.41855282793623594,0.0,0.0,0.09946769232788925,0.0,0.0,0.0,0.0,0.0,0.0
0.3500000000000002,-0.017544965346979125,0.02999961583017371,0.8055534437193784,-0.03529005397755297,0.06511111097002088,-0.6152602502149982,-0.016022173012964026,0.027131339124732073,0.41767430774591285,-0.03225719980604226,0.054830824046944046,-0.670894169127761,-0.01403998797565919,0.00434920579214425,-0.0004358694585367718,-0.061667998790943,-0.005027549215314448,0.03344496620377671,0.0,0.05571279750091158,0.24244641554446447,12.705493473027673,0.0,0.0,0.0,0.0,0.0,0.41905282020919365,0.0,0.0,0.1005275370672493,0.0,0.0,0.0,0.0,0.0,0.0
0.3550000000000002,-0.01771634555512506,0.030314113833485635,0.8025888691576752,-0.035904935649964234,0.06608268954650225,-0.6195886863579732,-0.01771634555512506,0.030314113833485635,0.38303078259567247,-0.035904935649964234,0.06608268954650225,-0.7211660212096227,-0.014338402611608509,0.004325218705404799,-0.000256016929947408,-0.06587727940707253,-0.003655905295525551,0.039317772605087245,0.0,0.05571279750091158,0.24244641554446447,12.705493473027673,0.0,0.0,0.0,0.0,0.0,0.4195580865620028,0.0,0.0,0.10157733485164956,0.0,0.0,0.0,0.0,0.0,0.0
0.3600000000000002,-0.01789603981853524,0.03065191461407206,0.799420477261419,-0.033913621237970155,0.0657921466651264,-0.6226362041791009,-0.01771634555512506,0.030314113833485635,0.38303078259567247,-0.035904935649964234,0.06608268954650225,-0.7211660212096227,-0.01465434173127934,0.004380986796721593,-6.240169687977356e-05,-0.05121895587420465,0.03265971706853327,0.0357623583958755,0.0,0.11738979390465859,0.16318159243662955,12.751734562257344,0.0,0.0,0.0,0.0,0.0,0.42006857691834654,0.0,0.0,0.10261714900634873,0.0,0.0,0.0,0.0,0.0,0.0
0.3650000000000002,-0.018068369618002202,0.030983967019105725,0.7962364027620695,-0.034258843560443744,0.06457235230079927,-0.6257767141850004,-0.01771634555512506,0.030314113833485635,0.38303078259567247,-0.035904935649964234,0.06608268954650225,-0.7211660212096227,-0.014846241261540292,0.0045728826693343496,9.345938357601515e-05,-0.027433684726602122,0.03294309965830449,0.026308746708959295,0.0,0.11738979390465859,0.16318159243662955,12.751734562257344,0.0,0.0,0.0,0.0,0.0,0.42058424151766893,0.0,0.0,0.10364704251112512,0.0,0.0,0.0,0.0,0.0,0.0
0.3700000000000002,-0.018239308383861823,0.03129442136077235,0.7932228760870297,-0.03690708279620829,0.06497182854897676,-0.6296132915124582,-0.01771634555512506,0.030314113833485635,0.38303078259567247,-0.035904935649964234,0.06608268954650225,-0.7211660212096227,-0.01497324005548911,0.004652300143956123,0.00019099821220164536,-0.028947395158715753,0.0002234848719187832,0.01581024305505245,0.0,0.11738979390465859,0.16318159243662955,12.751734562257344,0.0,0.0,0.0,0.0,0.0,0.4211050309134535,0.0,0.0,0.10466707800202579,0.0,0.0,0.0,0.0,0.0,0.0
0.3750000000000002,-0.01842929679735665,0.031626811938425176,0.7900007046217026,-0.03699354951461847,0.06551262896172763,-0.6338022122659877,-0.01771634555512506,0.030314113833485635,0.38303078259567247,-0.035904935649964234,0.06608268954650225,-0.7211660212096227,-0.015124834389282487,0.004642032411051774,0.0002541469680461693,-0.032920834524540143,0.003572111933413629,0.010727325665580196,0.0,0.11738979390465859,0.16318159243662955,12.751734562257344,0.0,0.0,0.0,0.0,0.0,0.4216308959715084,0.0,0.0,0.10567731777310717,0.0,0.0,0.0,0.0,0.0,0.0
0.3800000000000002,-0.018613440615030393,0.03196004986426515,0.7867586042582922,-0.035377111022369276,0.06535383967628862,-0.6376070611088903,-0.01771634555512506,0.030314113833485635,0.38303078259567247,-0.035904935649964234,0.06608268954650225,-0.7211660212096227,-0.015265355453751578,0.004737679086373768,0.0003110077097309925,-0.024959732339596072,0.031193586802823123,0.0129617124126276,0.0,0.11738979390465859,0.16318159243662955,12.751734562257344,0.0,0.0,0.0,0.0,0.0,0.42216178786826,0.0,0.0,0.10667782377816744,0.0,0.0,0.0,0.0,0.0,0.0
0.38500000000000023,-0.01878338556769623,0.03227680108450411,0.7836881400254331,-0.035961719469872075,0.06679016995702938,-0.6416503645252322,-0.01771634555512506,0.030314113833485635,0.38303078259567247,-0.035904935649964234,0.06608268954650225,-0.7211660212096227,-0.015409783304062322,0.004893032300655095,0.0003874956876045501,-0.03810081752638009,0.025134101876556653,0.020091099574887094,0.0,0.11738979390465859,0.16318159243662955,12.751734562257344,0.0,0.0,0.0,0.0,0.0,0.42269765808905746,0.0,0.0,0.10766865763247033,0.0,0.0,0.0,0.0,0.0,0.0
0.39000000000000024,-0.018971340737045324,0.03262410851337515,0.7804014560636251,-0.03734159798647637,0.06915651537734248,-0.6469280457520618,-0.01771634555512506,0.030314113833485635,0.38303078259567247,-0.035904935649964234,0.06608268954650225,-0.7211660212096227,-0.015670433180080493,0.0049638331323822345,0.0005134374563497822,-0.06073615442078555,0.007907683559406367,0.028849599746253132,0.0,0.11738979390465859,0.16318159243662955,12.751734562257344,0.0,0.0,0.0,0.0,0.0,0.4232384584264828,0.0,0.0,0.10864988061446078,0.0,0.0,0.0,0.0,0.0,0.0
0.39500000000000024,-0.019162876052573035,0.0329794569558406,0.7770894753127102,-0.036944431650582046,0.06959717089816521,-0.6514966947359963,-0.01771634555512506,0.030314113833485635,0.38303078259567247,-0.035904935649964234,0.06608268954650225,-0.7211660212096227,-0.01597992288447568,0.004996782269465052,0.0006738837183946467,-0.053490270790291124,0.015172132053054963,0.03293807126212983,0.0,0.11738979390465859,0.16318159243662955,12.751734562257344,0.0,0.0,0.0,0.0,0.0,0.42378414097867234,0.0,0.0,0.10962155366747216,0.0,0.0,0.0,0.0,0.0,0.0
0.40000000000000024,-0.019337872259950036,0.033308531712554046,0.7739532470964362,-0.03638836022168643,0.06730981740575706,-0.6549758125277982,-0.01771634555512506,0.030314113833485635,0.38303078259567247,-0.035904935649964234,0.06608268954650225,-0.7211660212096227,-0.01613559788217041,0.005102772348679563,0.0008271166031158745,-0.009924593261524794,0.0222078944785981,0.030835779972383164,0.0,0.11738979390465859,0.16318159243662955,12.751734562257344,0.0,0.0,0.0,0.0,0.0,0.42433465814764426,0.0,0.0,0.11058373740142523,0.0,0.0,0.0,0.0,0.0,0.0
0.40500000000000025,-0.019526759014386382,0.03364901341960813,0.7706032789767399,-0.038071138985314834,0.06696467489081283,-0.6586096459643953,-0.019526759014386382,0.03364901341960813,0.34571331633910296,-0.038071138985314834,0.06696467489081283,-0.7701461380589143,-0.01611528351451926,0.005169249482662278,0.0009648568439024047,0.006366859847291986,-0.0021535154477563597,0.02347418558968452,0.0,0.11738979390465859,0.16318159243662955,12.751734562257344,0.0,0.0,0.0,0.0,0.0,0.4248899626376369,0.0,0.0,0.11153649209451899,0.0,0.0,0.0,0.0,0.0,0.0
0.41000000000000025,-0.019716451842052167,0.034007061084641875,0.7672348630360993,-0.035276518775814995,0.07448891362731157,-0.6622622448902967,-0.019526759014386382,0.03364901341960813,0.34571331633910296,-0.038071138985314834,0.06696467489081283,-0.7701461380589143,-0.016285768616958168,0.005223911117344124,0.0010643588159824906,-0.08938349325182746,0.03769173910841235,0.016835204353397994,0.0,0.2364343215844502,0.3188494323812699,12.614590634224912,0.0,0.0,0.0,0.0,0.0,0.4254500074534532,0.0,0.0,0.11247987769491316,0.0,0.0,0.0,0.0,0.0,0.0
0.41500000000000026,-0.019874613569788105,0.03437762923828336,0.7640468775232712,-0.031254346575733866,0.07825747120937569,-0.6658468742138962,-0.019526759014386382,0.03364901341960813,0.34571331633910296,-0.038071138985314834,0.06696467489081283,-0.7701461380589143,-0.016872056209764046,0.00556412398602722,0.001134801032246441,-0.13297849515821922,0.09544657248406152,0.015916083607532355,0.0,0.2364343215844502,0.3188494323812699,12.614590634224912,0.0,0.0,0.0,0.0,0.0,0.42601474589881594,0.0,0.0,0.11341395382240269,0.0,0.0,0.0,0.0,0.0,0.0
0.42000000000000026,-0.02003745283862654,0.034772021651572,0.7606403328018458,-0.033432812748811644,0.07592836750836982,-0.670039124276127,-0.019526759014386382,0.03364901341960813,0.34571331633910296,-0.038071138985314834,0.06696467489081283,-0.7701461380589143,-0.01745608085668994,0.006010460846817233,0.0012183360898961292,-0.0913317699444802,0.06793260412979825,0.020423511179309337,0.0,0.2364343215844502,0.3188494323812699,12.614590634224912,0.0,0.0,0.0,0.0,0.0,0.42658413157472885,0.0,0.0,0.11433877977008415,0.0,0.0,0.0,0.0,0.0,0.0
0.42500000000000027,-0.0202153139662633,0.035155537082093284,0.7572101815309809,-0.036032478382564306,0.07540969337418997,-0.6749968659971564,-0.019526759014386382,0.03364901341960813,0.34571331633910296,-0.038071138985314834,0.06696467489081283,-0.7701461380589143,-0.017853895978522064,0.0062648276924296325,0.0013348095788551521,-0.07919844831701053,0.03491108708731748,0.026410989386685742,0.0,0.2364343215844502,0.3188494323812699,12.614590634224912,0.0,0.0,0.0,0.0,0.0,0.42715811837784845,0.0,0.0,0.11525441450601379,0.0,0.0,0.0,0.0,0.0,0.0
0.43000000000000027,-0.02038628291438707,0.03552141352832484,0.7539578838538998,-0.03475549407199483,0.0772061970043259,-0.6797798741431699,-0.019526759014386382,0.03364901341960813,0.34571331633910296,-0.038071138985314834,0.06696467489081283,-0.7701461380589143,-0.01827121558022093,0.006471336619111413,0.0014651111160297553,-0.09783484632843505,0.05644519296642855,0.02844611322339368,0.0,0.2364343215844502,0.3188494323812699,12.614590634224912,0.0,0.0,0.0,0.0,0.0,0.42773666049886183,0.0,0.0,0.11616091667485798,0.0,0.0,0.0,0.0,0.0,0.0
0.4350000000000003,-0.02055981726749605,0.03591636788772339,0.7504783855635259,-0.03355015331567265,0.0773721486482843,-0.6843484132962949,-0.019526759014386382,0.03364901341960813,0.34571331633910296,-0.038071138985314834,0.06696467489081283,-0.7701461380589143,-0.018757061612368415,0.0068177023798619025,0.0015950436925100315,-0.08936360474142363,0.07473361367500185,0.024187327410748093,0.0,0.2364343215844502,0.3188494323812699,12.614590634224912,0.0,0.0,0.0,0.0,0.0,0.42831971242087463,0.0,0.0,0.11705834459953526,0.0,0.0,0.0,0.0,0.0,0.0
0.4400000000000003,-0.02073635939948039,0.036309134559458035,0.7469743089156196,-0.035957236929864494,0.0762294239626844,-0.6894912748674612,-0.019526759014386382,0.03364901341960813,0.34571331633910296,-0.038071138985314834,0.06696467489081283,-0.7701461380589143,-0.01915175980663866,0.0071209638332577286,0.0016891077740105534,-0.0607172526660124,0.039903655404451455,0.015294440729362297,0.0,0.2364343215844502,0.3188494323812699,12.614590634224912,0.0,0.0,0.0,0.0,0.0,0.42890722891780586,0.0,0.0,0.11794675628285083,0.0,0.0,0.0,0.0,0.0,0.0
0.4450000000000003,-0.020913570562907064,0.03667373040257854,0.7436522685188125,-0.03718889746168396,0.07558319595897005,-0.6942905225151861,-0.019526759014386382,0.03364901341960813,0.34571331633910296,-0.038071138985314834,0.06696467489081283,-0.7701461380589143,-0.019398645931546027,0.007248658869019055,0.001745105568297299,-0.04215639173459631,0.022997065171598635,0.010460850931703267,0.0,0.2364343215844502,0.3188494323812699,12.614590634224912,0.0,0.0,0.0,0.0,0.0,0.4294991650527923,0.0,0.0,0.11882620940912263,0.0,0.0,0.0,0.0,0.0,0.0
0.4500000000000003,-0.021096353799087898,0.03705713425306403,0.7401006550703172,-0.03422592110106127,0.07538496106775329,-0.6983140758464857,-0.019526759014386382,0.03364901341960813,0.34571331633910296,-0.038071138985314834,0.06696467489081283,-0.7701461380589143,-0.019557852662813513,0.007465835562411685,0.0017929928048536984,-0.02956435928214165,0.0655466737556196,0.010588489527926714,0.0,0.2364343215844502,0.3188494323812699,12.614590634224912,0.0,0.0,0.0,0.0,0.0,0.4300954761765987,0.0,0.0,0.1196967613458,0.0,0.0,0.0,0.0,0.0,0.0
0.4550000000000003,-0.021267198668729056,0.03744801253289199,0.7365303982841727,-0.033712757746072325,0.07847940729682418,-0.7016229492243692,-0.021267198668729056,0.03744801253289199,0.305834280358134,-0.033712757746072325,0.07847940729682418,-0.8221814183694435,-0.019765063143768975,0.007851531064680313,0.001846852490975373,-0.06106091268056694,0.07268297824183322,0.013856604513714451,0.0,0.2364343215844502,0.3188494323812699,12.614590634224912,0.0,0.0,0.0,0.0,0.0,0.4306961179260387,0.0,0.0,0.12055846914507425,0.0,0.0,0.0,0.0,0.0,0.0
0.4600000000000003,-0.021430655141209076,0.03783495682438676,0.7331524251907711,-0.0341478804661751,0.08248731752198758,-0.7056235704447094,-0.021267198668729056,0.03744801253289199,0.305834280358134,-0.033712757746072325,0.07847940729682418,-0.8221814183694435,-0.020173301468903986,0.008183075470069462,0.001922366738305805,-0.10705216832478062,0.0689610675080474,0.020151549655231592,0.0,0.2985440577984897,0.3388433219381444,12.661995391162131,0.0,0.0,0.0,0.0,0.0,0.43130104622240206,0.0,0.0,0.12141138954548139,0.0,0.0,0.0,0.0,0.0,0.0
0.4650000000000003,-0.021605185776039298,0.03826272952393141,0.7295424060404362,-0.03384708946363768,0.08449534872739899,-0.7099346928906098,-0.021267198668729056,0.03744801253289199,0.305834280358134,-0.033712757746072325,0.07847940729682418,-0.8221814183694435,-0.02078985526675708,0.008539049637202588,0.002030605159556251,-0.12563091775880483,0.07628235109800509,0.023724112147068224,0.0,0.2985440577984897,0.3388433219381444,12.661995391162131,0.0,0.0,0.0,0.0,0.0,0.4319102172698901,0.0,0.0,0.12225557897349741,0.0,0.0,0.0,0.0,0.0,0.0
0.4700000000000003,-0.021776111381961956,0.0386928833894423,0.7259103497407693,-0.033809981035972964,0.08367225144082825,-0.7142015745850209,-0.021267198668729056,0.03744801253289199,0.305834280358134,-0.033712757746072325,0.07847940729682418,-0.8221814183694435,-0.021392794740402024,0.008959055028796716,0.002134050586710291,-0.10528554188067615,0.07874122859863146,0.019408074733130384,0.0,0.2985440577984897,0.3388433219381444,12.661995391162131,0.0,0.0,0.0,0.0,0.0,0.4325235875540602,0.0,0.0,0.12309109354512524,0.0,0.0,0.0,0.0,0.0,0.0
0.4750000000000003,-0.02193822531969354,0.03908939257764518,0.7224709930904354,-0.03427188787505987,0.08177376674175103,-0.7188489143986859,-0.021267198668729056,0.03744801253289199,0.305834280358134,-0.033712757746072325,0.07847940729682418,-0.8221814183694435,-0.021802034011914738,0.009343676297664099,0.0021999797412429575,-0.06960382728775823,0.07350308035607125,0.01176479738613622,0.0,0.2985440577984897,0.3388433219381444,12.661995391162131,0.0,0.0,0.0,0.0,0.0,0.4331411138402762,0.0,0.0,0.12391798906747456,0.0,0.0,0.0,0.0,0.0,0.0
0.4800000000000003,-0.022118258789807874,0.03950669076174008,0.718791211149008,-0.035948687105460383,0.08211866085137837,-0.7240788075803315,-0.021267198668729056,0.03744801253289199,0.305834280358134,-0.033712757746072325,0.07847940729682418,-0.8221814183694435,-0.02212841562301877,0.009643664059171842,0.0022318485831262754,-0.062887505864016,0.04936849501708914,0.004099852032850862,0.0,0.2985440577984897,0.3388433219381444,12.661995391162131,0.0,0.0,0.0,0.0,0.0,0.4337627531721694,0.0,0.0,0.12473632104033379,0.0,0.0,0.0,0.0,0.0,0.0
0.4850000000000003,-0.02230233243737474,0.0399212397618972,0.7150839119957189,-0.03551993260756723,0.08000710248099588,-0.7291749462439583,-0.021267198668729056,0.03744801253289199,0.305834280358134,-0.033712757746072325,0.07847940729682418,-0.8221814183694435,-0.022357257667510285,0.009884691541521606,0.0022342402041748456,-0.021813658964666235,0.05603362718881477,5.77737604062434e-05,0.0,0.2985440577984897,0.3388433219381444,12.661995391162131,0.0,0.0,0.0,0.0,0.0,0.43438846287010413,0.0,0.0,0.1255461446577342,0.0,0.0,0.0,0.0,0.0,0.0
0.4900000000000003,-0.022470164156701715,0.0403046088887912,0.7115737350964516,-0.03449595425093767,0.0804106589764404,-0.732945505535081,-0.021267198668729056,0.03744801253289199,0.305834280358134,-0.033712757746072325,0.07847940729682418,-0.8221814183694435,-0.022429181506542002,0.010197538762559454,0.002227522367761518,-0.018523913915211417,0.073522523426485,0.0008214143238814744,0.0,0.2985440577984897,0.3388433219381444,12.661995391162131,0.0,0.0,0.0,0.0,0.0,0.4350182005296541,0.0,0.0,0.12634751480950682,0.0,0.0,0.0,0.0,0.0,0.0
0.49500000000000033,-0.022644764586654154,0.04072061645266162,0.7078262317602612,-0.03439461335684983,0.08341452735545346,-0.7365027969379409,-0.021267198668729056,0.03744801253289199,0.305834280358134,-0.033712757746072325,0.07847940729682418,-0.8221814183694435,-0.02258187050878794,0.010596522379387916,0.0022361803724677922,-0.05226666706152886,0.07668765489045999,0.006525370887555266,0.0,0.2985440577984897,0.3388433219381444,12.661995391162131,0.0,0.0,0.0,0.0,0.0,0.4356519240200851,0.0,0.0,0.12714048608283146,0.0,0.0,0.0,0.0,0.0,0.0
0.5000000000000003,-0.022822524762163097,0.04115401869148008,0.7040607639171073,-0.03537292453117648,0.08592037572362675,-0.7400718478746175,-0.021267198668729056,0.03744801253289199,0.305834280358134,-0.033712757746072325,0.07847940729682418,-0.8221814183694435,-0.02293781475163204,0.010952445400284247,0.002276468864175775,-0.07911741477593741,0.06224255238442913,0.01155680626863604,0.0,0.2985440577984897,0.3388433219381444,12.661995391162131,0.0,0.0,0.0,0.0,0.0,0.4362895914828451,0.0,0.0,0.12792511276377846,0.0,0.0,0.0,0.0,0.0,0.0
0.5050000000000003,-0.022993094419161572,0.04157218013857836,0.7004992127061047,-0.03539881332252277,0.0877425134806836,-0.7437181189795489,-0.022993094419161572,0.04157218013857836,0.26356805137604167,-0.03539881332252277,0.0877425134806836,-0.8724195678183917,-0.02336947692989437,0.011242135758009548,0.0023288308342429625,-0.09364490806434153,0.06267781805957777,0.012353187588320153,0.0,0.2985440577984897,0.3388433219381444,12.661995391162131,0.0,0.0,0.0,0.0,0.0,0.43693116133006304,0.0,0.0,0.12870144883884282,0.0,0.0,0.0,0.0,0.0,0.0
0.5100000000000003,-0.02317217130786976,0.0420163499290241,0.6966964456438945,-0.03523009655778649,0.08624517827602907,-0.7475321119536915,-0.022993094419161572,0.04157218013857836,0.26356805137604167,-0.03539881332252277,0.0877425134806836,-0.8724195678183917,-0.02376140256429831,0.011583600096540225,0.0023773534266405354,-0.058942977540172185,0.06498595975236954,0.009169530045963306,0.0,0.28448620460264623,0.2976869970464637,12.789888918628165,0.0,0.0,0.0,0.0,0.0,0.43757659224305434,0.0,0.0,0.12946954799647076,0.0,0.0,0.0,0.0,0.0,0.0
0.5150000000000003,-0.02335633708409823,0.0424524161298724,0.692873654198389,-0.037196323279963174,0.08550250140369707,-0.7517579212139088,-0.022993094419161572,0.04157218013857836,0.26356805137604167,-0.03539881332252277,0.0877425134806836,-0.8724195678183917,-0.023973841286023354,0.011844804968358876,0.0023985491119247037,-0.03642106392690984,0.03475200594741168,0.0017487849282201533,0.0,0.28448620460264623,0.2976869970464637,12.789888918628165,0.0,0.0,0.0,0.0,0.0,0.4382258431708349,0.0,0.0,0.13022946362857926,0.0,0.0,0.0,0.0,0.0,0.0
0.5200000000000004,-0.023535705747380193,0.04286263230229954,0.6892537400586928,-0.037003646497799844,0.08534463731122949,-0.7562576495841712,-0.022993094419161572,0.04157218013857836,0.26356805137604167,-0.03539881332252277,0.0877425134806836,-0.8724195678183917,-0.024115506267876632,0.01199456345845562,0.002387769260216163,-0.021716187335242342,0.035879706108827326,-0.0037732788147560275,0.0,0.28448620460264623,0.2976869970464637,12.789888918628165,0.0,0.0,0.0,0.0,0.0,0.43887887332864206,0.0,0.0,0.13098124883206777,0.0,0.0,0.0,0.0,0.0,0.0
0.5250000000000004,-0.023721228698680732,0.04329748083616036,0.6853838654698506,-0.035517476833436284,0.08498806716395058,-0.7607386673607289,-0.022993094419161572,0.04157218013857836,0.26356805137604167,-0.03539881332252277,0.0877425134806836,-0.8724195678183917,-0.024174999970723778,0.012220401076320532,0.0023588473095464547,0.0006429882078382719,0.05702160307963724,-0.004434983164241207,0.0,0.28448620460264623,0.2976869970464637,12.789888918628165,0.0,0.0,0.0,0.0,0.0,0.4395356421964631,0.0,0.0,0.13172495641032286,0.0,0.0,0.0,0.0,0.0,0.0
0.5300000000000004,-0.023903796126792,0.043732253888106136,0.68149400958703,-0.03644196175149288,0.08599236815459788,-0.7643666187221605,-0.022993094419161572,0.04157218013857836,0.26356805137604167,-0.03539881332252277,0.0877425134806836,-0.8724195678183917,-0.024148242320862545,0.01249607922266057,0.0023400607420306853,0.0013550394069893686,0.04668097391564243,0.00010039132220086182,0.0,0.28448620460264623,0.2976869970464637,12.789888918628165,0.0,0.0,0.0,0.0,0.0,0.4401961095175717,0.0,0.0,0.13246063887471551,0.0,0.0,0.0,0.0,0.0,0.0
0.5350000000000004,-0.02408008121422437,0.0441511262757878,0.6778178235811302,-0.03692695641305882,0.08857285555276097,-0.7672824985933386,-0.022993094419161572,0.04157218013857836,0.26356805137604167,-0.03539881332252277,0.0877425134806836,-0.8724195678183917,-0.02420465519380589,0.012710881545536411,0.0023498767530455798,-0.026932320438212594,0.04375082762491146,0.005655414704923093,0.0,0.28448620460264623,0.2976869970464637,12.789888918628165,0.0,0.0,0.0,0.0,0.0,0.4408602352970713,0.0,0.0,0.13318834844609095,0.0,0.0,0.0,0.0,0.0,0.0
0.5400000000000004,-0.02426891179315623,0.04461054251270573,0.6738965291866046,-0.03700845056410848,0.09087125643224339,-0.7703505078692213,-0.022993094419161572,0.04157218013857836,0.26356805137604167,-0.03539881332252277,0.0877425134806836,-0.8724195678183917,-0.024433397569781103,0.012933625927076309,0.0023772274035621394,-0.05343742944572636,0.044926850383277074,0.005570688111359466,0.0,0.28448620460264623,0.2976869970464637,12.789888918628165,0.0,0.0,0.0,0.0,0.0,0.44152797980044656,0.0,0.0,0.13390813705625157,0.0,0.0,0.0,0.0,0.0,0.0
0.5450000000000004,-0.024458285233908042,0.04507450024168879,0.669959676459834,-0.03711886664002556,0.09083600055944208,-0.7733088405712459,-0.022993094419161572,0.04157218013857836,0.26356805137604167,-0.03539881332252277,0.0877425134806836,-0.8724195678183917,-0.02469139222182867,0.013157769957171153,0.0023810250783010386,-0.044277744345419846,0.04509509735981602,-0.002434880661377275,0.0,0.28448620460264623,0.2976869970464637,12.789888918628165,0.0,0.0,0.0,0.0,0.0,0.44219930355212145,0.0,0.0,0.13462005634943225,0.0,0.0,0.0,0.0,0.0,0.0
