time,pos_x,pos_y,pos_z,vel_x,vel_y,vel_z,pos_xo,pos_yo,pos_zo,vel_xo,vel_yo,vel_zo,roll,pitch,yaw,roll_vel,pitch_vel,yaw_vel,thrust_z,force_x,force_y,force_z,torque_x,torque_y,torque_z,pos_xd,pos_yd,pos_zd,vel_xd,vel_yd,vel_zd,roll_d,pitch_d,yaw_d,roll_vel_d,pitch_vel_d,yaw_vel_d,pos_xr,pos_yr,pos_zr,vel_xr,vel_yr,vel_zr
0.050002848000008274,-0.005134891252964735,-0.04723433032631874,0.18411433696746826,0.0,0.0,0.0,-0.005134891252964735,-0.04723433032631874,-0.21588566303408907,0.0,0.0,-1.0936295114477014e-06,0.07931976247962114,0.0005110102535326178,0.0007328204182144304,0.0001516650663688779,0.0012333621270954602,-0.005557458382099867,0.0,-0.12858918706353986,-0.33638757757728593,12.429555504245506,0.0,0.0,0.0,0.0,0.0,0.40000000000155733,0.0,0.0,1.0936295114477014e-06,0.0,0.0,0.0,0.0,0.0,0.0,0.0,0.0,0.4,0.0,0.0,0.0
0.10000284800000828,-0.0050932238809764385,-0.04724343121051788,0.18415245413780212,-0.00334733526120074,-0.003270664136304231,0.003870025952887141,-0.0050932238809764385,-0.04724343121051788,-0.21631498837008845,-0.00334733526120074,-0.003270664136304231,-0.014578139996567136,0.08139739931219836,0.0010160190902048782,0.0010031073164489257,0.003705842886120081,0.001419678330421448,0.0017398626077920196,0.0,2.3312857858353593,6.544547487828654,23.2848,0.0,0.0,0.0,0.0,0.0,0.40046744250789057,0.0,0.0,0.018448165949454278,0.0,0.0,0.0,0.0,0.0,0.0,0.0,0.0,0.4004673899689503,0.0,0.0,0.0184471572317246
0.1500028480000083,-0.005268198903650045,-0.047450218349695206,0.18457385897636414,-0.003937998511967784,-0.004084865512563536,0.0003318562324072035,-0.005268198903650045,-0.047450218349695206,-0.2172468495213764,-0.003937998511967784,-0.004084865512563536,-0.035116740252244205,0.06844277147663913,0.0032950186142568505,-0.001801018412401767,-0.0005430345190688968,-8.020130917430173e-05,-0.020410383120179176,0.0,2.468696559009578,-0.657870828595204,23.2848,0.0,0.0,0.0,0.0,0.0,0.40182070849774054,0.0,0.0,0.03544859648465141,0.0,0.0,0.0,0.0,0.0,0.0,0.0,0.0,0.40182060754146,0.0,0.0,0.0354476677012468
0.20000284800000828,-0.005218896549195051,-0.04601968824863434,0.18967905640602112,0.0015795589236001085,0.011279391202862456,0.033165415306671726,-0.005218896549195051,-0.04601968824863434,-0.21431055561595058,0.0015795589236001085,0.011279391202862456,-0.017922055414984192,0.07854633304977199,0.0022437113678064335,0.003137138189023503,-0.13429223001003265,-0.024962609633803364,0.0401589535176754,0.0,-6.026982654899912,3.3928643602510746,21.533505475207377,0.0,0.0,0.0,0.0,0.0,0.4039896120219717,0.0,0.0,0.05108747072165592,0.0,0.0,0.0,0.0,0.0,0.0,0.0,0.0,0.4039894665260701,0.0,0.0,0.0510866171549083
0.25000284800000827,-0.008479632437229156,-0.04055771976709366,0.213711217045784,-0.13609891390786658,0.19225161065176596,0.5381978440034807,-0.008479632437229156,-0.04055771976709366,-0.19319689222119152,-0.13609891390786658,0.19225161065176596,0.4727524181901852,0.04325481697891487,-0.03382383793922905,0.009755908322640394,-0.7584295868873596,-1.142702341079712,0.07871259748935713,0.0,-6.8312847665342975,3.8454309593812317,23.2848,0.0,0.0,0.0,0.0,0.0,0.4069081092669755,0.0,0.0,0.06544542581329549,0.0,0.0,0.0,0.0,0.0,0.0,0.0,0.0,0.4069079228795169,0.0,0.0,0.065444642992605
0.30000284800000826,-0.014597871340811253,-0.03114580549299717,0.2617223858833313,-0.14696350984206763,0.21009219993365555,0.9159488882667293,-0.014597871340811253,-0.03114580549299717,-0.14879169574908024,-0.14696350984206763,0.21009219993365555,0.8373500196609562,-0.008085035474743485,-0.08377567682027465,0.0032217510453964593,-0.7393600940704346,-1.2170900106430054,0.03578858077526107,0.0,-4.504044283941896,1.9960620355219918,19.006201547154724,0.0,0.0,0.0,0.0,0.0,0.41051408163241154,0.0,0.0,0.07859886860577306,0.0,0.0,0.0,0.0,0.0,0.0,0.0,0.0,0.4105138577838531,0.0,0.0,0.0785981522954863
0.35000284800000825,-0.021626517176628113,-0.020458076149225235,0.3285330533981323,-0.09501717339570565,0.20374843820528707,1.3764235839338688,-0.021626517176628113,-0.020458076149225235,-0.08621607605370396,-0.09501717339570565,0.20374843820528707,1.28580340052686,-0.024567628123111973,-0.12537036215323116,0.007061828389304026,0.3170926868915558,-0.06838105618953705,-0.03013527020812034,0.0,3.264736223322233,-2.480424528596526,15.242548823460456,0.0,0.0,0.0,0.0,0.0,0.4147491294518363,0.0,0.0,0.09062018340700874,0.0,0.0,0.0,0.0,0.0,0.0,0.0,0.0,0.4147488713664842,0.0,0.0,0.090619529594867
0.40000284800000824,-0.021485155448317528,-0.014088922180235386,0.4031338393688202,0.01288893092374737,0.16837027664828136,1.418417610462645,-0.021485155448317528,-0.014088922180235386,-0.016424536486280616,0.01288893092374737,0.16837027664828136,1.3168396804971283,0.026075056194264423,-0.08447293706323133,0.010318787387681105,1.524714469909668,1.4674522876739502,-0.1374324113130571,0.0,2.104921538170614,-4.662282016404364,9.156409786743136,0.0,0.0,0.0,0.0,0.0,0.4195583758551008,0.0,0.0,0.10157792996551669,0.0,0.0,0.0,0.0,0.0,0.0,0.0,0.0,0.4195580865620028,0.0,0.0,0.1015773348516495
0.4500028480000082,-0.017378080636262894,-0.015263553708791733,0.4732374846935272,-0.07671047067971891,0.17474537067082518,1.2494411177056028,-0.017378080636262894,-0.015263553708791733,0.048347204399191046,-0.07671047067971891,0.17474537067082518,1.137904085597522,0.1549090893547147,-0.003311502645140685,0.009060315168333943,2.8135244846343994,1.3824632167816162,-0.10111632198095338,0.0,-1.3425517336553265,-4.798186452976128,0.3328906863008978,0.0,0.0,0.0,0.0,0.0,0.4248902802943362,0.0,0.0,0.11153703210808076,0.0,0.0,0.0,0.0,0.0,0.0,0.0,0.0,0.4248899626376369,0.0,0.0,0.1115364920945189
0.5000028480000083,-0.019115952774882317,-0.01905331015586853,0.5205445289611816,-0.2887912457152873,0.27216200243329847,0.9639896091664478,-0.019115952774882317,-0.01905331015586853,0.08984806768392639,-0.2887912457152873,0.27216200243329847,0.843430651702058,0.27288566600410347,0.022499659519382043,0.008824077016763354,2.8310534954071045,0.20989567041397095,-0.02525226585567,0.0,3.962285234554175,-4.661504455186987,1.944656439916045,0.0,0.0,0.0,0.0,0.0,0.43069646127725525,0.0,0.0,0.12055895746438981,0.0,0.0,0.0,0.0,0.0,0.0,0.0,0.0,0.4306961179260387,0.0,0.0,0.1205584691450742
0.5500028480000083,-0.019183041527867317,-0.02686636708676815,0.5605579018592834,-0.19836839336611123,0.2379439878802974,0.47856099384115636,-0.019183041527867317,-0.02686636708676815,0.12362637398686671,-0.19836839336611123,0.2379439878802974,0.349859105153577,0.4383096798741799,0.0928483840418779,-0.030965127798314285,2.6825599670410156,1.2942172288894653,-0.20027592778205888,0.0,-0.4652121062056573,-0.09726169016643682,6.961875823156699,0.0,0.0,0.0,0.0,0.0,0.43693152787241674,0.0,0.0,0.1287018886875794,0.0,0.0,0.0,0.0,0.0,0.0,0.0,0.0,0.436931161330063,0.0,0.0,0.1287014488388428
0.6000028480000084,-0.019700786098837852,-0.029813669621944427,0.5789420008659363,-0.24767726379490745,0.2770714696280769,0.255959021659034,-0.019700786098837852,-0.029813669621944427,0.13538908129484595,-0.24767726379490745,0.2770714696280769,0.11993813509777512,0.5158500398116197,0.14098383502703227,-0.04404235006065482,0.9397593140602112,0.11800647526979446,0.03274621814489363,0.0,-4.115168934515463,-1.5768168404178413,7.585431693826177,0.0,0.0,0.0,0.0,0.0,0.44355291957109033,0.0,0.0,0.13602088656125888,0.0,0.0,0.0,0.0,0.0,0.0,0.0,0.0,0.4435525321841659,0.0,0.0,0.1360204921327595
0.6500028480000084,-0.029234753921628,-0.02963058091700077,0.5901510715484619,-0.423303672550209,0.2502556158086412,0.15011815298008666,-0.029234753921628,-0.02963058091700077,0.13963031743902166,-0.423303672550209,0.2502556158086412,0.007550107614037016,0.5111382352879223,0.13230782939686225,-0.03004342874426902,-1.4780077934265137,-2.049900770187378,0.13730247318744684,0.0,-3.7525226999202026,1.7166717724984593,11.295387735221176,0.0,0.0,0.0,0.0,0.0,0.45052075410944026,0.0,0.0,0.14256804536604964,0.0,0.0,0.0,0.0,0.0,0.0,0.0,0.0,0.450520348076147,0.0,0.0,0.1425676934721349
0.7000028480000084,-0.043858084827661514,-0.022886717692017555,0.5952568650245667,-0.3972323353864459,0.2171725249413483,0.11747025119233662,-0.043858084827661514,-0.022886717692017555,0.1374591821515858,-0.3972323353864459,0.2171725249413483,-0.030922389669542638,0.3909401515910349,-0.05372867895362177,-0.007449783751761974,-2.5552382469177246,-1.6306980848312378,-0.03638637810945491,0.0,1.3875170038623488,-0.664122782326837,13.916351125895051,0.0,0.0,0.0,0.0,0.0,0.45779768287298084,0.0,0.0,0.14839264086187925,0.0,0.0,0.0,0.0,0.0,0.0,0.0,0.0,0.4577972602511827,0.0,0.0,0.1483923287733606
0.7500028480000085,-0.04713648185133934,-0.02374040149152279,0.5949019193649292,-0.2011924057086185,-0.024070153603067853,0.016725086621513112,-0.04713648185133934,-0.02374040149152279,0.1295531658422696,-0.2011924057086185,-0.024070153603067853,-0.1368161846047292,0.2875088588529193,-0.06098192856347673,-0.015624858686558607,-2.114990472793579,0.014959051273763185,0.04674601927399635,0.0,2.414550224577092,-1.268587547094151,13.341495055893441,0.0,0.0,0.0,0.0,0.0,0.4653487535226596,0.0,0.0,0.1535412712262423,0.0,0.0,0.0,0.0,0.0,0.0,0.0,0.0,0.4653483162375093,0.0,0.0,0.1535409963625615
0.8000028480000085,-0.04274154081940651,-0.03342564404010773,0.5895102620124817,-0.10969738561724905,-0.12776052649064837,-0.04400969155628025,-0.04274154081940651,-0.03342564404010773,0.11636898251392847,-0.10969738561724905,-0.12776052649064837,-0.20206768282959026,0.21921576827678013,-0.006247703316987874,-0.021690143166524845,-1.1120294332504272,1.3330305814743042,0.042050145566463304,0.0,2.4552319730839223,-1.172432897692518,14.577781882774618,0.0,0.0,0.0,0.0,0.0,0.4731412794985532,0.0,0.0,0.15805799127331,0.0,0.0,0.0,0.0,0.0,0.0,0.0,0.0,0.4731408293497346,0.0,0.0,0.1580577511950796
0.8500028480000086,-0.03892763704061508,-0.042100489139556885,0.5858340263366699,-0.08428144235086214,-0.2230536776742776,-0.052568659328469124,-0.03892763704061508,-0.042100489139556885,0.10468931026363804,-0.08428144235086214,-0.2230536776742776,-0.21455309959259344,0.1947235009161954,0.02055726419863735,-0.024794716392126492,-1.030092477798462,0.9400113821029663,0.13275492191314686,0.0,0.32094898583557396,1.3611131968283186,15.40058337736239,0.0,0.0,0.0,0.0,0.0,0.4811447160730319,0.0,0.0,0.1619844402641243,0.0,0.0,0.0,0.0,0.0,0.0,0.0,0.0,0.4811442547416404,0.0,0.0,0.1619842326660245
0.9000028480000086,-0.0325850173830986,-0.062362369149923325,0.5777790546417236,-0.10346777834246004,-0.2170424630967998,-0.014596800945802126,-0.0325850173830986,-0.062362369149923325,0.08844851200131265,-0.10346777834246004,-0.2170424630967998,-0.17995676454991547,0.1282753869752593,0.0853919866174051,-0.014750420245215334,-1.1257070302963257,0.12573283910751346,0.12326040863990782,0.0,-1.5113074895484855,0.6074678761408433,15.687463812287078,0.0,0.0,0.0,0.0,0.0,0.489330542640411,0.0,0.0,0.16535996360411334,0.0,0.0,0.0,0.0,0.0,0.0,0.0,0.0,0.4893300716954858,0.0,0.0,0.1653597863081285
0.9500028480000087,-0.030350862070918083,-0.08241788297891617,0.5750693678855896,-0.08555557828156744,-0.25807857212458896,0.06340907078258834,-0.030350862070918083,-0.08241788297891617,0.07739721694100776,-0.08555557828156744,-0.25807857212458896,-0.10481265792819819,0.0796146665183235,0.07354433718375475,-0.0054492660552205585,-0.6949198842048645,-0.3576091229915619,0.0897375345230103,0.0,0.7703954239153334,1.0578143622597227,15.765567440714745,0.0,0.0,0.0,0.0,0.0,0.49767215094458184,0.0,0.0,0.16822172871078653,0.0,0.0,0.0,0.0,0.0,0.0,0.0,0.0,0.4976716718493094,0.0,0.0,0.1682215796597662
1.0000028480000087,-0.02498205006122589,-0.10125955194234848,0.5751386880874634,-0.028633488835519406,-0.2734944641587933,0.08388618002306222,-0.02498205006122589,-0.10125955194234848,0.06899394912752976,-0.028633488835519406,-0.2734944641587933,-0.08671865529862335,0.05353592990766476,0.06110283390527371,0.0032692355772478976,-0.5613108277320862,-0.10123735666275023,0.08715569227933885,0.0,0.6063058733844897,1.3949550827772708,15.078719398466646,0.0,0.0,0.0,0.0,0.0,0.5061447389599336,0.0,0.0,0.17060483532168558,0.0,0.0,0.0,0.0,0.0,0.0,0.0,0.0,0.506144253077536,0.0,0.0,0.1706047125732149
1.0500028480000088,-0.016468245536088943,-0.11951921135187149,0.5768159627914429,0.041266062815859594,-0.2721635944178842,0.1037183160176752,-0.016468245536088943,-0.11951921135187149,0.062090752637367075,0.041266062815859594,-0.2721635944178842,-0.06882410448277318,0.03136503745510133,0.059594643216877685,0.00815750584044661,-0.36131006479263306,-0.17731688916683197,0.05691831558942797,0.0,-1.0386990256386126,0.7906928272609803,14.69189366897493,0.0,0.0,0.0,0.0,0.0,0.5147252101540758,0.0,0.0,0.17254242050044838,0.0,0.0,0.0,0.0,0.0,0.0,0.0,0.0,0.5147247187534008,0.0,0.0,0.1725423222210131
1.1000028480000088,-0.009078418835997581,-0.134848952293396,0.5789088606834412,0.050230879209332654,-0.2747044440782852,0.11677774263732676,-0.009078418835997581,-0.134848952293396,0.055516782809970744,0.050230879209332654,-0.2747044440782852,-0.05728801594984542,0.015980556439582294,0.04262877975762969,0.011492087537927631,-0.1987069994211197,-0.4170081615447998,0.06276651471853262,0.0,-0.4392373952139953,1.3995972622944928,15.05637494514668,0.0,0.0,0.0,0.0,0.0,0.5233920778734704,0.0,0.0,0.1740657585871722,0.0,0.0,0.0,0.0,0.0,0.0,0.0,0.0,0.523391582134296,0.0,0.0,0.1740656830466049
1.1500028480000088,0.0025709497276693583,-0.15351329743862152,0.5827574729919434,0.11866045400626889,-0.2347184538793347,0.11563242908981763,0.0025709497276693583,-0.15351329743862152,0.050632098386836244,0.11866045400626889,-0.2347184538793347,-0.05957192723828761,0.006673955066391901,0.026528171539312417,0.012312815765522345,-0.18970096111297607,-0.2849465608596802,0.04029948264360431,0.0,-0.27449394016499296,1.7531514579212897,14.978489670665486,0.0,0.0,0.0,0.0,0.0,0.5321253746051071,0.0,0.0,0.17520435632810524,0.0,0.0,0.0,0.0,0.0,0.0,0.0,0.0,0.532124875623176,0.0,0.0,0.1752043018942999
1.200002848000009,0.013115937821567059,-0.16495931148529053,0.585964024066925,0.16169706987500945,-0.21278369658789328,0.12197016914170679,0.013115937821567059,-0.16495931148529053,0.04505745818808182,0.16169706987500945,-0.21278369658789328,-0.054015874267332634,-0.004038202357582676,0.015386694952004731,0.015729557467870414,-0.2784430682659149,-0.21252542734146118,0.01012767385691407,0.0,-0.9628574878161272,1.4668059414903503,14.819399020618695,0.0,0.0,0.0,0.0,0.0,0.5409065658788432,0.0,0.0,0.17598604340903942,0.0,0.0,0.0,0.0,0.0,0.0,0.0,0.0,0.5409060646706392,0.0,0.0,0.1759860085429214
1.250002848000009,0.02772197499871254,-0.17763666808605194,0.5908824801445007,0.18651130811269373,-0.17696115517884592,0.13551106508533894,0.02772197499871254,-0.17763666808605194,0.04116401155851179,0.18651130811269373,-0.17696115517884592,-0.04092599352125312,-0.017115050786584263,0.0001797163894474707,0.01941653003090238,-0.16898448765277863,-0.29141271114349365,0.01614048890769485,0.0,-1.04910115788813,1.451536571651641,14.875112980752233,0.0,0.0,0.0,0.0,0.0,0.5497184685859889,0.0,0.0,0.17643705860659206,0.0,0.0,0.0,0.0,0.0,0.0,0.0,0.0,0.5497179660932676,0.0,0.0,0.1764370418573316
1.300002848000009,0.03883747383952141,-0.18544217944145203,0.5951864719390869,0.21538269993159292,-0.15615024474915035,0.14375787823618974,0.03883747383952141,-0.18544217944145203,0.036641298438904846,0.21538269993159292,-0.15615024474915035,-0.032824253525644276,-0.02123471951574274,-0.010188167049551389,0.017704475522631213,-0.03846796974539757,-0.27906233072280884,0.00971398781985048,0.0,-1.071371884078065,1.5243887777014633,14.876206964444489,0.0,0.0,0.0,0.0,0.0,0.5585451735001821,0.0,0.0,0.17658213176183402,0.0,0.0,0.0,0.0,0.0,0.0,0.0,0.0,0.5585446705942685,0.0,0.0,0.1765821317622923
1.350002848000009,0.05454830825328827,-0.19323985278606415,0.6013084650039673,0.24174065916273688,-0.1079800672029603,0.14726783981864744,0.05454830825328827,-0.19323985278606415,0.03393649320737868,0.24174065916273688,-0.1079800672029603,-0.029176721952778817,-0.03787842393895069,-0.015207232712676433,0.013800291127285647,-0.010668966919183731,-0.26002830266952515,-0.020409081131219833,0.0,-1.3518580956887583,1.4616625791154707,14.808122935224224,0.0,0.0,0.0,0.0,0.0,0.5673719717965886,0.0,0.0,0.17644456177142626,0.0,0.0,0.0,0.0,0.0,0.0,0.0,0.0,0.5673714692824521,0.0,0.0,0.1764445772338231
1.400002848000009,0.06833983957767487,-0.1964396834373474,0.6065383553504944,0.25538211195246896,-0.08414455654428447,0.15000640698390746,0.06833983957767487,-0.1964396834373474,0.03035306997549836,0.25538211195246896,-0.08414455654428447,-0.026039883798636976,-0.04246766912532873,-0.027047516336518918,0.01265916387439514,-0.004675060976296663,-0.19494035840034485,0.007119518239051128,0.0,-1.5052269213016511,1.355526428304576,14.806196396011211,0.0,0.0,0.0,0.0,0.0,0.576185285374996,0.0,0.0,0.17604629078254444,0.0,0.0,0.0,0.0,0.0,0.0,0.0,0.0,0.5761847839951146,0.0,0.0,0.1760463204943365
1.4500028480000091,0.08099764585494995,-0.1977163702249527,0.6126258969306946,0.2608590844752804,-0.028663811452635087,0.15578526623553113,0.08099764585494995,-0.1977163702249527,0.02765329612922618,0.2608590844752804,-0.028663811452635087,-0.019622708533854144,-0.03700656222565968,-0.05306327719074311,0.009517910343762814,0.05758493021130562,-0.2056761533021927,-0.021483376622199988,0.0,-1.575126631799956,1.3493404861945493,14.820621103244484,0.0,0.0,0.0,0.0,0.0,0.5849726008014684,0.0,0.0,0.17540797476938527,0.0,0.0,0.0,0.0,0.0,0.0,0.0,0.0,0.5849721012394924,0.0,0.0,0.1754080175893461
1.5000028480000092,0.0936109647154808,-0.1959189921617508,0.6186780333518982,0.26327728814169926,0.009690973135748435,0.15290811780696975,0.0936109647154808,-0.1959189921617508,0.024955626659978636,0.26327728814169926,0.009690973135748435,-0.021640932853973643,-0.03497487627492468,-0.04930202643228121,0.014867337432454164,0.028288492932915688,-0.18348945677280426,0.01385010499507191,0.0,-1.7177807052429983,1.1496325897074193,14.761015492974007,0.0,0.0,0.0,0.0,0.0,0.5937224066919196,0.0,0.0,0.1745490506609434,0.0,0.0,0.0,0.0,0.0,0.0,0.0,0.0,0.5937219095761419,0.0,0.0,0.1745491055154348
1.5500028480000092,0.10317080467939377,-0.19277070462703705,0.6242656111717224,0.25153833004202425,0.051789109376883614,0.16331011750800872,0.10317080467939377,-0.19277070462703705,0.021841476802478832,0.25153833004202425,0.051789109376883614,-0.010177682673993577,-0.02972314811703214,-0.05812075152328866,0.015798448783673535,0.09392236918210983,-0.24612000584602356,0.029035402461886437,0.0,-1.8051947580865366,1.0091517422209586,14.775456944950987,0.0,0.0,0.0,0.0,0.0,0.6024241343692436,0.0,0.0,0.1734878001820023,0.0,0.0,0.0,0.0,0.0,0.0,0.0,0.0,0.6024236402758913,0.0,0.0,0.1734878660614286
1.6000028480000092,0.11211609840393066,-0.18809103965759277,0.6301786303520203,0.2569819561258643,0.08014088600048307,0.17519585334451981,0.11211609840393066,-0.18809103965759277,0.01911052871845731,0.2569819561258643,0.08014088600048307,0.0029544427826329878,-0.020137695788465138,-0.06829213494495967,0.01974614338397096,0.15167619287967682,-0.13028360903263092,0.018155714496970194,0.0,-1.8382277682406634,0.8551853262396658,14.720719502739538,0.0,0.0,0.0,0.0,0.0,0.611068101633563,0.0,0.0,0.17224141056188683,0.0,0.0,0.0,0.0,0.0,0.0,0.0,0.0,0.611067611089914,0.0,0.0,0.1722414865173232
1.6500028480000093,0.12405268847942352,-0.17818178236484528,0.6392366886138916,0.2530507983204959,0.13175291138331582,0.1741276828663122,0.12405268847942352,-0.17818178236484528,0.019591229121198372,0.2530507983204959,0.13175291138331582,0.003301650607856338,-0.013288362035086543,-0.07426841314649746,0.01810161711097802,0.16367337107658386,-0.1271706074476242,-0.026365272700786577,0.0,-1.9523727612998822,0.7327767443564958,14.658240462442086,0.0,0.0,0.0,0.0,0.0,0.6196454594926932,0.0,0.0,0.17082603225845586,0.0,0.0,0.0,0.0,0.0,0.0,0.0,0.0,0.6196449729800284,0.0,0.0,0.1708261173984428
1.7000028480000093,0.1316746026277542,-0.16818158328533173,0.646303653717041,0.2398416028454836,0.15876852821302676,0.1775319077070213,0.1316746026277542,-0.16818158328533173,0.018155512009907282,0.2398416028454836,0.15876852821302676,0.008275073868953792,-0.0009824830093823067,-0.08112702080154666,0.019823034167790077,0.17783653736114502,-0.08780858665704727,-0.03345542401075362,0.0,-2.028696415802635,0.49042761495106063,14.644339890166673,0.0,0.0,0.0,0.0,0.0,0.6281481417071337,0.0,0.0,0.1692568338380675,0.0,0.0,0.0,0.0,0.0,0.0,0.0,0.0,0.628147659663534,0.0,0.0,0.1692569273255632
1.7500028480000094,0.13775159418582916,-0.15682204067707062,0.6532144546508789,0.2041959841635739,0.19678743812471164,0.17389875770036722,0.13775159418582916,-0.15682204067707062,0.01664563764011029,0.2041959841635739,0.19678743812471164,0.006350703554568932,0.005019765675981169,-0.08600216901751345,0.023581591119189227,0.24262605607509613,-0.13147471845149994,-0.0038719712756573993,0.0,-2.060826844971312,0.33761296157957404,14.62276912029503,0.0,0.0,0.0,0.0,0.0,0.6365688170107686,0.0,0.0,0.1675480541457983,0.0,0.0,0.0,0.0,0.0,0.0,0.0,0.0,0.6365683398337625,0.0,0.0,0.1675481551952818
1.8000028480000094,0.14195911586284637,-0.1444728821516037,0.6604310274124146,0.18711854583610185,0.21838223749455546,0.1757889265297253,0.14195911586284637,-0.1444728821516037,0.015530183537400877,0.18711854583610185,0.21838223749455546,0.010075874635682797,0.01785149309342371,-0.09012072706658891,0.024172942970793088,0.2787148654460907,-0.11050927639007568,-0.006243491079658256,0.0,-2.024455240337905,0.12043352093667964,14.623519190071097,0.0,0.0,0.0,0.0,0.0,0.6449008438750137,0.0,0.0,0.1657130518940425,0.0,0.0,0.0,0.0,0.0,0.0,0.0,0.0,0.6449003719240842,0.0,0.0,0.1657131597687601
1.8500028480000095,0.14494672417640686,-0.13112398982048035,0.6674380302429199,0.16263247231219993,0.23955275911688287,0.17639636245314147,0.14494672417640686,-0.13112398982048035,0.014299802552505514,0.16263247231219993,0.23955275911688287,0.012632009661407179,0.03260264286822334,-0.09220946121082152,0.027791455426397604,0.23786108195781708,0.008179603144526483,0.015216300264000891,0.0,-2.0366925080087133,-0.03708057973456938,14.613544965864005,0.0,0.0,0.0,0.0,0.0,0.6531382276904144,0.0,0.0,0.1637643527917343,0.0,0.0,0.0,0.0,0.0,0.0,0.0,0.0,0.6531377612893712,0.0,0.0,0.1637644668010832
1.9000028480000095,0.14639465510845184,-0.11670690029859543,0.6744074821472168,0.1435836542618016,0.25792673228022417,0.17615238822292714,0.14639465510845184,-0.11670690029859543,0.013131901901556997,0.1435836542618016,0.25792673228022417,0.014438693892107446,0.04304836794956701,-0.08786838641813732,0.02825842110974186,0.22076015174388885,0.04660321772098541,0.012427627108991141,0.0,-2.015717430117196,-0.2022684882126223,14.611612311373396,0.0,0.0,0.0,0.0,0.0,0.6612755802456598,0.0,0.0,0.1617136943308197,0.0,0.0,0.0,0.0,0.0,0.0,0.0,0.0,0.6612751196848838,0.0,0.0,0.1617138138278613
1.9500028480000096,0.14632895588874817,-0.10401321202516556,0.6798189878463745,0.10461232424699778,0.28357535611973705,0.1714593292175163,0.14632895588874817,-0.10401321202516556,0.010510906456693947,0.10461232424699778,0.28357535611973705,0.011887260876277173,0.05032575079585344,-0.08264452388784482,0.02505937594015073,0.18329405784606934,0.029673349112272263,0.0016138012288138234,0.0,-1.9978983479392909,-0.36980384579086517,14.603231083519287,0.0,0.0,0.0,0.0,0.0,0.6693080813896806,0.0,0.0,0.15957206834123913,0.0,0.0,0.0,0.0,0.0,0.0,0.0,0.0,0.6693076269282483,0.0,0.0,0.1595721927203367
2.0000028480000096,0.14427277445793152,-0.0868874341249466,0.6872121095657349,0.08584414820026243,0.2937134568063902,0.17258163679763475,0.14427277445793152,-0.0868874341249466,0.009980666797804183,0.08584414820026243,0.2937134568063902,0.015231875377075571,0.060494069124133354,-0.08795609736569032,0.024964884620630734,0.1949729174375534,0.038589734584093094,0.005690453108400102,0.0,-1.9210981153574886,-0.5629824159892034,14.61336526376742,0.0,0.0,0.0,0.0,0.0,0.6772314427679307,0.0,0.0,0.15734976142055918,0.0,0.0,0.0,0.0,0.0,0.0,0.0,0.0,0.6772309946356223,0.0,0.0,0.1573498901151335
2.0500028480000094,0.14185740053653717,-0.07647786289453506,0.6920469403266907,0.0456691097225481,0.2938301330474075,0.18142252719799398,0.14185740053653717,-0.07647786289453506,0.007005066797554749,0.0456691097225481,0.2938301330474075,0.026366133858495372,0.0826431460965864,-0.08250255455542455,0.030381848632970332,0.2065686136484146,0.05612598732113838,-0.02126061730086804,0.0,-1.8873947688129165,-0.7155447929745986,14.60364974709685,0.0,0.0,0.0,0.0,0.0,0.6850418735291359,0.0,0.0,0.1550563933394986,0.0,0.0,0.0,0.0,0.0,0.0,0.0,0.0,0.6850414319283344,0.0,0.0,0.1550565258198963
2.1000028480000092,0.1351989507675171,-0.05755665898323059,0.7004817724227905,0.02575345078834265,0.29540751982327373,0.17831044425330977,0.1351989507675171,-0.05755665898323059,0.007745724519052866,0.02575345078834265,0.29540751982327373,0.025609490733387336,0.09890520295271799,-0.08762006481551898,0.03555195184033799,0.18647630512714386,0.07403232157230377,-0.01870422251522542,0.0,-1.7913890314729983,-0.8049524073636103,14.56198575532989,0.0,0.0,0.0,0.0,0.0,0.6927360479037377,0.0,0.0,0.15270095351992244,0.0,0.0,0.0,0.0,0.0,0.0,0.0,0.0,0.6927356130112239,0.0,0.0,0.1527010892913911
2.150002848000009,0.12917397916316986,-0.04349958524107933,0.706556499004364,-0.020393238356557396,0.28637733617355254,0.17274884240671895,0.12917397916316986,-0.04349958524107933,0.006245424444388359,-0.020393238356557396,0.28637733617355254,0.022457006729303536,0.10306785422812093,-0.08559799736877549,0.03409412141635748,0.1647331267595291,0.07390056550502777,-0.022905128076672564,0.0,-1.7349214757702838,-0.9462301162930997,14.573206313864482,0.0,0.0,0.0,0.0,0.0,0.7003110745599757,0.0,0.0,0.15029183567741541,0.0,0.0,0.0,0.0,0.0,0.0,0.0,0.0,0.7003106465286254,0.0,0.0,0.1502919742781813
2.200002848000009,0.1226549744606018,-0.032046400010585785,0.7115523219108582,-0.039616410591907604,0.275571412270654,0.1744553980247014,0.1226549744606018,-0.032046400010585785,0.003787854262805146,-0.039616410591907604,0.275571412270654,0.026618527308413492,0.10758400339029794,-0.0839396550156799,0.03230103717236865,0.16107453405857086,0.09900388866662979,-0.00495331082493068,0.0,-1.586864713781976,-1.0286897000416937,14.605964297076891,0.0,0.0,0.0,0.0,0.0,0.707764467648053,0.0,0.0,0.1478368707162879,0.0,0.0,0.0,0.0,0.0,0.0,0.0,0.0,0.7077640466084396,0.0,0.0,0.14783701171573
2.2500028480000087,0.1133231669664383,-0.017794789746403694,0.7179610133171082,-0.07045267038518373,0.26524454789274127,0.1644033007417481,0.1133231669664383,-0.017794789746403694,0.0028668938699913937,-0.07045267038518373,0.26524454789274127,0.019059942780950967,0.1261353718082634,-0.07781467353911875,0.0350503525733723,0.11891409754753113,0.12283679097890854,-0.018358184024691596,0.0,-1.5231287275163286,-1.0832265784784387,14.608538858786124,0.0,0.0,0.0,0.0,0.0,0.7150941194471168,0.0,0.0,0.14534335796079714,0.0,0.0,0.0,0.0,0.0,0.0,0.0,0.0,0.7150937055090247,0.0,0.0,0.1453435009577143
2.3000028480000085,0.10420911014080048,-0.006285331677645445,0.7235128879547119,-0.08971659868960007,0.24874639023780154,0.16460241681701157,0.10420911014080048,-0.006285331677645445,0.0012146134208360637,-0.08971659868960007,0.24874639023780154,0.02178432201452543,0.12405545602384427,-0.06811805775413982,0.032689856540470075,0.09171005338430405,0.1553494930267334,-0.02157301455736162,0.0,-1.3997646980757672,-1.157154048358386,14.666332534896899,0.0,0.0,0.0,0.0,0.0,0.7222982745338759,0.0,0.0,0.14281809480248614,0.0,0.0,0.0,0.0,0.0,0.0,0.0,0.0,0.722297867787731,0.0,0.0,0.1428182394234521
2.3500028480000084,0.09448439627885818,0.0038391260895878077,0.7288439869880676,-0.11424304254907895,0.2274802642817238,0.16895446684633575,0.09448439627885818,0.0038391260895878077,-0.0005315184075174173,-0.11424304254907895,0.2274802642817238,0.028687062006503727,0.13543643931864802,-0.061098851435005486,0.03045495958880018,0.11028473824262619,0.14629043638706207,-0.019975293427705782,0.0,-1.315346052200753,-1.1892998743649303,14.678636443794673,0.0,0.0,0.0,0.0,0.0,0.729375505395585,0.0,0.0,0.14026740483983202,0.0,0.0,0.0,0.0,0.0,0.0,0.0,0.0,0.7293751059138034,0.0,0.0,0.1402675507376337
2.400002848000008,0.08694816380739212,0.010392269119620323,0.7328930497169495,-0.13061541613992497,0.20861461369122655,0.17025988512944312,0.08694816380739212,0.010392269119620323,-0.0034316396968901985,-0.13061541613992497,0.20861461369122655,0.03256272054658618,0.13490905575289647,-0.05365015100350323,0.028656467928787954,0.08165056258440018,0.1500641256570816,-0.04741196334362032,0.0,-1.2108878678410206,-1.1970986772631491,14.670992857452033,0.0,0.0,0.0,0.0,0.0,0.7363246894138397,0.0,0.0,0.13769716458285694,0.0,0.0,0.0,0.0,0.0,0.0,0.0,0.0,0.7363242972521009,0.0,0.0,0.1376973114350135
2.450002848000008,0.07303228229284286,0.020642325282096863,0.740043044090271,-0.14870741576869476,0.17409297884240865,0.1769401455120246,0.07303228229284286,0.020642325282096863,-0.0031019430589032115,-0.14870741576869476,0.17409297884240865,0.04182731672004891,0.13363929011598952,-0.043597592686515085,0.025911286882552176,0.05452926456928253,0.15595534443855286,-0.019113345071673414,0.0,-1.131950830486378,-1.1924667104505313,14.680360180645481,0.0,0.0,0.0,0.0,0.0,0.7431449871491742,0.0,0.0,0.1351128287919757,0.0,0.0,0.0,0.0,0.0,0.0,0.0,0.0,0.7431446023476227,0.0,0.0,0.1351129762993322
2.500002848000008,0.061915237456560135,0.02707885578274727,0.7458494305610657,-0.16100206248695637,0.1606676844529506,0.17889502109429195,0.061915237456560135,0.02707885578274727,-0.003986391298776537,-0.16100206248695637,0.1606676844529506,0.04637556657716574,0.13516772508473718,-0.041183087812304287,0.026937384567183642,0.004860796499997377,0.1509375274181366,-0.017443096265196818,0.0,-1.027504806993343,-1.1465318366127724,14.664186112001438,0.0,0.0,0.0,0.0,0.0,0.7498358218598422,0.0,0.0,0.1325194545171262,0.0,0.0,0.0,0.0,0.0,0.0,0.0,0.0,0.7498354444442201,0.0,0.0,0.1325196024025207
2.5500028480000076,0.05056656152009964,0.03210931643843651,0.7522357702255249,-0.17896517457752634,0.12415142543701042,0.18027230490353519,0.05056656152009964,0.03210931643843651,-0.004161089965853737,-0.17896517457752634,0.12415142543701042,0.05035058100338388,0.1261139927730448,-0.02794316470284297,0.022149236031119734,-0.016514720395207405,0.14878417551517487,-0.030530808493495005,0.0,-0.9437463865627727,-1.1581772475891547,14.66213778730338,0.0,0.0,0.0,0.0,0.0,0.7563968601913786,0.0,0.0,0.1299217239001513,0.0,0.0,0.0,0.0,0.0,0.0,0.0,0.0,0.7563964901740932,0.0,0.0,0.1299218719071498
2.6000028480000075,0.039123278111219406,0.03609189763665199,0.7586410641670227,-0.18464727752473725,0.1022592788698248,0.1858006076780821,0.039123278111219406,0.03609189763665199,-0.004186929809594675,-0.18464727752473725,0.1022592788698248,0.05847664187762283,0.15245474950102533,-0.019159988488065327,0.03218319700590566,-0.06053077057003975,0.1200767457485199,-0.032482590526342406,0.0,-0.8358044013025756,-1.0743448639196866,14.67448882918476,0.0,0.0,0.0,0.0,0.0,0.7628279939766174,0.0,0.0,0.12732396580045927,0.0,0.0,0.0,0.0,0.0,0.0,0.0,0.0,0.7628276313577471,0.0,0.0,0.1273241136921563
2.6500028480000073,0.02840464748442173,0.03921739012002945,0.7648271918296814,-0.18125578028570205,0.07250403031175273,0.18229369844095503,0.02840464748442173,0.03921739012002945,-0.004302131259091513,-0.18125578028570205,0.07250403031175273,0.057563522139770326,0.13658085029563116,-0.019921565646434658,0.021707924970105097,-0.05448165908455849,0.1265144795179367,-0.02737073786556722,0.0,-0.766956277404165,-1.0345909749762079,14.657272459403359,0.0,0.0,0.0,0.0,0.0,0.7691293230887729,0.0,0.0,0.1247301763011847,0.0,0.0,0.0,0.0,0.0,0.0,0.0,0.0,0.7691289678570156,0.0,0.0,0.1247303238590664
2.700002848000007,0.017793547362089157,0.04102809727191925,0.7713733315467834,-0.1854599780634677,0.04931149193727521,0.18423779480733624,0.017793547362089157,0.04102809727191925,-0.003927807746200496,-0.1854599780634677,0.04931149193727521,0.06209375665694185,0.1315670968859668,-0.014096912136540851,0.020413846128810142,-0.08022867143154144,0.11621730029582977,-0.010028809309005751,0.0,-0.7202515985937248,-0.9552644286195067,14.691589199139711,0.0,0.0,0.0,0.0,0.0,0.7753011392929839,0.0,0.0,0.12214403815039439,0.0,0.0,0.0,0.0,0.0,0.0,0.0,0.0,0.7753007914265488,0.0,0.0,0.1221441851732601
2.750002848000007,0.007565597537904978,0.042029283940792084,0.7777729630470276,-0.17587660303828495,0.026736911607446408,0.1906441494602415,0.007565597537904978,0.042029283940792084,-0.0035709479973539127,-0.17587660303828495,0.026736911607446408,0.07107521027091725,0.12513802227985105,-0.005845017751296311,0.015583656252311506,-0.12325679510831833,0.09397158026695251,-0.013793848454952252,0.0,-0.652231222603785,-0.8938006606380778,14.692890544157283,0.0,0.0,0.0,0.0,0.0,0.7813439110443815,0.0,0.0,0.11956893918932425,0.0,0.0,0.0,0.0,0.0,0.0,0.0,0.0,0.7813435705118292,0.0,0.0,0.119569085492265
2.8000028480000068,-0.001985707553103566,0.04245153069496155,0.7842151522636414,-0.1788543092855918,0.011976941911345854,0.1869817950975852,-0.001985707553103566,0.04245153069496155,-0.0030431169196405428,-0.1788543092855918,0.011976941911345854,0.06997380528038899,0.12002339957494534,-0.0011009463383171436,0.014637430958796216,-0.1297100931406021,0.07976216822862625,-0.013468228280544291,0.0,-0.6347095905023281,-0.8295719538375392,14.676253217540708,0.0,0.0,0.0,0.0,0.0,0.7872582691832819,0.0,0.0,0.1170079898171962,0.0,0.0,0.0,0.0,0.0,0.0,0.0,0.0,0.7872579359443147,0.0,0.0,0.1170081352306264
2.8500028480000066,-0.007141618058085442,0.04237378016114235,0.7877410054206848,-0.16461807757461702,-0.018264772262538993,0.18540597533612793,-0.007141618058085442,0.04237378016114235,-0.005303988059838671,-0.16461807757461702,-0.018264772262538993,0.07094193579629333,0.11430994984775289,-0.004662732013153814,0.01496890237333659,-0.08244012296199799,0.0446513332426548,-0.0045062927529215865,0.0,-0.5641763219517593,-0.7859569053494168,14.694273428582736,0.0,0.0,0.0,0.0,0.0,0.7930449934805235,0.0,0.0,0.1144640395398346,0.0,0.0,0.0,0.0,0.0,0.0,0.0,0.0,0.7930446674867282,0.0,0.0,0.1144641839085745
2.9000028480000064,-0.014568358659744263,0.04150151088833809,0.7931038737297058,-0.16281148714164634,-0.036027315446997644,0.18102072866396665,-0.014568358659744263,0.04150151088833809,-0.005601126258565792,-0.16281148714164634,-0.036027315446997644,0.06908103601688749,0.11381721738617223,0.004067725290394009,0.011327672147636747,-0.08588438481092453,0.02938855066895485,0.008680142462253567,0.0,-0.5696928224191897,-0.6645668080488759,14.72322210065057,0.0,0.0,0.0,0.0,0.0,0.7987049999882716,0.0,0.0,0.11193969264707916,0.0,0.0,0.0,0.0,0.0,0.0,0.0,0.0,0.798704681183818,0.0,0.0,0.1119398358294861
2.9500028480000062,-0.02579379267990589,0.03932460397481918,0.8017910718917847,-0.14054824108494496,-0.055988359184359925,0.18017314811063684,-0.02579379267990589,0.03932460397481918,-0.0024482572620260212,-0.14054824108494496,-0.055988359184359925,0.0707358250487631,0.10794685688358996,0.0033744271899731615,0.012528676000082228,-0.08080676198005676,0.035172030329704285,-0.0243239738047123,0.0,-0.5230948200854127,-0.5954441569169647,14.752988110811275,0.0,0.0,0.0,0.0,0.0,0.8042393291538107,0.0,0.0,0.10943732306187373,0.0,0.0,0.0,0.0,0.0,0.0,0.0,0.0,0.8042390174761075,0.0,0.0,0.109437464929019
3.000002848000006,-0.03344764560461044,0.03674456477165222,0.8090396523475647,-0.13436760323671354,-0.06028719325327197,0.17948863049510913,-0.03344764560461044,0.03674456477165222,-0.0006094823083742096,-0.13436760323671354,-0.06028719325327197,0.07252954209322524,0.10233214020514181,0.019355292147057668,0.017412253916388565,-0.08253277838230133,0.025591082870960232,-0.03064898028969765,0.0,-0.5310930161324012,-0.5102326699822559,14.761461051653825,0.0,0.0,0.0,0.0,0.0,0.8096491346559389,0.0,0.0,0.1069590884018839,0.0,0.0,0.0,0.0,0.0,0.0,0.0,0.0,0.8096488300362501,0.0,0.0,0.1069592288367733
3.050002848000006,-0.03921918198466301,0.034885622560977936,0.8148128390312195,-0.11365761614154879,-0.08693377636480619,0.19322556685441686,-0.03921918198466301,0.034885622560977936,-0.00012283389435197023,-0.11365761614154879,-0.08693377636480619,0.08871862356184812,0.09608163339892295,0.006936050769411395,0.009535403819128874,-0.07801753282546997,-0.01314789988100529,-0.02947012148797512,0.0,-0.506406170597855,-0.484564740093738,14.759345494686732,0.0,0.0,0.0,0.0,0.0,0.8149356729255715,0.0,0.0,0.10450694329256874,0.0,0.0,0.0,0.0,0.0,0.0,0.0,0.0,0.8149353752895941,0.0,0.0,0.1045070821894052
3.1000028480000057,-0.04424497112631798,0.032518479973077774,0.8213387131690979,-0.09904210074841392,-0.09254560847234714,0.19500002839242717,-0.04424497112631798,0.032518479973077774,0.001238419855038364,-0.09904210074841392,-0.09254560847234714,0.09291737642363787,0.09356211778510692,0.0050007873629605015,0.009819043162909047,-0.07325460016727448,0.0007109611760824898,-0.016790395602583885,0.0,-0.5405777321964663,-0.3651211514213099,14.699034471073675,0.0,0.0,0.0,0.0,0.0,0.8201002933140595,0.0,0.0,0.1020826519687893,0.0,0.0,0.0,0.0,0.0,0.0,0.0,0.0,0.8201000025824663,0.0,0.0,0.1020827892322745
3.1500028480000055,-0.04843787103891373,0.030039479956030846,0.8276716470718384,-0.08040811031298226,-0.09943151062379516,0.18292483532599113,-0.04843787103891373,0.030039479956030846,0.002527218197294956,-0.08040811031298226,-0.09943151062379516,0.08323703512571277,0.08868202577767281,0.004295755770104215,0.012415958266709382,-0.0843503326177597,-0.007379830349236727,-0.0013939215568825594,0.0,-0.5539303628012873,-0.3204344151883769,14.685116655498685,0.0,0.0,0.0,0.0,0.0,0.8251444288745434,0.0,0.0,0.09968780020027836,0.0,0.0,0.0,0.0,0.0,0.0,0.0,0.0,0.8251441449634904,0.0,0.0,0.0996879357449521
3.2000028480000053,-0.0516195185482502,0.02762524038553238,0.8335805535316467,-0.06747393873476491,-0.10505834127283173,0.1791696991792496,-0.0516195185482502,0.02762524038553238,0.0035109658082670414,-0.06747393873476491,-0.10505834127283173,0.08184589260462831,0.08473928552731413,0.018008872311698454,0.015188157421238913,-0.07089067250490189,-0.028269417583942413,-9.477273852098388e-05,0.0,-0.5744804810874896,-0.2706385628248177,14.743795966311584,0.0,0.0,0.0,0.0,0.0,0.8300695877233797,0.0,0.0,0.0973238065746213,0.0,0.0,0.0,0.0,0.0,0.0,0.0,0.0,0.8300693105449831,0.0,0.0,0.0973239403242365
3.250002848000005,-0.05404037982225418,0.025538794696331024,0.8391465544700623,-0.036820449772119006,-0.10357889507958937,0.1808822294260999,-0.05404037982225418,0.025538794696331024,0.004269209519736528,-0.036820449772119006,-0.10357889507958937,0.08589029625630261,0.08856309525462747,0.0025658650583766374,0.012974105397018931,-0.10492567718029022,-0.026154156774282455,0.0034219075459986955,0.0,-0.5871086320091095,-0.22693588750535543,14.758173149808503,0.0,0.0,0.0,0.0,0.0,0.8348773449503257,0.0,0.0,0.0949919331697973,0.0,0.0,0.0,0.0,0.0,0.0,0.0,0.0,0.8348770744131074,0.0,0.0,0.0949920650567288
3.300002848000005,-0.05626149848103523,0.022808998823165894,0.8464640974998474,-0.019395644045266485,-0.10913194875457347,0.1787964414563937,-0.05626149848103523,0.022808998823165894,0.006894762452117065,-0.019395644045266485,-0.10913194875457347,0.08610314580958875,0.07898398069012824,0.0022115752795679455,0.011501598749420694,-0.08089735358953476,-0.017907785251736637,0.02067632228136063,0.0,-0.6675683933870964,-0.20600656920560817,14.742357612110919,0.0,0.0,0.0,0.0,0.0,0.8395693350477303,0.0,0.0,0.09269329564680495,0.0,0.0,0.0,0.0,0.0,0.0,0.0,0.0,0.8395690710570345,0.0,0.0,0.0926934256114908
3.350002848000005,-0.05700447037816048,0.020612100139260292,0.8522208333015442,-0.00028022352142021177,-0.10978502458343888,0.18100147958346008,-0.05700447037816048,0.020612100139260292,0.008073588471078863,-0.00028022352142021177,-0.10978502458343888,0.09057260679201844,0.05801999443871031,0.011128454770727103,-0.0003044673404337672,-0.03239218145608902,-0.04779643937945366,-0.019935166463255875,0.0,-0.7064380143123098,-0.1591074880976146,14.744693238891308,0.0,0.0,0.0,0.0,0.0,0.8441472448304653,0.0,0.0,0.09042887279144164,0.0,0.0,0.0,0.0,0.0,0.0,0.0,0.0,0.8441469872888485,0.0,0.0,0.0904290007818545
3.4000028480000046,-0.05825522541999817,0.018692318350076675,0.8592205047607422,0.00839689542529659,-0.10176446237418053,0.17821368072113253,-0.05825522541999817,0.018692318350076675,0.010607697940987815,0.00839689542529659,-0.10176446237418053,0.09001416518821534,0.07417528369423465,-0.0019352384632567166,0.007760915172843497,-0.06475533545017242,-0.05515033006668091,-0.01605220511555671,0.0,-0.7612631806476171,-0.12962285356808934,14.723909849265848,0.0,0.0,0.0,0.0,0.0,0.8486128068197544,0.0,0.0,0.08819951553291719,0.0,0.0,0.0,0.0,0.0,0.0,0.0,0.0,0.84861255562735,0.0,0.0,0.0881996415040653
3.4500028480000045,-0.05777706950902939,0.017400123178958893,0.8651199340820312,0.019675362614334495,-0.09987887482124054,0.1735597706958204,-0.05777706950902939,0.017400123178958893,0.012152141016624651,0.019675362614334495,-0.09987887482124054,0.08755381523016163,0.053152972004752996,-0.0012472430900989373,0.0008836561399201415,-0.03681045025587082,-0.10025329887866974,-0.009758559986948955,0.0,-0.7806555080709054,-0.13946808001120486,14.718864750654722,0.0,0.0,0.0,0.0,0.0,0.8529677930654066,0.0,0.0,0.08600595546565877,0.0,0.0,0.0,0.0,0.0,0.0,0.0,0.0,0.8529675481202643,0.0,0.0,0.0860060793791139
3.5000028480000043,-0.05758406221866608,0.016151269897818565,0.87153559923172,0.031161154827868215,-0.0956686105298599,0.17044305024566028,-0.05758406221866608,0.016151269897818565,0.014321589849476402,0.031161154827868215,-0.0956686105298599,0.08659423734625817,0.05169361782025117,-0.0005078529573441237,-0.0008208165977996451,-0.03341895341873169,-0.04806230589747429,0.0012634317390620767,0.0,-0.8138920687136177,-0.12817579839898857,14.728522777119169,0.0,0.0,0.0,0.0,0.0,0.8572140093822436,0.0,0.0,0.08384881289940212,0.0,0.0,0.0,0.0,0.0,0.0,0.0,0.0,0.8572137705806462,0.0,0.0,0.0838489347228542
3.550002848000004,-0.05684873089194298,0.015482288785278797,0.8778706789016724,0.056426993566491994,-0.07932697601113843,0.16582474327234684,-0.05684873089194298,0.015482288785278797,0.016517388923932952,0.056426993566491994,-0.07932697601113843,0.0840961388108882,0.04792681716564706,-0.00770930391767255,0.0003290384723202422,-0.02093120850622654,-0.02838838659226894,0.023616125807166103,0.0,-0.8502028713439701,-0.12665778050969848,14.727537657300722,0.0,0.0,0.0,0.0,0.0,0.8613532899777394,0.0,0.0,0.08172860446145863,0.0,0.0,0.0,0.0,0.0,0.0,0.0,0.0,0.8613530572144987,0.0,0.0,0.0817287241682951
3.600002848000004,-0.055869489908218384,0.015396042726933956,0.8830295205116272,0.061440458986534253,-0.07897044363514105,0.16435968426359215,-0.055869489908218384,0.015396042726933956,0.017642028062572535,0.061440458986534253,-0.07897044363514105,0.08471393398969104,0.04306112464723233,-0.005408477376191101,-0.001682469097341155,0.01714481972157955,-0.038596644997596734,0.03128796443343163,0.0,-0.935369548139804,-0.17209104221912397,14.728811548856513,0.0,0.0,0.0,0.0,0.0,0.8653874924490547,0.0,0.0,0.07964575027390111,0.0,0.0,0.0,0.0,0.0,0.0,0.0,0.0,0.8653872656177859,0.0,0.0,0.0796458678428097
3.6500028480000037,-0.05466252192854881,0.015583681873977184,0.8892275094985962,0.0680943902284397,-0.06881485350251772,0.155413113521322,-0.05466252192854881,0.015583681873977184,0.019909016369840882,0.0680943902284397,-0.06881485350251772,0.07781253279400731,0.048130601126404216,-0.0090304333137321,-0.002474031893195505,0.032724663615226746,-0.034571778029203415,-0.015517431311309334,0.0,-0.9600701700408889,-0.164189711052871,14.721682206474929,0.0,0.0,0.0,0.0,0.0,0.8693184931287553,0.0,0.0,0.0776005807273147,0.0,0.0,0.0,0.0,0.0,0.0,0.0,0.0,0.8693182721221324,0.0,0.0,0.0776006961419086
3.7000028480000036,-0.05283801257610321,0.01626054011285305,0.8959247469902039,0.07588104622438216,-0.05653962408953925,0.15400539101908908,-0.05283801257610321,0.01626054011285305,0.022776564230639118,0.07588104622438216,-0.05653962408953925,0.07841204814737254,0.052705233605454094,-0.012548896472790005,-0.0005590435804454508,0.01999923773109913,-0.04617106169462204,-0.007286370266228908,0.0,-0.9878475729446845,-0.19696233303640598,14.745615500058099,0.0,0.0,0.0,0.0,0.0,0.8731481827595647,0.0,0.0,0.07559334287171654,0.0,0.0,0.0,0.0,0.0,0.0,0.0,0.0,0.8731479674695585,0.0,0.0,0.0755934561201812
3.7500028480000034,-0.0515807569026947,0.01720273122191429,0.9019892811775208,0.08664549781488855,-0.04602747595701317,0.15850592007502154,-0.0515807569026947,0.01720273122191429,0.0251108186980189,0.08664549781488855,-0.04602747595701317,0.08488171363076984,0.05158245939190209,-0.013930276125829977,-0.00011135702280151705,0.019355177879333496,-0.07279642671346664,-0.022964093834161748,0.0,-1.0283920501252248,-0.24187898323775098,14.728294266905646,0.0,0.0,0.0,0.0,0.0,0.8768784624795019,0.0,0.0,0.0736242064442517,0.0,0.0,0.0,0.0,0.0,0.0,0.0,0.0,0.8768782527975992,0.0,0.0,0.073624317519011
3.800002848000003,-0.04992229491472244,0.018689647316932678,0.907687246799469,0.09040609199799356,-0.03458717256938812,0.1513246729154314,-0.04992229491472244,0.018689647316932678,0.027176006699755395,0.09040609199799356,-0.03458717256938812,0.07963140336310773,0.05517700183033858,-0.023289149042329704,0.00015354338327977501,0.03060448355972767,-0.0597742535173893,-0.01227988023310899,0.0,-1.0821239316633267,-0.2814952251303239,14.681603769178626,0.0,0.0,0.0,0.0,0.0,0.8805112400997136,0.0,0.0,0.07169326955232366,0.0,0.0,0.0,0.0,0.0,0.0,0.0,0.0,0.8805110359171224,0.0,0.0,0.0716933784497263
3.850002848000003,-0.048594940453767776,0.020210010930895805,0.9126521944999695,0.08651649862356947,-0.029360494829983843,0.14582446948498085,-0.048594940453767776,0.020210010930895805,0.028603767841747785,0.08651649862356947,-0.029360494829983843,0.07602390545506711,0.059793915008855336,-0.022414390974153875,0.0022622735104711467,0.052603624761104584,-0.06102275103330612,-0.002217671368271105,0.0,-1.1084193631880934,-0.3316241478589388,14.693419433309556,0.0,0.0,0.0,0.0,0.0,0.8840484266582217,0.0,0.0,0.06980056402991373,0.0,0.0,0.0,0.0,0.0,0.0,0.0,0.0,0.8840482278660591,0.0,0.0,0.0698006707499364
3.900002848000003,-0.04685869440436363,0.02241208590567112,0.9187861680984497,0.08824075307187312,-0.023236432361045542,0.14260830555322834,-0.04685869440436363,0.02241208590567112,0.03129423486478056,0.08824075307187312,-0.023236432361045542,0.07466224506924828,0.06162822139698054,-0.02751923701670611,0.001190438668607463,0.05992959812283516,-0.05175056681036949,-0.0015097908908501205,0.0,-1.109753364294258,-0.36090479506303813,14.700528642418476,0.0,0.0,0.0,0.0,0.0,0.8874919332336692,0.0,0.0,0.06794606048398007,0.0,0.0,0.0,0.0,0.0,0.0,0.0,0.0,0.8874917397231357,0.0,0.0,0.0679461650299491
3.9500028480000027,-0.04553224891424179,0.024430744349956512,0.9238530993461609,0.08417899865130013,-0.015863197534090025,0.13387363208009448,-0.04553224891424179,0.024430744349956512,0.03300943134218681,0.08417899865130013,-0.015863197534090025,0.06774395903308884,0.06375535203827676,-0.028164614984937053,0.002204204229605544,0.07473687082529068,-0.048920467495918274,0.003522988874465233,0.0,-1.1327955250462485,-0.3973929561633991,14.69358181874492,0.0,0.0,0.0,0.0,0.0,0.8908436680039741,0.0,0.0,0.06612967304700564,0.0,0.0,0.0,0.0,0.0,0.0,0.0,0.0,0.8908434796665152,0.0,0.0,0.0661297754253342
4.000002848000003,-0.044532835483551025,0.026605775579810143,0.9287289977073669,0.08211379899378916,-0.007694507554674409,0.1242594863469232,-0.044532835483551025,0.026605775579810143,0.03462346417178108,0.08211379899378916,-0.007694507554674409,0.05990822249594213,0.06599988778296684,-0.028247402582809222,-1.750417329793308e-05,0.06504332274198532,-0.04390474408864975,0.020046887919306762,0.0,-1.1317431995977225,-0.4402442861579482,14.715678501358436,0.0,0.0,0.0,0.0,0.0,0.8941055335355859,0.0,0.0,0.06435126385098107,0.0,0.0,0.0,0.0,0.0,0.0,0.0,0.0,0.8941053502630396,0.0,0.0,0.0643513640709218
4.050002848000003,-0.04380834102630615,0.02837044931948185,0.9340289235115051,0.08436657070689874,-0.0016362561781355098,0.12446213454823073,-0.04380834102630615,0.02837044931948185,0.03674949922172477,0.08436657070689874,-0.0016362561781355098,0.061851487310870853,0.07211045497675483,-0.01822338148726832,0.008012559845511191,0.06499134749174118,-0.0219194795936346,0.043517839163541794,0.0,-1.1349670160391867,-0.48787106518849355,14.74315972289601,0.0,0.0,0.0,0.0,0.0,0.8972794242897804,0.0,0.0,0.06261064723735987,0.0,0.0,0.0,0.0,0.0,0.0,0.0,0.0,0.8972792459745131,0.0,0.0,0.0626107453107726
4.100002848000003,-0.04280763864517212,0.03095076233148575,0.9383988380432129,0.07938683006861579,0.01113474401322642,0.12175420634300275,-0.04280763864517212,0.03095076233148575,0.03803161371007224,0.07938683006861579,0.01113474401322642,0.06084661262618884,0.07062502198581466,-0.03430780358987784,0.0035045149334855807,0.028983360156416893,-0.02839057706296444,0.0029846862889826332,0.0,-1.1579576252274675,-0.5255172763310588,14.720879660929356,0.0,0.0,0.0,0.0,0.0,0.9003672243331406,0.0,0.0,0.06090759371681392,0.0,0.0,0.0,0.0,0.0,0.0,0.0,0.0,0.9003670508681729,0.0,0.0,0.0609076896579468
4.150002848000002,-0.04241423308849335,0.033157654106616974,0.9433283805847168,0.06434664690557211,0.005926795763800865,0.11362267796493306,-0.04241423308849335,0.033157654106616974,0.03995757534466915,0.06434664690557211,0.005926795763800865,0.05438084427299682,0.07307753750720014,-0.031107964530056265,0.0033816535470769793,0.07389149814844131,0.013421406969428059,-0.02497566118836403,0.0,-1.1570156855067744,-0.5963031718474762,14.709625886403241,0.0,0.0,0.0,0.0,0.0,0.9033708052400476,0.0,0.0,0.05924183369193624,0.0,0.0,0.0,0.0,0.0,0.0,0.0,0.0,0.9033706365191676,0.0,0.0,0.0592419275172203
4.200002848000002,-0.042367540299892426,0.03527050465345383,0.947913408279419,0.07144897409978158,0.010048876799700169,0.11792228990914343,-0.042367540299892426,0.03527050465345383,0.04162138410377891,0.07144897409978158,0.010048876799700169,0.06030922895374906,0.07788342066247855,-0.035071700391595684,0.003109541204462829,0.04378865286707878,-0.020629219710826874,0.0007383180200122322,0.0,-1.115097451299349,-0.6005718947098999,14.734739938394107,0.0,0.0,0.0,0.0,0.0,0.90629202417564,0.0,0.0,0.05761306095539437,0.0,0.0,0.0,0.0,0.0,0.0,0.0,0.0,0.906291860093508,0.0,0.0,0.0576131526832505
4.250002848000002,-0.042328618466854095,0.03717953339219093,0.952538251876831,0.06691832041838713,0.008017483401110661,0.10809949161160035,-0.042328618466854095,0.03717953339219093,0.04340552972851364,0.06691832041838713,0.008017483401110661,0.05207855563618129,0.07623002330984496,-0.028225173699523154,0.0061103876235062415,0.0378851555287838,0.021906627342104912,0.004081843886524436,0.0,-1.15146817203762,-0.6334574902193949,14.693166974229216,0.0,0.0,0.0,0.0,0.0,0.9091327221483174,0.0,0.0,0.05602093597541906,0.0,0.0,0.0,0.0,0.0,0.0,0.0,0.0,0.9091325626005602,0.0,0.0,0.0560210256260764
4.300002848000002,-0.042662475258111954,0.03875961899757385,0.9569529294967651,0.05986202408877246,0.004776645146801789,0.10467436962158917,-0.042662475258111954,0.03875961899757385,0.045058207075327705,0.05986202408877246,0.004776645146801789,0.0502092806416612,0.07928318676370605,-0.028400503391268206,0.00705720567858048,0.04579954966902733,0.031163284555077556,0.015054639428853985,0.0,-1.1404240241429866,-0.6461935934244025,14.72642985127591,0.0,0.0,0.0,0.0,0.0,0.9118947224214374,0.0,0.0,0.054465088979927974,0.0,0.0,0.0,0.0,0.0,0.0,0.0,0.0,0.9118945673047354,0.0,0.0,0.0544651765752542
4.350002848000002,-0.04316021502017975,0.040222350507974625,0.9613527059555054,0.05256085426907941,-0.005079402535978544,0.10353369916735257,-0.04316021502017975,0.040222350507974625,0.04677287688109466,0.05256085426907941,-0.005079402535978544,0.05058857631732829,0.0867807869933035,-0.027692124384962824,0.004440133196613516,0.02393154241144657,0.03813584893941879,0.005750668235123153,0.0,-1.1231499121741995,-0.6526364235978442,14.727737890568864,0.0,0.0,0.0,0.0,0.0,0.9145798290744107,0.0,0.0,0.05294512285002428,0.0,0.0,0.0,0.0,0.0,0.0,0.0,0.0,0.9145796782865752,0.0,0.0,0.0529452084133658
4.4000028480000015,-0.043862827122211456,0.041227612644433975,0.9653986096382141,0.04651903706871467,-0.0029778633871110913,0.10250381395010602,-0.043862827122211456,0.041227612644433975,0.04820878393429606,0.04651903706871467,-0.0029778633871110913,0.05104319811702882,0.08315819839720628,-0.027949127858228895,0.0052210867104252046,-0.010243969969451427,0.021682668477296833,0.029703104868531224,0.0,-1.1042751242105893,-0.632017585179695,14.720686550356653,0.0,0.0,0.0,0.0,0.0,0.917189825703918,0.0,0.0,0.0514606158330772,0.0,0.0,0.0,0.0,0.0,0.0,0.0,0.0,0.9171896791439614,0.0,0.0,0.0514606993891094
4.450002848000001,-0.044579703360795975,0.04185553640127182,0.9682650566101074,0.029665808742032167,-0.008805214525316215,0.09000785974970091,-0.044579703360795975,0.04185553640127182,0.04853858235363284,0.029665808742032167,-0.008805214525316215,0.03999673566461608,0.08327839741252374,-0.026972584768919727,0.005461549940864785,0.027176903560757637,0.020684700459241864,-0.0264379195868969,0.0,-1.0880445214375358,-0.6541169883948856,14.70648024661917,0.0,0.0,0.0,0.0,0.0,0.9197264742564746,0.0,0.0,0.050011124085084825,0.0,0.0,0.0,0.0,0.0,0.0,0.0,0.0,0.9197263318246732,0.0,0.0,0.0500112056596723
4.500002848000001,-0.045976050198078156,0.04233115538954735,0.9730337262153625,0.03246155739860939,-0.01135831455262962,0.09141544395442579,-0.045976050198078156,0.04233115538954735,0.05084221223132568,0.03246155739860939,-0.01135831455262962,0.04281925990289046,0.08343073743656149,-0.023559867134199663,0.005577888800909037,0.006473428104072809,0.02472410351037979,0.0066109355539083455,0.0,-1.0258070321354926,-0.6461890583776431,14.757883536636962,0.0,0.0,0.0,0.0,0.0,0.9221915139840369,0.0,0.0,0.048596184051535325,0.0,0.0,0.0,0.0,0.0,0.0,0.0,0.0,0.9221913755819876,0.0,0.0,0.0485962636716005
4.550002848000001,-0.04686153680086136,0.04225790873169899,0.9757032990455627,0.03143027467590352,-0.01833099343545425,0.0899958460414643,-0.04686153680086136,0.04225790873169899,0.0511166385307632,0.03143027467590352,-0.01833099343545425,0.04278053134594111,0.0808471172916847,-0.024427484870382266,0.004238894671205529,0.011022930964827538,0.0326726995408535,-0.00274960091337562,0.0,-1.0333307035735935,-0.6449990558177695,14.734539280998305,0.0,0.0,0.0,0.0,0.0,0.9245866605147995,0.0,0.0,0.04721531469552318,0.0,0.0,0.0,0.0,0.0,0.0,0.0,0.0,0.9245865260454692,0.0,0.0,0.0472153923889235
4.600002848000001,-0.04847712442278862,0.04150838032364845,0.9806039333343506,0.030425833784356912,-0.022839811105497442,0.08724839311447113,-0.04847712442278862,0.04150838032364845,0.05369032830259812,0.030425833784356912,-0.022839811105497442,0.041380373533032574,0.08630137311306196,-0.022782448587324478,0.004934735314734873,0.011227333918213844,0.0149366594851017,-0.0038652853108942526,0.0,-1.0272046095112588,-0.6226590463113408,14.731430134098806,0.0,0.0,0.0,0.0,0.0,0.9269136050317525,0.0,0.0,0.04586801958143856,0.0,0.0,0.0,0.0,0.0,0.0,0.0,0.0,0.9269134743995212,0.0,0.0,0.045868095376852
4.650002848000001,-0.0498969666659832,0.04048587754368782,0.984052300453186,0.022167999070861536,-0.039743539129265426,0.08383294425844304,-0.0498969666659832,0.04048587754368782,0.054878286901208106,0.022167999070861536,-0.039743539129265426,0.03927915543631338,0.08465373318341207,-0.018565512077388213,0.0036887945692694046,-0.010517886839807034,0.021895453333854675,0.005097214598208663,0.0,-1.0180074538388177,-0.6075069078829461,14.729310757604987,0.0,0.0,0.0,0.0,0.0,0.9291740135519779,0.0,0.0,0.04455378882212966,0.0,0.0,0.0,0.0,0.0,0.0,0.0,0.0,0.9291738866626786,0.0,0.0,0.0445538627489473
4.7000028480000005,-0.051397137343883514,0.03925234451889992,0.987133800983429,0.018380377629766048,-0.036131405589334094,0.07639581895439906,-0.051397137343883514,0.03925234451889992,0.05576427468338019,0.018380377629766048,-0.036131405589334094,0.0331237180573573,0.08327333708868956,-0.016599054742650665,0.005371874111189889,-0.0352177694439888,0.01449848525226116,-0.00925395078957081,0.0,-0.9833072285163219,-0.5417693182693258,14.739373534271117,0.0,0.0,0.0,0.0,0.0,0.9313695263000488,0.0,0.0,0.04327210089704176,0.0,0.0,0.0,0.0,0.0,0.0,0.0,0.0,0.9313694030609996,0.0,0.0,0.043272172985268
4.750002848,-0.052601367235183716,0.038167499005794525,0.9897106885910034,0.016718365816269155,-0.048478715410022515,0.07544713702716262,-0.052601367235183716,0.038167499005794525,0.05620893142174466,0.016718365816269155,-0.048478715410022515,0.03342471267870567,0.08049053752443402,-0.021657881633386555,-8.544794803633238e-05,-0.011572237126529217,0.03475662693381309,-0.032569091767072685,0.0,-0.9592812285491479,-0.5506609459880304,14.759586936171837,0.0,0.0,0.0,0.0,0.0,0.9335017571692588,0.0,0.0,0.042022424348456947,0.0,0.0,0.0,0.0,0.0,0.0,0.0,0.0,0.9335016374892908,0.0,0.0,0.042022494628616
4.800002848,-0.05427178367972374,0.0355711467564106,0.9937525391578674,0.013162467316835985,-0.04598128743230435,0.07066294738946771,-0.05427178367972374,0.0355711467564106,0.058180245893109994,0.013162467316835985,-0.04598128743230435,0.029858728026869015,0.09234795320626299,0.001111025944584565,0.013880841397211796,-0.02602686919271946,0.022172885015606877,-0.024205841124057773,0.0,-0.9459460928995499,-0.4966899384412909,14.757696213028495,0.0,0.0,0.0,0.0,0.0,0.9355722932647574,0.0,0.0,0.0408042193625987,0.0,0.0,0.0,0.0,0.0,0.0,0.0,0.0,0.93557217705424,0.0,0.0,0.0408042878656479
4.850002848,-0.05562260374426842,0.03353181481361389,0.9970729351043701,0.016573913737967294,-0.04946448215106094,0.06644329215265302,-0.05562260374426842,0.03353181481361389,0.0594902405813732,0.016573913737967294,-0.04946448215106094,0.026826352910630243,0.09376713117005497,0.0011651534864984825,0.01344520560756024,-0.035965561866760254,0.021725976839661598,-0.006445510778576138,0.0,-0.9229637859999735,-0.4951301872033186,14.764203431567484,0.0,0.0,0.0,0.0,0.0,0.9375826945229969,0.0,0.0,0.039616939242022774,0.0,0.0,0.0,0.0,0.0,0.0,0.0,0.0,0.9375825816938556,0.0,0.0,0.0396170059992716
4.900002848,-0.05639704689383507,0.03166569396853447,0.9997125864028931,0.019019696237024392,-0.05208049917687162,0.06708355746026202,-0.05639704689383507,0.03166569396853447,0.06017809300068433,0.019019696237024392,-0.05208049917687162,0.02862352568487353,0.07692215429895777,-0.013590598418796063,0.004544242963783418,-0.039832279086112976,0.008819622918963432,-0.002013802994042636,0.0,-0.9227660485937123,-0.4700262614881249,14.773846435397523,0.0,0.0,0.0,0.0,0.0,0.9395344934022087,0.0,0.0,0.038460031775388495,0.0,0.0,0.0,0.0,0.0,0.0,0.0,0.0,0.9395343838679424,0.0,0.0,0.0384600968184233
4.950002848,-0.05768056958913803,0.029300758615136147,1.0027902126312256,0.011477428228980782,-0.053228597446992355,0.0620237524338619,-0.05768056958913803,0.029300758615136147,0.06136101799230187,0.011477428228980782,-0.053228597446992355,0.0246908119234672,0.07662011607322938,-0.016432959805400493,0.0017590796646942408,-0.00865660049021244,0.024499000981450077,-0.02201282605528832,0.0,-0.9255644935006688,-0.44685418836790763,14.758837963298804,0.0,0.0,0.0,0.0,0.0,0.9414291946389237,0.0,0.0,0.0373329405103947,0.0,0.0,0.0,0.0,0.0,0.0,0.0,0.0,0.9414290883146158,0.0,0.0,0.0373330038710089
5.000002847999999,-0.058960460126399994,0.026778068393468857,1.0064408779144287,0.01418915370558541,-0.05577548494060333,0.06754167364110976,-0.058960460126399994,0.026778068393468857,0.06317260284859538,0.01418915370558541,-0.05577548494060333,0.03130656770574195,0.07219473783713282,-0.013361490180668678,0.00017116784566884036,-0.03453342989087105,0.0037533901631832114,-0.005376730114221574,0.0,-0.8894689461572316,-0.4292747856863087,14.770393702069745,0.0,0.0,0.0,0.0,0.0,0.9432682750658333,0.0,0.0,0.03623510593536781,0.0,0.0,0.0,0.0,0.0,0.0,0.0,0.0,0.9432681718681608,0.0,0.0,0.0362351676454972
