time,pos_x,pos_y,pos_z,vel_x,vel_y,vel_z,pos_xo,pos_yo,pos_zo,vel_xo,vel_yo,vel_zo,roll,pitch,yaw,roll_vel,pitch_vel,yaw_vel,thrust_z,force_x,force_y,force_z,torque_x,torque_y,torque_z,pos_xd,pos_yd,pos_zd,vel_xd,vel_yd,vel_zd,roll_d,pitch_d,yaw_d,roll_vel_d,pitch_vel_d,yaw_vel_d
0.005,-0.0076179541446622055,0.013069988288779155,0.9786016764134767,-0.023381995753503946,0.04094889519062473,-0.37174315406354,-0.0076179541446622055,0.013069988288779155,0.5786016764134767,-0.023381995753503946,0.04094889519062473,-0.37174315406354,-0.003561079074530953,0.012939167042715336,-0.010364614238348337,-0.017594320846358917,0.014781983245515,-0.008782872165630024,0.0,0.0,0.0,0.0,0.0,0.0,0.0,0.0,0.0,0.4,0.0,0.0,0.0,0.0,0.0,0.0,0.0,0.0,0.0
0.01,-0.007720080489313814,0.013230122276715758,0.9766933938084958,-0.017970441134570168,0.02000989419645736,-0.4168944080651297,-0.0076179541446622055,0.013069988288779155,0.5786016764134767,-0.023381995753503946,0.04094889519062473,-0.37174315406354,-0.003126951249751815,0.013153241063383602,-0.010426257476350679,0.28216189591729735,0.09160568915967951,-0.016962699202929515,0.0,0.21886652677378177,-0.38187648672436975,3.1599525189200848,0.0,0.0,0.0,0.0,0.0,0.40000478721917954,0.0,0.0,0.001912335339540464,0.0,0.0,0.0,0.0,0.0,0.0
0.015,-0.007784460214341297,0.013229360177208632,0.9744669165612698,-0.007317962313917617,-0.015468426177651875,-0.4537842573322611,-0.0076179541446622055,0.013069988288779155,0.5786016764134767,-0.023381995753503946,0.04094889519062473,-0.37174315406354,-0.00022568872201195268,0.014005808063912793,-0.010537858946423496,0.7883886199375562,0.2429064109115913,-0.02468903032797299,0.0,0.21886652677378177,-0.38187648672436975,3.1599525189200848,0.0,0.0,0.0,0.0,0.0,0.4000190979065458,0.0,0.0,0.0038094025529743134,0.0,0.0,0.0,0.0,0.0,0.0
0.02,-0.007790489859616329,0.013160957307230997,0.9720340993204055,0.003343784095902136,-0.0028322543856268765,-0.49834063444911986,-0.0076179541446622055,0.013069988288779155,0.5786016764134767,-0.023381995753503946,0.04094889519062473,-0.37174315406354,0.0036231197402405613,0.015680392704405376,-0.010660506482460098,0.6037637199320784,0.39109284091991997,-0.023428720122475957,0.0,0.21886652677378177,-0.38187648672436975,3.1599525189200848,0.0,0.0,0.0,0.0,0.0,0.4000428559502358,0.0,0.0,0.00569129306608472,0.0,0.0,0.0,0.0,0.0,0.0
0.025,-0.007773219739363945,0.013209201241905593,0.9695433824007513,0.00042274800784478615,0.019290199985049366,-0.5359552665506021,-0.0076179541446622055,0.013069988288779155,0.5786016764134767,-0.023381995753503946,0.04094889519062473,-0.37174315406354,0.005636909095060781,0.017552480900492357,-0.010754323927176743,0.2911315659830789,0.34204025674667293,-0.019103514639192576,0.0,0.21886652677378177,-0.38187648672436975,3.1599525189200848,0.0,0.0,0.0,0.0,0.0,0.40007598569429814,0.0,0.0,0.0075580978180245905,0.0,0.0,0.0,0.0,0.0,0.0
0.030000000000000002,-0.007809186814842503,0.013289989355283803,0.9667012902392433,-0.01321671430066923,0.005954301587818544,-0.5763410164576336,-0.0076179541446622055,0.013069988288779155,0.5786016764134767,-0.023381995753503946,0.04094889519062473,-0.37174315406354,0.007391222282459761,0.01874579440625565,-0.01082738083896993,0.4900963148896302,0.147259279442249,-0.012762892957056465,0.0,0.21886652677378177,-0.38187648672436975,3.1599525189200848,0.0,0.0,0.0,0.0,0.0,0.40011841193626585,0.0,0.0,0.009409907263744853,0.0,0.0,0.0,0.0,0.0,0.0
0.035,-0.007879211583274263,0.013257725752324347,0.9636562664268395,-0.010396956375348161,-0.014439633147306185,-0.6149809275042867,-0.0076179541446622055,0.013069988288779155,0.5786016764134767,-0.023381995753503946,0.04094889519062473,-0.37174315406354,0.010784074387317972,0.019469713149547815,-0.010864790212598603,0.7830596033219298,0.19160871906779833,-0.004657682769129947,0.0,0.21886652677378177,-0.38187648672436975,3.1599525189200848,0.0,0.0,0.0,0.0,0.0,0.40017005992474053,0.0,0.0,0.011246811376411116,0.0,0.0,0.0,0.0,0.0,0.0
0.04,-0.007895018447360323,0.013209726269752513,0.9606055454211914,0.00227306921287497,0.0002899941459136978,-0.6538629501689107,-0.0076179541446622055,0.013069988288779155,0.5786016764134767,-0.023381995753503946,0.04094889519062473,-0.37174315406354,0.014219462726921758,0.020873724578743768,-0.010847374960599423,0.5686388872093109,0.37182467446554773,0.0038477836030232403,0.0,0.21886652677378177,-0.38187648672436975,3.1599525189200848,0.0,0.0,0.0,0.0,0.0,0.400230855356991,0.0,0.0,0.01306889964980876,0.0,0.0,0.0,0.0,0.0,0.0
0.045,-0.007882887095224394,0.01327689148873355,0.9571675219379242,-0.0016166901980878608,0.02222051970893836,-0.691274607400408,-0.0076179541446622055,0.013069988288779155,0.5786016764134767,-0.023381995753503946,0.04094889519062473,-0.37174315406354,0.016172406258852436,0.022758089682852645,-0.010779909097132941,0.2543536104026076,0.3115051770987708,0.010911723923337474,0.0,0.21886652677378177,-0.38187648672436975,3.1599525189200848,0.0,0.0,0.0,0.0,0.0,0.40030072437656083,0.0,0.0,0.014876261100736476,0.0,0.0,0.0,0.0,0.0,0.0
0.049999999999999996,-0.007930371939010694,0.01336943643514459,0.9535351683390594,-0.015126378657030952,0.008316796570176251,-0.7312098484847233,-0.0076179541446622055,0.013069988288779155,0.5786016764134767,-0.023381995753503946,0.04094889519062473,-0.37174315406354,0.017771140593021532,0.02378689542110693,-0.010687586655407552,0.45596971067151887,0.12192367081285119,0.018125954230606683,0.0,0.21886652677378177,-0.38187648672436975,3.1599525189200848,0.0,0.0,0.0,0.0,0.0,0.4003795935708907,0.0,0.0,0.016668984271388368,0.0,0.0,0.0,0.0,0.0,0.0
0.05499999999999999,-0.008004985268725607,0.013355484406170086,0.9499311750518397,-0.012601657549898209,-0.010319825489926566,-0.7677333741298157,-0.008004985268725607,0.013355484406170086,0.5494637850828893,-0.012601657549898209,-0.010319825489926566,-0.7861805313615403,0.02072212653540762,0.02435393359349081,-0.010571623321068695,0.72094798292583,0.16309698320626148,0.025370936261730866,0.0,0.21886652677378177,-0.38187648672436975,3.1599525189200848,0.0,0.0,0.0,0.0,0.0,0.40046738996895037,0.0,0.0,0.018447157231724604,0.0,0.0,0.0,0.0,0.0,0.0
0.05999999999999999,-0.008036362564196396,0.013372672496045294,0.9459263390348702,-0.0031475887844811014,0.030316890359989628,-0.796692682880464,-0.008004985268725607,0.013355484406170086,0.5494637850828893,-0.012601657549898209,-0.010319825489926566,-0.7861805313615403,0.023370638221976495,0.0256329295612536,-0.010395057175484165,0.12855221820989668,0.28828361443563,0.030660391044684425,0.0,0.14150244124137148,0.0035154300338192408,8.558697501416326,0.0,0.0,0.0,0.0,0.0,0.40056404103888354,0.0,0.0,0.020210867581830744,0.0,0.0,0.0,0.0,0.0,0.0
0.06499999999999999,-0.008096573401264679,0.013700292338359885,0.9418217692735809,-0.02490263972325655,0.08717683418376979,-0.812133274144075,-0.008004985268725607,0.013355484406170086,0.5494637850828893,-0.012601657549898209,-0.010319825489926566,-0.7861805313615403,0.02153587285326269,0.02641430720438656,-0.01022881035586058,-0.6925970732440889,-0.03984844376587812,0.026666934549476398,0.0,0.14150244124137148,0.0035154300338192408,8.558697501416326,0.0,0.0,0.0,0.0,0.0,0.40066947468566505,0.0,0.0,0.02196020245426571,0.0,0.0,0.0,0.0,0.0,0.0
0.06999999999999999,-0.008274605533093376,0.01408057125665867,0.9378580083397878,-0.04423729183441662,0.05776129146246732,-0.8384905545827114,-0.008004985268725607,0.013355484406170086,0.5494637850828893,-0.012601657549898209,-0.010319825489926566,-0.7861805313615403,0.018774537402271353,0.025393019645479246,-0.010123699785347624,-0.270168844784254,-0.3120225177500913,0.027163651991471395,0.0,0.14150244124137148,0.0035154300338192408,8.558697501416326,0.0,0.0,0.0,0.0,0.0,0.40078361924876804,0.0,0.0,0.023695248516398523,0.0,0.0,0.0,0.0,0.0,0.0
0.075,-0.008476791978025424,0.01424663960681731,0.9335149664403333,-0.03024386169239673,0.01747488360586084,-0.8621176138445628,-0.008004985268725607,0.013355484406170086,0.5494637850828893,-0.012601657549898209,-0.010319825489926566,-0.7861805313615403,0.01921193544277654,0.02415403244792334,-0.010005322735795892,0.29463952186735654,-0.10813704264274579,0.027585012854170247,0.0,0.14150244124137148,0.0035154300338192408,8.558697501416326,0.0,0.0,0.0,0.0,0.0,0.40090640349984485,0.0,0.0,0.025416091972733854,0.0,0.0,0.0,0.0,0.0,0.0
0.08,-0.008580824537433918,0.014366665848976575,0.9290686968817137,-0.014641306882289703,0.03819358637357006,-0.8797242656970571,-0.008004985268725607,0.013355484406170086,0.5494637850828893,-0.012601657549898209,-0.010319825489926566,-0.7861805313615403,0.020220945761293557,0.024290097693633283,-0.009860862020044193,-0.02098405390760493,0.10276740812836468,0.028537068888786907,0.0,0.14150244124137148,0.0035154300338192408,8.558697501416326,0.0,0.0,0.0,0.0,0.0,0.40103775664041785,0.0,0.0,0.027122818567226366,0.0,0.0,0.0,0.0,0.0,0.0
0.085,-0.008653749949245922,0.014616460668104377,0.924808224352198,-0.01877960322703565,0.060060578020413466,-0.8947279240244965,-0.008004985268725607,0.013355484406170086,0.5494637850828893,-0.012601657549898209,-0.010319825489926566,-0.7861805313615403,0.01913783911961735,0.024701803814771224,-0.009711116306974169,-0.3486755299913344,0.028966044865406007,0.02963818953660841,0.0,0.14150244124137148,0.0035154300338192408,8.558697501416326,0.0,0.0,0.0,0.0,0.0,0.40117760829958227,0.0,0.0,0.028815513585584013,0.0,0.0,0.0,0.0,0.0,0.0
0.09000000000000001,-0.008777124013669731,0.014909106704184417,0.9201986755803437,-0.02786249023246943,0.04965822250697791,-0.9118394382574098,-0.008004985268725607,0.013355484406170086,0.5494637850828893,-0.012601657549898209,-0.010319825489926566,-0.7861805313615403,0.017530066116512352,0.024427804141994643,-0.009567734542329141,-0.21243348473661278,-0.10900392947885869,0.0289072199234926,0.0,0.14150244124137148,0.0035154300338192408,8.558697501416326,0.0,0.0,0.0,0.0,0.0,0.4013258885317216,0.0,0.0,0.030494261857560257,0.0,0.0,0.0,0.0,0.0,0.0
0.09500000000000001,-0.008919134707667545,0.015124715146414147,0.9155013864397175,-0.026065313843169676,0.03712942740629677,-0.9292169763003711,-0.008004985268725607,0.013355484406170086,0.5494637850828893,-0.012601657549898209,-0.010319825489926566,-0.7861805313615403,0.01695927311377556,0.023863131264801045,-0.009428005927282417,-0.04491413081233681,-0.08663086694444809,0.030014177884893616,0.0,0.14150244124137148,0.0035154300338192408,8.558697501416326,0.0,0.0,0.0,0.0,0.0,0.40148252781423244,0.0,0.0,0.03215914775923528,0.0,0.0,0.0,0.0,0.0,0.0
0.10000000000000002,-0.009026487738661756,0.015301052309140181,0.911001464220858,-0.019568386174198225,0.03883640894631847,-0.9448719870594883,-0.008004985268725607,0.013355484406170086,0.5494637850828893,-0.012601657549898209,-0.010319825489926566,-0.7861805313615403,0.016742884985557097,0.023688327116600676,-0.009281337535783082,-0.08207257888069436,0.0010878028549865927,0.032025146649208885,0.0,0.14150244124137148,0.0035154300338192408,8.558697501416326,0.0,0.0,0.0,0.0,0.0,0.40164745704526283,0.0,0.0,0.03381025521528627,0.0,0.0,0.0,0.0,0.0,0.0
0.10500000000000002,-0.009119276954903235,0.015513759935482867,0.9061390443259246,-0.018471767258711354,0.04381433704263177,-0.9612225029849,-0.009119276954903235,0.015513759935482867,0.5043184367844646,-0.018471767258711354,0.04381433704263177,-0.9966701706861468,0.016085020002847925,0.023767778108473504,-0.00911622289531284,-0.16639126586144382,0.008139612354921407,0.03133564800639878,0.0,0.14150244124137148,0.0035154300338192408,8.558697501416326,0.0,0.0,0.0,0.0,0.0,0.40182060754146,0.0,0.0,0.03544766770124683,0.0,0.0,0.0,0.0,0.0,0.0
0.11000000000000003,-0.009221852296727336,0.015708696122240563,0.9012090187717261,-0.02207584160097475,0.02890062666192235,-0.9698867216369595,-0.009119276954903235,0.015513759935482867,0.5043184367844646,-0.018471767258711354,0.04381433704263177,-0.9966701706861468,0.015619925305214218,0.023667416551540317,-0.008964695062805696,0.035953625873774486,-0.05017917002036434,0.02931323987039661,0.0,0.19489014106090094,-0.4247647396961903,12.015940623205022,0.0,0.0,0.0,0.0,0.0,0.4020019110357309,0.0,0.0,0.03707146824575544,0.0,0.0,0.0,0.0,0.0,0.0
0.11500000000000003,-0.00933074755663805,0.015812993562436716,0.8965414901593991,-0.022639885101919117,0.01832403537351567,-0.9747502246241522,-0.009119276954903235,0.015513759935482867,0.5043184367844646,-0.018471767258711354,0.04381433704263177,-0.9966701706861468,0.016253949280499048,0.023373732038260688,-0.008821779167043114,0.17434077455686373,-0.06200399460100511,0.0328949014315347,0.0,0.19489014106090094,-0.4247647396961903,12.015940623205022,0.0,0.0,0.0,0.0,0.0,0.402191299675013,0.0,0.0,0.03868173943279329,0.0,0.0,0.0,0.0,0.0,0.0
0.12000000000000004,-0.009441210142201046,0.015916780509332415,0.8915566141635756,-0.020491111770028016,0.024629680522114006,-0.979721227861503,-0.009119276954903235,0.015513759935482867,0.5043184367844646,-0.018471767258711354,0.04381433704263177,-0.9966701706861468,0.01695420518640452,0.02311197101245081,-0.00864131647797919,0.06868099337882148,-0.03747614455380513,0.03859433644818204,0.0,0.19489014106090094,-0.4247647396961903,12.015940623205022,0.0,0.0,0.0,0.0,0.0,0.40238870601805676,0.0,0.0,0.04027856340391121,0.0,0.0,0.0,0.0,0.0,0.0
0.12500000000000003,-0.00954341750540369,0.01605912018234632,0.8865460418327283,-0.01988151625676707,0.02923423202580129,-0.984843481941642,-0.009119276954903235,0.015513759935482867,0.5043184367844646,-0.018471767258711354,0.04381433704263177,-0.9966701706861468,0.017036707437739836,0.022932007008915258,-0.008442199083181888,-0.008800649952749838,-0.03547677545739569,0.04005664465113974,0.0,0.19489014106090094,-0.4247647396961903,12.015940623205022,0.0,0.0,0.0,0.0,0.0,0.4025940630332189,0.0,0.0,0.04186202186044599,0.0,0.0,0.0,0.0,0.0,0.0
0.13000000000000003,-0.009636027988797721,0.01619215025692115,0.8818069818493413,-0.018786925232826296,0.025342360753929136,-0.9894677023004461,-0.009119276954903235,0.015513759935482867,0.5043184367844646,-0.018471767258711354,0.04381433704263177,-0.9966701706861468,0.017078187060777895,0.022788948470197048,-0.008250177154473036,0.03696326545641545,-0.02364006584508996,0.0413577382296581,0.0,0.19489014106090094,-0.4247647396961903,12.015940623205022,0.0,0.0,0.0,0.0,0.0,0.40280730409626664,0.0,0.0,0.04343219606572607,0.0,0.0,0.0,0.0,0.0,0.0
0.13500000000000004,-0.009732640960768722,0.016309710971699833,0.8767449251079136,-0.01918229348275699,0.021449660449922858,-0.9952390307022362,-0.009119276954903235,0.015513759935482867,0.5043184367844646,-0.018471767258711354,0.04381433704263177,-0.9966701706861468,0.017401139688573285,0.02264254937882359,-0.008029967993197619,0.07818548682652428,-0.03389385334310337,0.046036250896568084,0.0,0.19489014106090094,-0.4247647396961903,12.015940623205022,0.0,0.0,0.0,0.0,0.0,0.403028362988194,0.0,0.0,0.04498916684726656,0.0,0.0,0.0,0.0,0.0,0.0
0.14000000000000004,-0.009830146783144552,0.01642360652586504,0.8716539858334184,-0.018853504624727208,0.023857496827994974,-1.0009119053296356,-0.009119276954903235,0.015513759935482867,0.5043184367844646,-0.018471767258711354,0.04381433704263177,-0.9966701706861468,0.017687361674633736,0.022451587725635214,-0.007788220373711284,0.02394850797854417,-0.03652641527729765,0.049188943278442594,0.0,0.19489014106090094,-0.4247647396961903,12.015940623205022,0.0,0.0,0.0,0.0,0.0,0.4032571738930468,0.0,0.0,0.046533014598953766,0.0,0.0,0.0,0.0,0.0,0.0
0.14500000000000005,-0.009917928788566087,0.01653823337085874,0.8668347503290185,-0.017595256477148727,0.023425882372223056,-1.0067328589288698,-0.009119276954903235,0.015513759935482867,0.5043184367844646,-0.018471767258711354,0.04381433704263177,-0.9966701706861468,0.017761524888546976,0.022296009030708278,-0.007557764820090817,0.013491480961399793,-0.024285035330100974,0.047563096411172213,0.0,0.19489014106090094,-0.4247647396961903,12.015940623205022,0.0,0.0,0.0,0.0,0.0,0.40349367139576164,0.0,0.0,0.04806381928321922,0.0,0.0,0.0,0.0,0.0,0.0
0.15000000000000005,-0.010007374261222118,0.01665477296921966,0.8616827015538374,-0.017650972128406606,0.022031032234666053,-1.0131089669890427,-0.009119276954903235,0.015513759935482867,0.5043184367844646,-0.018471767258711354,0.04381433704263177,-0.9966701706861468,0.017838383038305806,0.022160462034475314,-0.007322203809256765,0.019362167051571046,-0.02946536011383843,0.046224209611996886,0.0,0.19489014106090094,-0.4247647396961903,12.015940623205022,0.0,0.0,0.0,0.0,0.0,0.40373779048001235,0.0,0.0,0.0495816604332033,0.0,0.0,0.0,0.0,0.0,0.0
0.15500000000000005,-0.010096346477225706,0.0167648475134372,0.8564995769900517,-0.017088286130736985,0.02124741555258915,-1.0189954430920714,-0.010096346477225706,0.0167648475134372,0.4525101104639816,-0.017088286130736985,0.02124741555258915,-1.0700820602469796,0.017938201456081534,0.0220107600675014,-0.007085225599845761,0.017030305981088463,-0.025391832633803083,0.04795965086823256,0.0,0.19489014106090094,-0.4247647396961903,12.015940623205022,0.0,0.0,0.0,0.0,0.0,0.40398946652607015,0.0,0.0,0.0510866171549083,0.0,0.0,0.0,0.0,0.0,0.0
0.16000000000000006,-0.010177608599310979,0.016873026703315294,0.8516059466706007,-0.016999229825172886,0.024949092040632705,-1.0187913399034756,-0.010096346477225706,0.0167648475134372,0.4525101104639816,-0.017088286130736985,0.02124741555258915,-1.0700820602469796,0.01790201614543723,0.021884784934649827,-0.00685361602222005,-0.04954260432625365,-0.028556866861792832,0.04875356203054513,0.0,0.19263953302575132,-0.2647651569176268,14.068453825499198,0.0,0.0,0.0,0.0,0.0,0.40424863530867283,0.0,0.0,0.052578768129341355,0.0,0.0,0.0,0.0,0.0,0.0
0.16500000000000006,-0.010263124643523374,0.017009089932179547,0.846419344359679,-0.016367195840157805,0.026599403931441994,-1.0153000127020355,-0.010096346477225706,0.0167648475134372,0.4525101104639816,-0.017088286130736985,0.02124741555258915,-1.0700820602469796,0.017493998800113167,0.02174409198695293,-0.0066172124342048205,-0.0862823705296175,-0.02253099836713237,0.04426249828249231,0.0,0.19263953302575132,-0.2647651569176268,14.068453825499198,0.0,0.0,0.0,0.0,0.0,0.4045152329949051,0.0,0.0,0.05405819161464694,0.0,0.0,0.0,0.0,0.0,0.0
0.17000000000000007,-0.010343585575482234,0.017134954432150573,0.8412484925491126,-0.015142395610442257,0.02160112731165511,-1.0125788365056154,-0.010096346477225706,0.0167648475134372,0.4525101104639816,-0.017088286130736985,0.02124741555258915,-1.0700820602469796,0.01716571411054015,0.02165834167872814,-0.006408495539400559,-0.027833986413216393,-0.009141154599402023,0.038666394698043546,0.0,0.19263953302575132,-0.2647651569176268,14.068453825499198,0.0,0.0,0.0,0.0,0.0,0.40478919614208964,0.0,0.0,0.055524965448229116,0.0,0.0,0.0,0.0,0.0,0.0
0.17500000000000007,-0.010416941239310015,0.017230666034506823,0.8363930957419905,-0.015959433191581582,0.019048869157801396,-1.010419897295695,-0.010096346477225706,0.0167648475134372,0.4525101104639816,-0.017088286130736985,0.02124741555258915,-1.0700820602469796,0.017112939105720957,0.021591896612263173,-0.0062287619713870266,-0.006015838794006519,-0.02462510254813806,0.03735854022868373,0.0,0.19263953302575132,-0.2647651569176268,14.068453825499198,0.0,0.0,0.0,0.0,0.0,0.40507046169568883,0.0,0.0,0.056979167048863626,0.0,0.0,0.0,0.0,0.0,0.0
0.18000000000000008,-0.010502851710066386,0.0173340200769231,0.8312469449890046,-0.017669534967906277,0.02200498899941001,-1.0075879635954121,-0.010096346477225706,0.0167648475134372,0.4525101104639816,-0.017088286130736985,0.02124741555258915,-1.0700820602469796,0.016959703088499634,0.021390160151023723,-0.006038557410383841,-0.06199479700658074,-0.05280823134068748,0.03874101622063388,0.0,0.19263953302575132,-0.2647651569176268,14.068453825499198,0.0,0.0,0.0,0.0,0.0,0.40535896698721685,0.0,0.0,0.058420873418799785,0.0,0.0,0.0,0.0,0.0,0.0
0.18500000000000008,-0.010590741663124053,0.017449891172673572,0.8261160081558198,-0.016036054044699315,0.022269099698443574,-1.0042512005957849,-0.010096346477225706,0.0167648475134372,0.4525101104639816,-0.017088286130736985,0.02124741555258915,-1.0700820602469796,0.016563818766417823,0.021137210252737394,-0.005842813995368787,-0.07854045786812218,-0.034683387229151895,0.03950875471896449,0.0,0.19263953302575132,-0.2647651569176268,14.068453825499198,0.0,0.0,0.0,0.0,0.0,0.4056546497321616,0.0,0.0,0.05985016114585228,0.0,0.0,0.0,0.0,0.0,0.0
0.19000000000000009,-0.010661874143927283,0.017549113663512972,0.8213034568305024,-0.013574698929577148,0.018413397460829144,-1.000979170533662,-0.010096346477225706,0.0167648475134372,0.4525101104639816,-0.017088286130736985,0.02124741555258915,-1.0700820602469796,0.016267355712528683,0.021038959112730394,-0.005652667812012406,-0.03704318901564948,-0.004176784068742209,0.04035214478940759,0.0,0.19263953302575132,-0.2647651569176268,14.068453825499198,0.0,0.0,0.0,0.0,0.0,0.4059574480279191,0.0,0.0,0.06126710640548294,0.0,0.0,0.0,0.0,0.0,0.0
0.1950000000000001,-0.010729535551024995,0.017640157401087802,0.8162080318456636,-0.013545707341980118,0.017099723809598903,-0.9974188570868976,-0.010096346477225706,0.0167648475134372,0.4525101104639816,-0.017088286130736985,0.02124741555258915,-1.0700820602469796,0.016084457262435573,0.02102607077785669,-0.0054440515476260574,-0.03285735457304552,-0.007756304688229233,0.04102904526759498,0.0,0.19263953302575132,-0.2647651569176268,14.068453825499198,0.0,0.0,0.0,0.0,0.0,0.4062673003517354,0.0,0.0,0.0626717849628724,0.0,0.0,0.0,0.0,0.0,0.0
0.2000000000000001,-0.010800267765645643,0.01772896748672767,0.8111283643218308,-0.014233070572500117,0.017304122937599673,-0.9945582045023869,-0.010096346477225706,0.0167648475134372,0.4525101104639816,-0.017088286130736985,0.02124741555258915,-1.0700820602469796,0.015859429313575674,0.02094879465763706,-0.005240572405889315,-0.050544361398979075,-0.021955516860833656,0.03873284880049259,0.0,0.19263953302575132,-0.2647651569176268,14.068453825499198,0.0,0.0,0.0,0.0,0.0,0.4065841455586616,0.0,0.0,0.0640642721749819,0.0,0.0,0.0,0.0,0.0,0.0
0.2050000000000001,-0.010871168472749106,0.017808805968106443,0.8063595712833747,-0.015281411326134399,0.01596725622361883,-0.9925479365566899,-0.010871168472749106,0.017808805968106443,0.3994516484038577,-0.015281411326134399,0.01596725622361883,-1.057992579549295,0.015634565702331498,0.02079566620202987,-0.005065882636130521,-0.0441243350757418,-0.04005350048653519,0.03562737069715104,0.0,0.19263953302575132,-0.2647651569176268,14.068453825499198,0.0,0.0,0.0,0.0,0.0,0.40690792287951694,0.0,0.0,0.06544464299260506,0.0,0.0,0.0,0.0,0.0,0.0
0.2100000000000001,-0.010952450481314786,0.017889022675436923,0.801311229295966,-0.016590371945603043,0.015712575913490127,-0.98671054851944,-0.010871168472749106,0.017808805968106443,0.3994516484038577,-0.015281411326134399,0.01596725622361883,-1.057992579549295,0.015397598128642475,0.020533696898336846,-0.004892466035301568,-0.05300190399149751,-0.06224049524212453,0.03434394198388902,0.0,0.18626325717288267,-0.23510630259400617,15.175125580841923,0.0,0.0,0.0,0.0,0.0,0.4072385719188636,0.0,0.0,0.06681297196240991,0.0,0.0,0.0,0.0,0.0,0.0
0.2150000000000001,-0.011034638446582836,0.01797283290637197,0.7963003079776384,-0.015232430647755419,0.016126683211044043,-0.9786133851457454,-0.010871168472749106,0.017808805968106443,0.3994516484038577,-0.015281411326134399,0.01596725622361883,-1.057992579549295,0.01504606774358149,0.02023770801394464,-0.004722342648093616,-0.07151901084175906,-0.04706857239723049,0.034330193388585686,0.0,0.18626325717288267,-0.23510630259400617,15.175125580841923,0.0,0.0,0.0,0.0,0.0,0.40757603265299125,0.0,0.0,0.06816933322897092,0.0,0.0,0.0,0.0,0.0,0.0
0.2200000000000001,-0.011102768099525711,0.01804668637968832,0.7916229729377844,-0.01311952467660533,0.013793334419998431,-0.9705769663693659,-0.010871168472749106,0.017808805968106443,0.3994516484038577,-0.015281411326134399,0.01596725622361883,-1.057992579549295,0.01472980791913659,0.020072154366815066,-0.004558973771713513,-0.049223720364994665,-0.020241843851438734,0.034754926281731935,0.0,0.18626325717288267,-0.23510630259400617,15.175125580841923,0.0,0.0,0.0,0.0,0.0,0.40792024542791083,0.0,0.0,0.06951380053679138,0.0,0.0,0.0,0.0,0.0,0.0
0.22500000000000012,-0.011169553906529038,0.018112723301548155,0.786694460353674,-0.013167723747792884,0.012448478074861422,-0.9625446654529879,-0.010871168472749106,0.017808805968106443,0.3994516484038577,-0.015281411326134399,0.01596725622361883,-1.057992579549295,0.014516481387700892,0.019957701137766227,-0.004383294671577092,-0.040499451977191236,-0.024900751017645738,0.03445784640443123,0.0,0.18626325717288267,-0.23510630259400617,15.175125580841923,0.0,0.0,0.0,0.0,0.0,0.40827115095736055,0.0,0.0,0.07084644723231605,0.0,0.0,0.0,0.0,0.0,0.0
0.23000000000000012,-0.011236754049727862,0.018175829916496224,0.781805418929868,-0.012963161201803807,0.012715210455409031,-0.9553888938281632,-0.010871168472749106,0.017808805968106443,0.3994516484038577,-0.015281411326134399,0.01596725622361883,-1.057992579549295,0.014291663938486023,0.01981561062238253,-0.004208647820593173,-0.05466262942865846,-0.026235160440404963,0.03460766926819584,0.0,0.18626325717288267,-0.23510630259400617,15.175125580841923,0.0,0.0,0.0,0.0,0.0,0.4086286903208194,0.0,0.0,0.07216734626593393,0.0,0.0,0.0,0.0,0.0,0.0
0.23500000000000013,-0.011299562753748969,0.018238093467834872,0.7772353957159378,-0.013325800109381704,0.013484020821528457,-0.9495503483771361,-0.010871168472749106,0.017808805968106443,0.3994516484038577,-0.015281411326134399,0.01596725622361883,-1.057992579549295,0.013997449823045486,0.019672830095509537,-0.004047380979259009,-0.07221197627808669,-0.03354904952392013,0.033058410899427446,0.0,0.18626325717288267,-0.23510630259400617,15.175125580841923,0.0,0.0,0.0,0.0,0.0,0.40899280496153245,0.0,0.0,0.07347657019397169,0.0,0.0,0.0,0.0,0.0,0.0
0.24000000000000013,-0.01136659480585519,0.018309049936128936,0.772409095760239,-0.013284557234946814,0.014240577799245943,-0.9436754484292192,-0.010871168472749106,0.017808805968106443,0.3994516484038577,-0.015281411326134399,0.01596725622361883,-1.057992579549295,0.013593839934238646,0.019512890142703125,-0.003889533232468345,-0.08593819600190487,-0.033329412212121795,0.030218731053928152,0.0,0.18626325717288267,-0.23510630259400617,15.175125580841923,0.0,0.0,0.0,0.0,0.0,0.4093634366845452,0.0,0.0,0.07477419118067714,0.0,0.0,0.0,0.0,0.0,0.0
0.24500000000000013,-0.011434905729917396,0.018378283150384655,0.767613999963768,-0.013476973718756495,0.01216218980454812,-0.9370711792568815,-0.010871168472749106,0.017808805968106443,0.3994516484038577,-0.015281411326134399,0.01596725622361883,-1.057992579549295,0.01319805972826884,0.019329059238215356,-0.0037424841026470835,-0.060562006484201576,-0.03808048651591334,0.028695051994673273,0.0,0.18626325717288267,-0.23510630259400617,15.175125580841923,0.0,0.0,0.0,0.0,0.0,0.40974052765474867,0.0,0.0,0.0760602810001935,0.0,0.0,0.0,0.0,0.0,0.0
0.2500000000000001,-0.011498005433119608,0.018428109754708297,0.7631334695305388,-0.012581923411216089,0.008576552501126034,-0.9299430553865661,-0.010871168472749106,0.017808805968106443,0.3994516484038577,-0.015281411326134399,0.01596725622361883,-1.057992579549295,0.013014886750559593,0.019162457552900792,-0.0036068848552549292,-0.016886704943560017,-0.02766671168467334,0.02842677778225502,0.0,0.18626325717288267,-0.23510630259400617,15.175125580841923,0.0,0.0,0.0,0.0,0.0,0.41012402039493323,0.0,0.0,0.07733491103852384,0.0,0.0,0.0,0.0,0.0,0.0
0.2550000000000001,-0.011561391251949493,0.01846607494791059,0.7584119868770853,-0.012650196126018682,0.007177447835376169,-0.9218898556469509,-0.011561391251949493,0.01846607494791059,0.34789812909323226,-0.012650196126018682,0.007177447835376169,-1.0004880079424372,0.012987876360796641,0.01902429767061581,-0.003462955777894513,-0.006748307302499785,-0.03139584893723024,0.02897530986705247,0.0,0.18626325717288267,-0.23510630259400617,15.175125580841923,0.0,0.0,0.0,0.0,0.0,0.4105138577838531,0.0,0.0,0.0785981522954863,0.0,0.0,0.0,0.0,0.0,0.0
0.2600000000000001,-0.011628898613423228,0.01850890485365759,0.753734313851074,-0.01432532602512642,0.010438093231042465,-0.9125388376436845,-0.011561391251949493,0.01846607494791059,0.34789812909323226,-0.012650196126018682,0.007177447835376169,-1.0004880079424372,0.01284169109424595,0.018809065760686142,-0.0033097408001100904,-0.06348655071624561,-0.05949966145665077,0.032007894821460534,0.0,0.17323999316729347,-0.17656549487112913,15.729324430532587,0.0,0.0,0.0,0.0,0.0,0.4109099830542998,0.0,0.0,0.07985007538665972,0.0,0.0,0.0,0.0,0.0,0.0
0.2650000000000001,-0.011698930699461266,0.018565920845314506,0.7493781210602211,-0.01463012858564446,0.012859381516135159,-0.9028784047500664,-0.011561391251949493,0.01846607494791059,0.34789812909323226,-0.012650196126018682,0.007177447835376169,-1.0004880079424372,0.012415578314879872,0.018494691843188926,-0.0031618351644442195,-0.10939939702866908,-0.06806277658243008,0.030850830784219945,0.0,0.17323999316729347,-0.17656549487112913,15.729324430532587,0.0,0.0,0.0,0.0,0.0,0.41131233979118653,0.0,0.0,0.08109075054532004,0.0,0.0,0.0,0.0,0.0,0.0
0.27000000000000013,-0.011763916121874688,0.018628000302301016,0.7448000189631456,-0.010014497404104455,0.01065585573118195,-0.8927765067971974,-0.011561391251949493,0.01846607494791059,0.34789812909323226,-0.012650196126018682,0.007177447835376169,-1.0004880079424372,0.01187992684430337,0.01826536303932396,-0.0030121081922138354,-0.08976121910080583,-0.00919587167858121,0.02940912364831604,0.0,0.17323999316729347,-0.17656549487112913,15.729324430532587,0.0,0.0,0.0,0.0,0.0,0.41172087192964124,0.0,0.0,0.08232024762436707,0.0,0.0,0.0,0.0,0.0,0.0
0.27500000000000013,-0.011812148750285347,0.018672051701882356,0.7402748517303263,-0.009490004295004448,0.007287068125814124,-0.8821085356353665,-0.011561391251949493,0.01846607494791059,0.34789812909323226,-0.012650196126018682,0.007177447835376169,-1.0004880079424372,0.011549198380576118,0.018238871715664885,-0.0028583347018939493,-0.04988356913787156,-0.007903515740182537,0.0305064169141252,0.0,0.17323999316729347,-0.17656549487112913,15.729324430532587,0.0,0.0,0.0,0.0,0.0,0.41213552375310925,0.0,0.0,0.0835386360982424,0.0,0.0,0.0,0.0,0.0,0.0
0.28000000000000014,-0.011860511788266326,0.018702212735013442,0.7360681301631925,-0.010829105808652637,0.006551529395001363,-0.8714786101456806,-0.011561391251949493,0.01846607494791059,0.34789812909323226,-0.012650196126018682,0.007177447835376169,-1.0004880079424372,0.011371963388485996,0.018153355270255658,-0.002718353353333018,-0.0426187802855338,-0.028920334082157724,0.02777828895542054,0.0,0.17323999316729347,-0.17656549487112913,15.729324430532587,0.0,0.0,0.0,0.0,0.0,0.4125562398914657,0.0,0.0,0.08474598506483777,0.0,0.0,0.0,0.0,0.0,0.0
0.28500000000000014,-0.011916273843110052,0.018742332150011972,0.7316523911677644,-0.011324315081934593,0.009607316321365817,-0.860877701064269,-0.011561391251949493,0.01846607494791059,0.34789812909323226,-0.012650196126018682,0.007177447835376169,-1.0004880079424372,0.011054553401561458,0.017997999584326015,-0.002588568992878292,-0.0900762699688486,-0.03591426313746919,0.02470887261470304,0.0,0.17323999316729347,-0.17656549487112913,15.729324430532587,0.0,0.0,0.0,0.0,0.0,0.41298296531913825,0.0,0.0,0.08594236324739417,0.0,0.0,0.0,0.0,0.0,0.0
0.29000000000000015,-0.011974801975207748,0.0187931964551716,0.7272882446548034,-0.011447655591385785,0.009260054499517636,-0.8511821286025525,-0.011561391251949493,0.01846607494791059,0.34789812909323226,-0.012650196126018682,0.007177447835376169,-1.0004880079424372,0.01054785260312857,0.017801402467134197,-0.002461110413584427,-0.09551456652025607,-0.03839139338456191,0.02644931341106959,0.0,0.17323999316729347,-0.17656549487112913,15.729324430532587,0.0,0.0,0.0,0.0,0.0,0.4134156453532377,0.0,0.0,0.0871278389963921,0.0,0.0,0.0,0.0,0.0,0.0
0.29500000000000015,-0.012029639750429002,0.018825402193015154,0.7232249319084836,-0.01129063873035566,0.004260831172229082,-0.8424983745093891,-0.011561391251949493,0.01846607494791059,0.34789812909323226,-0.012650196126018682,0.007177447835376169,-1.0004880079424372,0.01023140880020062,0.0176119966086411,-0.0023352843419076107,-0.038308713025637486,-0.0390224338214178,0.02625945867380206,0.0,0.17323999316729347,-0.17656549487112913,15.729324430532587,0.0,0.0,0.0,0.0,0.0,0.4138542256516995,0.0,0.0,0.08830248029143234,0.0,0.0,0.0,0.0,0.0,0.0
0.30000000000000016,-0.01208448027793746,0.018839557961695712,0.7189539648850902,-0.010469593311313263,0.002526613000218088,-0.8329576219924857,-0.011561391251949493,0.01846607494791059,0.34789812909323226,-0.012650196126018682,0.007177447835376169,-1.0004880079424372,0.010115527287494118,0.017440161123369408,-0.002205570637219203,-0.023464710416491546,-0.03163917999983964,0.02538239245977419,0.0,0.17323999316729347,-0.17656549487112913,15.729324430532587,0.0,0.0,0.0,0.0,0.0,0.41429865221143347,0.0,0.0,0.08946635474310793,0.0,0.0,0.0,0.0,0.0,0.0
0.30500000000000016,-0.01213572885850597,0.01885754336596522,0.7147333082518987,-0.009906990593919213,0.004457465940136533,-0.8225612133266083,-0.01213572885850597,0.01885754336596522,0.29998443688541454,-0.009906990593919213,0.004457465940136533,-0.9131807429214752,0.009916722494088055,0.01729264589843558,-0.002079812154137541,-0.05377624753390646,-0.030048629944319966,0.02357389236285192,0.0,0.17323999316729347,-0.17656549487112913,15.729324430532587,0.0,0.0,0.0,0.0,0.0,0.4147488713664842,0.0,0.0,0.09061952959486701,0.0,0.0,0.0,0.0,0.0,0.0
0.31000000000000016,-0.012185122052284976,0.01888609544505204,0.7108109195661872,-0.011165858014760496,0.00644727364685357,-0.8120918575051222,-0.01213572885850597,0.01885754336596522,0.29998443688541454,-0.009906990593919213,0.004457465940136533,-0.9131807429214752,0.009555917366672944,0.01710410961865318,-0.0019794700809277472,-0.08368875139524379,-0.05498622710837471,0.01905628764242865,0.0,0.15879260090044234,-0.16278823369607917,15.856278966624194,0.0,0.0,0.0,0.0,0.0,0.41520482978619944,0.0,0.0,0.09176207172486651,0.0,0.0,0.0,0.0,0.0,0.0
0.31500000000000017,-0.012240096241482694,0.018917651843725482,0.7067002218787352,-0.010206678465324545,0.005268568206607666,-0.8006776718721862,-0.01213572885850597,0.01885754336596522,0.29998443688541454,-0.009906990593919213,0.004457465940136533,-0.9131807429214752,0.009141731412670313,0.016835729278040685,-0.0018936289554473628,-0.07086232022761718,-0.04735444338173135,0.01631611983070029,0.0,0.15879260090044234,-0.16278823369607917,15.856278966624194,0.0,0.0,0.0,0.0,0.0,0.415666474473408,0.0,0.0,0.09289404764781724,0.0,0.0,0.0,0.0,0.0,0.0
0.3200000000000002,-0.01228316615841218,0.0189358084242742,0.7026490581627766,-0.007209937647116891,0.0023415541756121446,-0.7890461785739472,-0.01213572885850597,0.01885754336596522,0.29998443688541454,-0.009906990593919213,0.004457465940136533,-0.9131807429214752,0.008886636467054862,0.016702931974234433,-0.0018080433437912581,-0.037433540834124805,-0.011650886621664854,0.01833260212139708,0.0,0.15879260090044234,-0.16278823369607917,15.856278966624194,0.0,0.0,0.0,0.0,0.0,0.41613375276260767,0.0,0.0,0.09401552351681979,0.0,0.0,0.0,0.0,0.0,0.0
0.3250000000000002,-0.012315273827206215,0.01894760126440219,0.6988872052490156,-0.006806855272375657,0.002723968606391491,-0.7790631803307718,-0.01213572885850597,0.01885754336596522,0.29998443688541454,-0.009906990593919213,0.004457465940136533,-0.9131807429214752,0.008670980416811368,0.016666853086518604,-0.0017098607059190865,-0.05537199807942715,-0.01174461730376506,0.02203899362202132,0.0,0.15879260090044234,-0.16278823369607917,15.856278966624194,0.0,0.0,0.0,0.0,0.0,0.41660661231816165,0.0,0.0,0.09512656512519153,0.0,0.0,0.0,0.0,0.0,0.0
0.3300000000000002,-0.012352193743639377,0.018962627706031045,0.6949399424542622,-0.007727928123609952,0.0027887420694923627,-0.7693645026667608,-0.01213572885850597,0.01885754336596522,0.29998443688541454,-0.009906990593919213,0.004457465940136533,-0.9131807429214752,0.008342202573773527,0.016562073048645726,-0.001600071619313277,-0.06774781520039438,-0.030062313167984304,0.02031323652911315,0.0,0.15879260090044234,-0.16278823369607917,15.856278966624194,0.0,0.0,0.0,0.0,0.0,0.4170850011325039,0.0,0.0,0.09622723790828512,0.0,0.0,0.0,0.0,0.0,0.0
0.3350000000000002,-0.0123860578667463,0.018971402417151728,0.691041224107648,-0.005454186274093461,0.0001506942612543652,-0.7602494248496934,-0.01213572885850597,0.01885754336596522,0.29998443688541454,-0.009906990593919213,0.004457465940136533,-0.9131807429214752,0.00805626566917625,0.016463793911720783,-0.001514136125853635,-0.03745577786841986,-0.007281274052120056,0.013053178138985173,0.0,0.15879260090044234,-0.16278823369607917,15.856278966624194,0.0,0.0,0.0,0.0,0.0,0.41756886752435407,0.0,0.0,0.09731760694529785,0.0,0.0,0.0,0.0,0.0,0.0
0.3400000000000002,-0.012411424246651455,0.01896529465901204,0.687412801426232,-0.006157182503951412,-0.0015411382722070452,-0.7521976552961521,-0.01213572885850597,0.01885754336596522,0.29998443688541454,-0.009906990593919213,0.004457465940136533,-0.9131807429214752,0.007959671347007688,0.016417193407898226,-0.0014825591781434829,-0.01883871725896623,-0.025379765767876112,0.0016040257191915163,0.0,0.15879260090044234,-0.16278823369607917,15.856278966624194,0.0,0.0,0.0,0.0,0.0,0.4180581601369411,0.0,0.0,0.09839773696107249,0.0,0.0,0.0,0.0,0.0,0.0
0.3450000000000002,-0.012452976123800792,0.018959996371981133,0.683600681378636,-0.010060580445594563,-0.00037435281013737005,-0.7427895975575758,-0.01213572885850597,0.01885754336596522,0.29998443688541454,-0.009906990593919213,0.004457465940136533,-0.9131807429214752,0.007820287295456009,0.016137352297169682,-0.001489483841022478,-0.03797360188180457,-0.0832390079626432,-0.0011756434858045401,0.0,0.15879260090044234,-0.16278823369607917,15.856278966624194,0.0,0.0,0.0,0.0,0.0,0.41855282793623594,0.0,0.0,0.09946769232788925,0.0,0.0,0.0,0.0,0.0,0.0
0.3500000000000002,-0.012505009608001359,0.01895784662947353,0.6798412485059135,-0.009693107081921231,-0.0006804259206671815,-0.7318941668076514,-0.01213572885850597,0.01885754336596522,0.29998443688541454,-0.009906990593919213,0.004457465940136533,-0.9131807429214752,0.007615385194586822,0.015698451761694803,-0.0014844940759796265,-0.040663498659481906,-0.08058864553823591,0.0052581413520598076,0.0,0.15879260090044234,-0.16278823369607917,15.856278966624194,0.0,0.0,0.0,0.0,0.0,0.41905282020919365,0.0,0.0,0.1005275370672493,0.0,0.0,0.0,0.0,0.0,0.0
0.3550000000000002,-0.012539926273102384,0.01894957360955215,0.6763538024063569,-0.0054170885307593016,-0.002221630054962815,-0.7220751117349266,-0.012539926273102384,0.01894957360955215,0.2567957158443541,-0.0054170885307593016,-0.002221630054962815,-0.8236524465865761,0.007463065584688301,0.015471266570122565,-0.0014330160983240272,-0.030389830066497064,-0.0218121454221727,0.016709719381414655,0.0,0.15879260090044234,-0.16278823369607917,15.856278966624194,0.0,0.0,0.0,0.0,0.0,0.4195580865620028,0.0,0.0,0.10157733485164956,0.0,0.0,0.0,0.0,0.0,0.0
0.3600000000000002,-0.01255771737731381,0.018943179557181413,0.6726977749853027,-0.0026469609544673856,0.0005759531825703752,-0.7123008278533315,-0.012539926273102384,0.01894957360955215,0.2567957158443541,-0.0054170885307593016,-0.002221630054962815,-0.8236524465865761,0.007224211087787335,0.015490072136977092,-0.0013163484653676812,-0.07473773524753599,0.01375567123946311,0.027182152766792027,0.0,0.13009616828822265,-0.11711356725089868,15.847417631738386,0.0,0.0,0.0,0.0,0.0,0.42006857691834654,0.0,0.0,0.10261714900634873,0.0,0.0,0.0,0.0,0.0,0.0
0.3650000000000002,-0.012573144895046285,0.018953055738360116,0.6690925406953676,-0.0038709155055750254,0.0021265863962260743,-0.7021388466164962,-0.012539926273102384,0.01894957360955215,0.2567957158443541,-0.0054170885307593016,-0.002221630054962815,-0.8236524465865761,0.006748463943947182,0.015514045189757722,-0.0011718248342249852,-0.09671939608431043,-0.010496300921983528,0.027414160600828786,0.0,0.13009616828822265,-0.11711356725089868,15.847417631738386,0.0,0.0,0.0,0.0,0.0,0.42058424151766893,0.0,0.0,0.10364704251112512,0.0,0.0,0.0,0.0,0.0,0.0
0.3700000000000002,-0.012595038565344911,0.01895650925052544,0.6657452985095724,-0.005458700938548085,-0.0011298476728578716,-0.6930671013758206,-0.012539926273102384,0.01894957360955215,0.2567957158443541,-0.0054170885307593016,-0.002221630054962815,-0.8236524465865761,0.006376553189410459,0.015399618216207209,-0.001059487206887426,-0.05367415486552517,-0.03975137290337352,0.019297030388917932,0.0,0.13009616828822265,-0.11711356725089868,15.847417631738386,0.0,0.0,0.0,0.0,0.0,0.4211050309134535,0.0,0.0,0.10466707800202579,0.0,0.0,0.0,0.0,0.0,0.0
0.3750000000000002,-0.0126299007151887,0.018946202997619108,0.6622345117780788,-0.00853663878397881,-0.001896232524194204,-0.6841767276757779,-0.012539926273102384,0.01894957360955215,0.2567957158443541,-0.0054170885307593016,-0.002221630054962815,-0.8236524465865761,0.006149539580700969,0.015082480598636257,-0.0009878271881837177,-0.05051768113747078,-0.0890791894274464,0.011147687417940451,0.0,0.13009616828822265,-0.11711356725089868,15.847417631738386,0.0,0.0,0.0,0.0,0.0,0.4216308959715084,0.0,0.0,0.10567731777310717,0.0,0.0,0.0,0.0,0.0,0.0
0.3800000000000002,-0.012671989154838983,0.018933933068268478,0.6587702801049209,-0.007036812576901465,-0.0031210419690150286,-0.6746383433772433,-0.012539926273102384,0.01894957360955215,0.2567957158443541,-0.0054170885307593016,-0.002221630054962815,-0.8236524465865761,0.005909062350968189,0.014638547237120447,-0.00094473633870303,-0.04064039665400543,-0.07141366571352753,0.007852875695276545,0.0,0.13009616828822265,-0.11711356725089868,15.847417631738386,0.0,0.0,0.0,0.0,0.0,0.42216178786826,0.0,0.0,0.10667782377816744,0.0,0.0,0.0,0.0,0.0,0.0
0.38500000000000023,-0.012699139367482841,0.018916404098287917,0.6555541720048682,-0.004118844465198077,-0.0038584392130060945,-0.6658353130535113,-0.012539926273102384,0.01894957360955215,0.2567957158443541,-0.0054170885307593016,-0.002221630054962815,-0.8236524465865761,0.005732930679145143,0.014390220560501262,-0.0009008216915203654,-0.037685025513611095,-0.030064217903220895,0.011921597418613275,0.0,0.13009616828822265,-0.11711356725089868,15.847417631738386,0.0,0.0,0.0,0.0,0.0,0.42269765808905746,0.0,0.0,0.10766865763247033,0.0,0.0,0.0,0.0,0.0,0.0
0.39000000000000024,-0.012714911691713276,0.018897500309138046,0.6521855168465286,-0.002481311860173227,-0.0030852752984110265,-0.6556409724692405,-0.012539926273102384,0.01894957360955215,0.2567957158443541,-0.0054170885307593016,-0.002221630054962815,-0.8236524465865761,0.005513844628875037,0.01430190941368723,-0.0008213040072978936,-0.05420115325709323,-0.011105815971649374,0.018338577750489145,0.0,0.13009616828822265,-0.11711356725089868,15.847417631738386,0.0,0.0,0.0,0.0,0.0,0.4232384584264828,0.0,0.0,0.10864988061446078,0.0,0.0,0.0,0.0,0.0,0.0
0.39500000000000024,-0.012724819518209897,0.01888171290306044,0.6488728595898605,-0.001714831596160338,-0.003901202897595836,-0.6438847204148421,-0.012539926273102384,0.01894957360955215,0.2567957158443541,-0.0054170885307593016,-0.002221630054962815,-0.8236524465865761,0.00523421436683557,0.01426337036369139,-0.0007210950516341196,-0.045390646874798435,-0.00810449689316254,0.01990386403291008,0.0,0.13009616828822265,-0.11711356725089868,15.847417631738386,0.0,0.0,0.0,0.0,0.0,0.42378414097867234,0.0,0.0,0.10962155366747216,0.0,0.0,0.0,0.0,0.0,0.0
0.40000000000000024,-0.012731054179952368,0.018857509362985244,0.6458081083936418,-0.001256767815928224,-0.006545148439887721,-0.6333982760110358,-0.012539926273102384,0.01894957360955215,0.2567957158443541,-0.0054170885307593016,-0.002221630054962815,-0.8236524465865761,0.00507414644617849,0.014234822823863768,-0.0006411610701368054,-0.01758120875849347,-0.008335363994503154,0.012832841485279575,0.0,0.13009616828822265,-0.11711356725089868,15.847417631738386,0.0,0.0,0.0,0.0,0.0,0.42433465814764426,0.0,0.0,0.11058373740142523,0.0,0.0,0.0,0.0,0.0,0.0
0.40500000000000025,-0.012744004677719366,0.01882414865769417,0.6426053763717784,-0.003914926863343201,-0.00531735729308009,-0.6230724997528703,-0.012744004677719366,0.01882414865769417,0.2177154137341415,-0.003914926863343201,-0.00531735729308009,-0.7346089918473893,0.004956865707186498,0.014083328202701828,-0.0006015665314211135,-0.04413010666849568,-0.0521515356049596,0.0046741457284714015,0.0,0.13009616828822265,-0.11711356725089868,15.847417631738386,0.0,0.0,0.0,0.0,0.0,0.4248899626376369,0.0,0.0,0.11153649209451899,0.0,0.0,0.0,0.0,0.0,0.0
0.41000000000000025,-0.012769594403277008,0.01880386487459686,0.6394539411164124,-0.005451540006258775,-0.0029223144608699746,-0.6136145906566339,-0.012744004677719366,0.01882414865769417,0.2177154137341415,-0.003914926863343201,-0.00531735729308009,-0.7346089918473893,0.004632102057415998,0.01372302559267502,-0.000584839764834015,-0.07887946391387173,-0.07956078756928535,0.003858585064294562,0.0,0.1230818791515422,-0.09739908478168702,15.74844639017166,0.0,0.0,0.0,0.0,0.0,0.4254500074534532,0.0,0.0,0.11247987769491316,0.0,0.0,0.0,0.0,0.0,0.0
0.41500000000000026,-0.012789178929702185,0.018785736135602638,0.636528537292796,-0.0024789633097671883,-0.005035749474543234,-0.6059657156503765,-0.012744004677719366,0.01882414865769417,0.2177154137341415,-0.003914926863343201,-0.00531735729308009,-0.7346089918473893,0.0043115145477863725,0.013431449537839243,-0.0005483458599636979,-0.049868507996353666,-0.037557516866251646,0.013116544624782296,0.0,0.1230818791515422,-0.09739908478168702,15.74844639017166,0.0,0.0,0.0,0.0,0.0,0.42601474589881594,0.0,0.0,0.11341395382240269,0.0,0.0,0.0,0.0,0.0,0.0
0.42000000000000026,-0.012792800986820395,0.018757281871629904,0.6334570797888648,0.000165810365729855,-0.005183492484786983,-0.5987364964314653,-0.012744004677719366,0.01882414865769417,0.2177154137341415,-0.003914926863343201,-0.00531735729308009,-0.7346089918473893,0.004095146124877556,0.013385496142581508,-0.00045256653754704366,-0.04842145427102409,0.00701514655789115,0.022365648994706843,0.0,0.1230818791515422,-0.09739908478168702,15.74844639017166,0.0,0.0,0.0,0.0,0.0,0.42658413157472885,0.0,0.0,0.11433877977008415,0.0,0.0,0.0,0.0,0.0,0.0
0.42500000000000027,-0.012790405142666151,0.018735209754549387,0.6304242848906167,-0.00015892945116037505,-0.003856727707343629,-0.5906120544500129,-0.012744004677719366,0.01882414865769417,0.2177154137341415,-0.003914926863343201,-0.00531735729308009,-0.7346089918473893,0.0037938396764775353,0.013461932703436307,-0.00033526630996568097,-0.06541704590840008,0.008747133929933003,0.022400953492423943,0.0,0.1230818791515422,-0.09739908478168702,15.74844639017166,0.0,0.0,0.0,0.0,0.0,0.42715811837784845,0.0,0.0,0.11525441450601379,0.0,0.0,0.0,0.0,0.0,0.0
0.43000000000000027,-0.012796834808134356,0.018704163381299953,0.6276125664765645,-0.002744034233442486,-0.009053008400685479,-0.5815856951151435,-0.012744004677719366,0.01882414865769417,0.2177154137341415,-0.003914926863343201,-0.00531735729308009,-0.7346089918473893,0.003655742746845106,0.013428792130331933,-0.00024542411749766416,0.005668578936325229,-0.026386558793616198,0.014631549223644024,0.0,0.1230818791515422,-0.09739908478168702,15.74844639017166,0.0,0.0,0.0,0.0,0.0,0.42773666049886183,0.0,0.0,0.11616091667485798,0.0,0.0,0.0,0.0,0.0,0.0
0.4350000000000003,-0.012820720258180323,0.0186495280552352,0.6246731545818484,-0.006004701171712526,-0.009952493633331908,-0.5714096696403149,-0.012744004677719366,0.01882414865769417,0.2177154137341415,-0.003914926863343201,-0.00531735729308009,-0.7346089918473893,0.0037834712708896628,0.013154070188719271,-0.000195499916567406,0.010054271521667501,-0.07272869722859493,0.0077073228771194335,0.0,0.1230818791515422,-0.09739908478168702,15.74844639017166,0.0,0.0,0.0,0.0,0.0,0.42831971242087463,0.0,0.0,0.11705834459953526,0.0,0.0,0.0,0.0,0.0,0.0
0.4400000000000003,-0.012852628164715761,0.01861131089553293,0.6217874515496722,-0.005601273946792983,-0.0049686161274176514,-0.5603700253470515,-0.012744004677719366,0.01882414865769417,0.2177154137341415,-0.003914926863343201,-0.00531735729308009,-0.7346089918473893,0.003637889702593534,0.012766778302569752,-0.00015271821361005896,-0.06799493590827733,-0.06693257622925869,0.010518761770434093,0.0,0.1230818791515422,-0.09739908478168702,15.74844639017166,0.0,0.0,0.0,0.0,0.0,0.42890722891780586,0.0,0.0,0.11794675628285083,0.0,0.0,0.0,0.0,0.0,0.0
0.4450000000000003,-0.012874669264895486,0.018588424426791726,0.6191238520539624,-0.003640052714270805,-0.005877362531291672,-0.5499101791565442,-0.012744004677719366,0.01882414865769417,0.2177154137341415,-0.003914926863343201,-0.00531735729308009,-0.7346089918473893,0.003280095975748325,0.012516089523501804,-8.76402685035539e-05,-0.06312461833740103,-0.03834883842991729,0.01794035221918059,0.0,0.1230818791515422,-0.09739908478168702,15.74844639017166,0.0,0.0,0.0,0.0,0.0,0.4294991650527923,0.0,0.0,0.11882620940912263,0.0,0.0,0.0,0.0,0.0,0.0
0.4500000000000003,-0.012891086814318376,0.018547552301470767,0.6163453765218025,-0.0031528838630997106,-0.009446811435528748,-0.5401692301696306,-0.012744004677719366,0.01882414865769417,0.2177154137341415,-0.003914926863343201,-0.00531735729308009,-0.7346089918473893,0.0030914252946450537,0.012357335685936369,4.682426886625951e-05,-0.020569612950081674,-0.02908461533560461,0.03435515848557177,0.0,0.1230818791515422,-0.09739908478168702,15.74844639017166,0.0,0.0,0.0,0.0,0.0,0.4300954761765987,0.0,0.0,0.1196967613458,0.0,0.0,0.0,0.0,0.0,0.0
0.4550000000000003,-0.012902310509576152,0.018501583727366974,0.6136150578307185,-0.0007915950832991349,-0.00774475033965046,-0.5309016758095868,-0.012902310509576152,0.018501583727366974,0.18291893990467978,-0.0007915950832991349,-0.00774475033965046,-0.6514601449546611,0.0029519166973750208,0.01228739532554119,0.0002502161421256212,-0.045915813190570434,0.008321731758966838,0.04252795602871693,0.0,0.1230818791515422,-0.09739908478168702,15.74844639017166,0.0,0.0,0.0,0.0,0.0,0.4306961179260387,0.0,0.0,0.12055846914507425,0.0,0.0,0.0,0.0,0.0,0.0
0.4600000000000003,-0.012904961052280391,0.018471827647640365,0.6110889521490083,-0.0003331505907926231,-0.005146681976150335,-0.5220854530911601,-0.012902310509576152,0.018501583727366974,0.18291893990467978,-0.0007915950832991349,-0.00774475033965046,-0.6514601449546611,0.00263016240579653,0.012343682045626473,0.00044352911877873946,-0.08300417895892039,0.013573436420454036,0.036716801040657554,0.0,0.10340124416405022,-0.08157623139097545,15.616868573643712,0.0,0.0,0.0,0.0,0.0,0.43130104622240206,0.0,0.0,0.12141138954548139,0.0,0.0,0.0,0.0,0.0,0.0
0.4650000000000003,-0.012912845359170155,0.018439360696879372,0.6084499875152547,-0.003009743931535506,-0.008196472006517165,-0.513403035986638,-0.012902310509576152,0.018501583727366974,0.18291893990467978,-0.0007915950832991349,-0.00774475033965046,-0.6514601449546611,0.0022888290513262484,0.012300360309757546,0.0005965210818507895,-0.04341870279956237,-0.03406024626612994,0.024727430018221207,0.0,0.10340124416405022,-0.08157623139097545,15.616868573643712,0.0,0.0,0.0,0.0,0.0,0.4319102172698901,0.0,0.0,0.12225557897349741,0.0,0.0,0.0,0.0,0.0,0.0
0.4700000000000003,-0.012933801146795484,0.018387616540516696,0.6058620304668498,-0.004401137981819293,-0.011632816770909797,-0.5020963468986931,-0.012902310509576152,0.018501583727366974,0.18291893990467978,-0.0007915950832991349,-0.00774475033965046,-0.6514601449546611,0.0021964843694273215,0.012025784489912993,0.0007082215402800871,-0.0007017103859429438,-0.06159736413343856,0.02042353918303207,0.0,0.10340124416405022,-0.08157623139097545,15.616868573643712,0.0,0.0,0.0,0.0,0.0,0.4325235875540602,0.0,0.0,0.12309109354512524,0.0,0.0,0.0,0.0,0.0,0.0
0.4750000000000003,-0.012952703934030342,0.01833893405453589,0.6034613277585679,-0.002906345217455437,-0.009738525844101717,-0.4971950606067389,-0.012902310509576152,0.018501583727366974,0.18291893990467978,-0.0007915950832991349,-0.00774475033965046,-0.6514601449546611,0.002080964065814746,0.011748416695149056,0.000799556365810882,-0.031008698492742903,-0.04519251446065003,0.018829241345952815,0.0,0.10340124416405022,-0.08157623139097545,15.616868573643712,0.0,0.0,0.0,0.0,0.0,0.4331411138402762,0.0,0.0,0.12391798906747456,0.0,0.0,0.0,0.0,0.0,0.0
0.4800000000000003,-0.012961547734779415,0.01828897240906964,0.6009560997112753,-0.0014863829228039908,-0.01060091196897451,-0.4867778352898168,-0.012902310509576152,0.018501583727366974,0.18291893990467978,-0.0007915950832991349,-0.00774475033965046,-0.6514601449546611,0.001909271678425881,0.011595332379338625,0.0009074765111988559,-0.027038674019736673,-0.026868035203312924,0.02436876325702183,0.0,0.10340124416405022,-0.08157623139097545,15.616868573643712,0.0,0.0,0.0,0.0,0.0,0.4337627531721694,0.0,0.0,0.12473632104033379,0.0,0.0,0.0,0.0,0.0,0.0
0.4850000000000003,-0.012968846296353717,0.018237346353328826,0.5984962049473763,-0.001592855570829933,-0.009833408832236237,-0.47859443281565284,-0.012902310509576152,0.018501583727366974,0.18291893990467978,-0.0007915950832991349,-0.00774475033965046,-0.6514601449546611,0.001716452374325819,0.011467117898266441,0.0010433384000371995,-0.04471258852414393,-0.0262473747352606,0.027334758157213777,0.0,0.10340124416405022,-0.08157623139097545,15.616868573643712,0.0,0.0,0.0,0.0,0.0,0.43438846287010413,0.0,0.0,0.1255461446577342,0.0,0.0,0.0,0.0,0.0,0.0
0.4900000000000003,-0.012974236774686216,0.018194716295027533,0.5962219845598277,-0.0008514701278807347,-0.00902141209692707,-0.4696511329688321,-0.012902310509576152,0.018501583727366974,0.18291893990467978,-0.0007915950832991349,-0.00774475033965046,-0.6514601449546611,0.0014381605070950324,0.011375797737278443,0.001168052776164473,-0.05609087762670639,-0.015079918155234094,0.023772342841534493,0.0,0.10340124416405022,-0.08157623139097545,15.616868573643712,0.0,0.0,0.0,0.0,0.0,0.4350182005296541,0.0,0.0,0.12634751480950682,0.0,0.0,0.0,0.0,0.0,0.0
0.49500000000000033,-0.012978582630911926,0.018142100583929673,0.5938516032074447,-0.0013199085294198385,-0.012201733202434317,-0.46050825345835894,-0.012902310509576152,0.018501583727366974,0.18291893990467978,-0.0007915950832991349,-0.00774475033965046,-0.6514601449546611,0.0012424818327810934,0.011294581376568061,0.0012645575149268567,-0.013034959704471345,-0.023187913670823377,0.013449543308634874,0.0,0.10340124416405022,-0.08157623139097545,15.616868573643712,0.0,0.0,0.0,0.0,0.0,0.4356519240200851,0.0,0.0,0.12714048608283146,0.0,0.0,0.0,0.0,0.0,0.0
0.5000000000000003,-0.012991437744758546,0.018077160445101523,0.591532357861756,-0.0033637795567261694,-0.012489289827067375,-0.45021408505703814,-0.012902310509576152,0.018501583727366974,0.18291893990467978,-0.0007915950832991349,-0.00774475033965046,-0.6514601449546611,0.00119871436549137,0.011087309523724425,0.001311753879392999,-0.015619104002357768,-0.05280140527043409,0.006747513608456447,0.0,0.10340124416405022,-0.08157623139097545,15.616868573643712,0.0,0.0,0.0,0.0,0.0,0.4362895914828451,0.0,0.0,0.12792511276377846,0.0,0.0,0.0,0.0,0.0,0.0
0.5050000000000003,-0.013003639119819327,0.018019418135280314,0.589397675091538,-0.0016159824188421868,-0.011698348685468402,-0.4401111792582806,-0.013003639119819327,0.018019418135280314,0.1524665137614749,-0.0016159824188421868,-0.011698348685468402,-0.5688126280971234,0.00106905714606121,0.010887806561499755,0.0013414401936699993,-0.0372119252285916,-0.029265948837788523,0.0065073133944572046,0.0,0.10340124416405022,-0.08157623139097545,15.616868573643712,0.0,0.0,0.0,0.0,0.0,0.43693116133006304,0.0,0.0,0.12870144883884282,0.0,0.0,0.0,0.0,0.0,0.0
0.5100000000000003,-0.013006785802764704,0.017958621992957946,0.5871794024929148,0.00015463736278346994,-0.012444677528369042,-0.4307967988465972,-0.013003639119819327,0.018019418135280314,0.1524665137614749,-0.0016159824188421868,-0.011698348685468402,-0.5688126280971234,0.0008606655327560356,0.01080158963147476,0.00138914634502724,-0.03898447102058089,-0.0073368015230126345,0.01230933139175557,0.0,0.11350493986629023,-0.05303799310187245,15.387471622714147,0.0,0.0,0.0,0.0,0.0,0.43757659224305434,0.0,0.0,0.12946954799647076,0.0,0.0,0.0,0.0,0.0,0.0
0.5150000000000003,-0.013007027370163782,0.017895682934993953,0.5850038806771132,-8.64643684570553e-05,-0.012577240293217681,-0.422804828086803,-0.013003639119819327,0.018019418135280314,0.1524665137614749,-0.0016159824188421868,-0.011698348685468402,-0.5688126280971234,0.0006406780891012617,0.01074910506260977,0.0014613388201909553,-0.04135716113300471,-0.009894911812074116,0.014336576731218426,0.0,0.11350493986629023,-0.05303799310187245,15.387471622714147,0.0,0.0,0.0,0.0,0.0,0.4382258431708349,0.0,0.0,0.13022946362857926,0.0,0.0,0.0,0.0,0.0,0.0
0.5200000000000004,-0.01300448765254535,0.017837675044793704,0.5829939402960806,0.00121550277999181,-0.012081345384684698,-0.4147971748728831,-0.013003639119819327,0.018019418135280314,0.1524665137614749,-0.0016159824188421868,-0.011698348685468402,-0.5688126280971234,0.00040538330856896714,0.010750488099182852,0.0015209858712413834,-0.050873334794864916,0.010909570832547398,0.009939877861077213,0.0,0.11350493986629023,-0.05303799310187245,15.387471622714147,0.0,0.0,0.0,0.0,0.0,0.43887887332864206,0.0,0.0,0.13098124883206777,0.0,0.0,0.0,0.0,0.0,0.0
0.5250000000000004,-0.013001670825907774,0.017771370440123273,0.58090091193012,-0.0009265764421890824,-0.01426876392507309,-0.40652278488576854,-0.013003639119819327,0.018019418135280314,0.1524665137614749,-0.0016159824188421868,-0.011698348685468402,-0.5688126280971234,0.00019758742121731175,0.010760373313993701,0.0015461662387776022,-0.026054793518358633,-0.01794638353717057,-0.00014222238091275198,0.0,0.11350493986629023,-0.05303799310187245,15.387471622714147,0.0,0.0,0.0,0.0,0.0,0.4395356421964631,0.0,0.0,0.13172495641032286,0.0,0.0,0.0,0.0,0.0,0.0
0.5300000000000004,-0.013017203264390384,0.017691367015175964,0.578849013345102,-0.004121331725653162,-0.01625561761843324,-0.3988633534639347,-0.013003639119819327,0.018019418135280314,0.1524665137614749,-0.0016159824188421868,-0.011698348685468402,-0.5688126280971234,0.00014615308600626057,0.010531751126967689,0.0015268127636842116,-0.005888959117135547,-0.05674743183086305,-0.005243086189458884,0.0,0.11350493986629023,-0.05303799310187245,15.387471622714147,0.0,0.0,0.0,0.0,0.0,0.4401961095175717,0.0,0.0,0.13246063887471551,0.0,0.0,0.0,0.0,0.0,0.0
0.5350000000000004,-0.013036353206662795,0.017614066141054496,0.5769541245108423,-0.003000730166582183,-0.015259897130161359,-0.3913448962331599,-0.013003639119819327,0.018019418135280314,0.1524665137614749,-0.0016159824188421868,-0.011698348685468402,-0.5688126280971234,8.597585721812086e-05,0.010280816208047076,0.0015101340226292865,-0.028651633361678412,-0.03637708703789058,-0.0008120861364934381,0.0,0.11350493986629023,-0.05303799310187245,15.387471622714147,0.0,0.0,0.0,0.0,0.0,0.4408602352970713,0.0,0.0,0.13318834844609095,0.0,0.0,0.0,0.0,0.0,0.0
0.5400000000000004,-0.013046921215545557,0.01753678665196653,0.5749798605356237,-0.0010633685258403932,-0.014749331720023623,-0.38345483064604946,-0.013003639119819327,0.018019418135280314,0.1524665137614749,-0.0016159824188421868,-0.011698348685468402,-0.5688126280971234,-8.864925781566093e-05,0.010175959221595355,0.0015351413152493872,-0.04290011527934729,-0.003306809309639275,0.010798744054823027,0.0,0.11350493986629023,-0.05303799310187245,15.387471622714147,0.0,0.0,0.0,0.0,0.0,0.44152797980044656,0.0,0.0,0.13390813705625157,0.0,0.0,0.0,0.0,0.0,0.0
