time,pos_x,pos_y,pos_z,vel_x,vel_y,vel_z,pos_xo,pos_yo,pos_zo,vel_xo,vel_yo,vel_zo,roll,pitch,yaw,roll_vel,pitch_vel,yaw_vel,thrust_z,force_x,force_y,force_z,torque_x,torque_y,torque_z,pos_xd,pos_yd,pos_zd,vel_xd,vel_yd,vel_zd,roll_d,pitch_d,yaw_d,roll_vel_d,pitch_vel_d,yaw_vel_d,pos_xr,pos_yr,pos_zr,vel_xr,vel_yr,vel_zr
0.05000262260437012,-0.0039308699779212475,-0.04416465386748314,0.18220873177051544,-0.00615050200411441,-0.007683422397095324,0.0009779187193155346,-0.0039308699779212475,-0.04416465386748314,0.18220873177051544,-0.00615050200411441,-0.007683422397095324,0.0009779187189125238,0.0631500065465942,0.00634645121734323,-0.03166132764445351,-0.0015356034273281693,-0.0027812398038804527,0.005112519487738609,0.0,9.222430415221659e-14,-1.8051684661132022e-15,12.949199999998426,0.0,0.0,0.0,0.0,0.0,3.5231259325292057e-19,0.0,0.0,4.0301069370440027e-13,0.0,0.0,0.0,0.0,0.0,0.0,0.0,0.0,0.0,0.0,0.0,0.0
0.10000262260437012,-0.003941189963370562,-0.044174905866384506,0.18223823606967926,-0.006287638201712017,-0.009288516974878718,0.0008597766545477271,-0.003941189963370562,-0.044174905866384506,0.18223581711498918,-0.006287638201712017,-0.009288516974878718,0.0007151025319062438,0.06422731633168466,0.0062566141415194565,-0.03128627353830504,-0.0024593316484242678,0.0006473817629739629,-0.010500364936888218,0.0,-1.1893099723829197,-0.19472887017244964,17.223814348689462,0.0,0.0,0.0,0.0,0.0,2.41895469007654e-06,0.0,0.0,0.00014467412264148333,0.0,0.0,0.0,0.0,0.0,0.0,0.0,0.0,2.418575286865234e-06,0.0,0.0,0.0001446590423583
0.15000262260437014,-0.003965009469538927,-0.044197868555784225,0.18228283524513245,-0.006207933445509124,-0.007461074194169262,0.0013513343652603376,-0.003965009469538927,-0.044197868555784225,0.18226366687647116,-0.006207933445509124,-0.007461074194169262,0.0007799241589152596,0.06614470066182276,0.00709076335639125,-0.03212031478953348,-0.05082261934876442,0.02838811092078685,-0.0674518570303917,0.0,-2.183374176850567,-0.4658019967532795,21.412068493360444,0.0,0.0,0.0,0.0,0.0,1.916836866128874e-05,0.0,0.0,0.000571410206345078,0.0,0.0,0.0,0.0,0.0,0.0,0.0,0.0,1.9166870117187512e-05,0.0,0.0,0.0005713806152343
0.20000262260437013,-0.0033791123423725367,-0.04365101829171181,0.18576039373874664,0.015498810067118866,0.015058379920394481,0.08094464800005731,-0.0033791123423725367,-0.04365101829171181,0.1856963124791461,0.015498810067118866,0.015058379920394481,0.07967522007581297,0.0634920413271125,0.013228180259807765,-0.026978753718090775,-0.09572151303291321,0.07422099262475969,0.12781180441379547,0.0,-0.08725448492443634,0.12671801348873607,12.395577373289706,0.0,0.0,0.0,0.0,0.0,6.408125960056678e-05,0.0,0.0,0.001269427924244337,0.0,0.0,0.0,0.0,0.0,0.0,0.0,0.0,6.407793045043952e-05,0.0,0.0,0.0012693843841552
0.2500026226043701,-0.0007465581293217838,-0.041646625846624374,0.1910834014415741,0.0682315318764201,0.022292513527461328,0.048177541686800184,-0.0007465581293217838,-0.041646625846624374,0.1909329463795152,0.0682315318764201,0.022292513527461328,0.04594945740862882,0.05824077382042869,0.014227557331121687,-0.023017703518524613,0.020074721425771713,0.19455847144126892,0.1108875051140785,0.0,0.6906392934406519,0.2545483779227318,8.198602523046599,0.0,0.0,0.0,0.0,0.0,0.0001504550620589066,0.0,0.0,0.0022280842781713635,0.0,0.0,0.0,0.0,0.0,0.0,0.0,0.0,0.00015044921875,0.0,0.0,0.00222802734375
0.3000026226043701,0.004321934189647436,-0.04030559957027435,0.19120395183563232,0.10152184849221187,0.02969139940048705,-0.09171425963415712,0.004321934189647436,-0.04030559957027435,0.19091289334172587,0.10152184849221187,0.02969139940048705,-0.09515113323321694,0.06432636296980254,0.03399252813170284,-0.01845127258391832,0.0009559433674439788,0.4556642472743988,0.09439692646265024,0.0,0.381236126493123,0.2424142332970209,8.891933817471594,0.0,0.0,0.0,0.0,0.0,0.0002910584939064483,0.0,0.0,0.0034368735990598243,0.0,0.0,0.0,0.0,0.0,0.0,0.0,0.0,0.0002910494804382,0.0,0.0,0.003436803817749
0.3500026226043701,0.00873107835650444,-0.039108481258153915,0.18367575109004974,0.12183373083218037,0.03779580863133777,-0.20302853171348761,0.00873107835650444,-0.039108481258153915,0.18317761266726218,0.12183373083218037,0.03779580863133777,-0.20791395926043257,0.05382994346647774,0.03356642695136536,-0.022252246956029786,0.0925278440117836,-1.6805870532989502,0.0318187139928343,0.0,-0.2748025521541042,0.040466280311315606,11.404305161385142,0.0,0.0,0.0,0.0,0.0,0.0004981384227875547,0.0,0.0,0.00488542754694495,0.0,0.0,0.0,0.0,0.0,0.0,0.0,0.0,0.0004981256103515,0.0,0.0,0.0048853454589843
0.4000026226043701,0.005379869602620602,-0.0401107482612133,0.18429350852966309,0.04433156658677032,-0.04168716564031276,0.06155261531231515,0.005379869602620602,-0.0401107482612133,0.1835100817970872,0.04433156658677032,-0.04168716564031276,0.05498910020135162,0.06826666472795218,-0.0003770360559451902,-0.013684556050503893,0.22277741134166718,0.1450270265340805,-0.03462589904665949,0.0,-1.0088174264495442,-0.17810283368027724,14.42231729701789,0.0,0.0,0.0,0.0,0.0,0.0007834267325758888,0.0,0.0,0.006563515110963532,0.0,0.0,0.0,0.0,0.0,0.0,0.0,0.0,0.0007834095191955,0.0,0.0,0.0065634212493896
0.4500026226043701,0.005379869602620602,-0.0401107482612133,0.18429350852966309,0.04431190377929291,-0.006599597127927511,0.09177250911616221,0.005379869602620602,-0.0401107482612133,0.1831353613398336,0.04431190377929291,-0.006599597127927511,0.08331146650680829,0.06826666472795218,-0.0003770360559451902,-0.013684556050503893,0.0473787821829319,-0.009967327117919915,0.05950690805912018,0.0,-0.4149607430818685,0.20872558150174036,12.73176531575629,0.0,0.0,0.0,0.0,0.0,0.0011581471898294926,0.0,0.0,0.008461042609353923,0.0,0.0,0.0,0.0,0.0,0.0,0.0,0.0,0.001158125,0.0,0.0,0.0084609375
0.5000026226043701,0.005379869602620602,-0.0401107482612133,0.18429350852966309,0.05969941262420789,0.005301126951342104,0.07706562315253972,0.005379869602620602,-0.0401107482612133,0.18266048621941722,0.05969941262420789,0.005301126951342104,0.06649756946308368,0.06826666472795218,-0.0003770360559451902,-0.013684556050503893,-0.07714264839887619,0.008139883168041713,0.05833304300904274,0.0,-0.42971684715769476,0.05929661771750476,12.736309413068357,0.0,0.0,0.0,0.0,0.0,0.0016330223102458642,0.0,0.0,0.010568053689456042,0.0,0.0,0.0,0.0,0.0,0.0,0.0,0.0,0.0016329945945739,0.0,0.0,0.0105679378509521
0.5500026226043702,0.014944802038371563,-0.03998658061027527,0.19752664864063263,0.08971346550577822,0.008577776913671405,0.05013770411528462,0.014944802038371563,-0.03998658061027527,0.1953083684155156,0.08971346550577822,0.008577776913671405,0.037262974787573254,0.06046332635943985,0.0014507888466370744,-0.012883803143374895,-0.03759671747684479,0.04108697175979615,0.0570463016629219,0.0,-0.6755970673210987,-0.04652784379526955,13.481100219989212,0.0,0.0,0.0,0.0,0.0,0.0022182802251170387,0.0,0.0,0.012874729327711368,0.0,0.0,0.0,0.0,0.0,0.0,0.0,0.0,0.0022182464599609,0.0,0.0,0.0128746032714843
0.6000026226043702,0.020171398296952248,-0.038682956248521805,0.20002120733261108,0.10058352465927328,0.014211573780643206,0.045767614852928545,0.020171398296952248,-0.038682956248521805,0.1970975457848264,0.10058352465927328,0.014211573780643206,0.030396227023265596,0.06994837994788972,0.006508181787851175,-0.004989618987945921,-0.06554415822029114,0.018763020634651188,0.02723760530352592,0.0,-0.6514096568283856,4.113215273169463e-05,12.604352715143449,0.0,0.0,0.0,0.0,0.0,0.002923661547784661,0.0,0.0,0.015371387829662948,0.0,0.0,0.0,0.0,0.0,0.0,0.0,0.0,0.0029236212348938,0.0,0.0,0.0153712520599365
0.6500026226043703,0.02615097351372242,-0.03749603405594826,0.2015216052532196,0.12401802113025759,0.016089717834010708,-0.004696733699253594,0.02615097351372242,-0.03749603405594826,0.19776317901312454,0.12401802113025759,0.016089717834010708,-0.022745218529208962,0.0688614530560625,0.007180696979935064,-0.00060139998454245,-0.028957078233361244,-0.02888688817620277,0.029606740921735767,0.0,-0.6063889652636653,0.015313817679300824,12.173874704253393,0.0,0.0,0.0,0.0,0.0,0.0037584262400950697,0.0,0.0,0.01804848482995537,0.0,0.0,0.0,0.0,0.0,0.0,0.0,0.0,0.00375837890625,0.0,0.0,0.01804833984375
0.7000026226043703,0.03297832980751991,-0.03628342226147652,0.20013956725597382,0.13574724219548506,0.018009020480917293,-0.044366331217584196,0.03297832980751991,-0.03628342226147652,0.19540820677711945,0.13574724219548506,0.018009020480917293,-0.06526294450991901,0.07011420510720834,0.0029612191241943364,0.0018708656269819102,-0.009374991990625858,-0.05844256654381752,0.02671309188008309,0.0,-0.734212441083017,-0.008414238984645717,12.405376184295129,0.0,0.0,0.0,0.0,0.0,0.004731360478854372,0.0,0.0,0.020896613292334817,0.0,0.0,0.0,0.0,0.0,0.0,0.0,0.0,0.0047313056755066,0.0,0.0,0.0208964595794678
0.7500026226043703,0.03922579064965248,-0.035186659544706345,0.19695211946964264,0.1494073926187638,0.023927713783911442,-0.09752830598300072,0.03922579064965248,-0.035186659544706345,0.19110133594735912,0.1494073926187638,0.023927713783911442,-0.12143480949264973,0.06851605664293459,0.001384522676361577,0.002366155121461766,0.03213632106781006,-0.11364880949258804,0.029988192021846785,0.0,-0.8632515175991563,-0.031460391292261275,12.802047292756193,0.0,0.0,0.0,0.0,0.0,0.00585078352228352,0.0,0.0,0.02390650350964902,0.0,0.0,0.0,0.0,0.0,0.0,0.0,0.0,0.0058507208251953,0.0,0.0,0.0239063415527344
0.8000026226043704,0.03922579064965248,-0.035186659544706345,0.19695211946964264,0.15793499924760115,0.02900007994173815,-0.11634673912567252,0.03922579064965248,-0.035186659544706345,0.18982756489316924,0.15793499924760115,0.02900007994173815,-0.14341576222951977,0.06851605664293459,0.001384522676361577,0.002366155121461766,0.03559481352567673,-0.14619849622249603,0.0397240035235882,0.0,-1.0065613961342608,-0.06452489228119127,13.267279348644852,0.0,0.0,0.0,0.0,0.0,0.007124554576473397,0.0,0.0,0.027069023103847255,0.0,0.0,0.0,0.0,0.0,0.0,0.0,0.0,0.0071244835853576,0.0,0.0,0.0270688533782959
0.8500026226043704,0.03922579064965248,-0.035186659544706345,0.19695211946964264,0.20053837237880845,0.027970331542635743,-0.1034397029532322,0.03922579064965248,-0.035186659544706345,0.18839203980780275,0.20053837237880845,0.027970331542635743,-0.13381487997921257,0.06851605664293459,0.001384522676361577,0.002366155121461766,0.1447783261537552,0.30684664845466614,0.06606402248144146,0.0,-1.0556610320767668,-0.08301637926908764,13.390068672039044,0.0,0.0,0.0,0.0,0.0,0.008560079661839885,0.0,0.0,0.030375177025980384,0.0,0.0,0.0,0.0,0.0,0.0,0.0,0.0,0.00856,0.0,0.0,0.030375
0.9000026226043705,0.0678924024105072,-0.027994636446237564,0.18360063433647156,0.195953916748475,0.10569882804089036,0.011791987757984198,0.0678924024105072,-0.027994636446237564,0.17343631585689262,0.195953916748475,0.10569882804089036,-0.022024119798216626,0.06250453094206465,0.01266948222033859,0.005624864796121898,-0.6034899950027466,0.3604707419872284,0.053284838795661885,0.0,-1.1676735867476578,-0.07561500317083168,13.178182369106223,0.0,0.0,0.0,0.0,0.0,0.010164318479578948,0.0,0.0,0.033816107556200826,0.0,0.0,0.0,0.0,0.0,0.0,0.0,0.0,0.0101642297935486,0.0,0.0,0.0338159236907959
0.9500026226043705,0.07518024742603302,-0.024873800575733185,0.18705706298351288,0.14594567291861832,0.04539450515762213,0.08040380691436537,0.07518024742603302,-0.024873800575733185,0.17511327170539115,0.14594567291861832,0.04539450515762213,0.04302071261060281,0.056584377910894545,0.0047884346489603935,0.010229538868497201,0.08771932870149612,-0.3067520558834076,-0.014021010138094387,0.0,-1.2505378286302737,-0.34292205938743636,12.766169231708469,0.0,0.0,0.0,0.0,0.0,0.011943791278121715,0.0,0.0,0.03738309430376256,0.0,0.0,0.0,0.0,0.0,0.0,0.0,0.0,0.0119436932373047,0.0,0.0,0.0373829040527344
1.0000026226043706,0.0780540257692337,-0.02375682257115841,0.18856066465377808,0.14376903063371793,0.04209492996121582,0.0701097251542469,0.0780540257692337,-0.02375682257115841,0.17465607893418852,0.14376903063371793,0.04209492996121582,0.029042170947225776,0.06423119796902643,-0.00272793807990368,0.011624252566632798,0.219119131565094,-0.41050654649734497,-0.003228856716304967,0.0,-1.1023138847375449,-0.16650997949227242,12.552665594560018,0.0,0.0,0.0,0.0,0.0,0.013904585719589545,0.0,0.0,0.04106755420702113,0.0,0.0,0.0,0.0,0.0,0.0,0.0,0.0,0.0139044780158996,0.0,0.0,0.0410673580169678
1.0500026226043706,0.0780540257692337,-0.02375682257115841,0.18856066465377808,0.1441617981288499,0.07133987103388671,0.18405660576638716,0.0780540257692337,-0.02375682257115841,0.17250830090752894,0.1441617981288499,0.07133987103388671,0.13919556423295354,0.06423119796902643,-0.00272793807990368,0.011624252566632798,0.22221779823303223,-0.3990056812763214,0.053267426788806964,0.0,-3.0230894971438405,-0.6908812978609964,20.94764696308121,0.0,0.0,0.0,0.0,0.0,0.016052363746249118,0.0,0.0,0.044861041533433635,0.0,0.0,0.0,0.0,0.0,0.0,0.0,0.0,0.01605224609375,0.0,0.0,0.04486083984375
1.1000026226043707,0.0780540257692337,-0.02375682257115841,0.18856066465377808,0.1687033906370558,0.03468325141364417,0.29216284631487,0.0780540257692337,-0.02375682257115841,0.17016829620681057,0.1687033906370558,0.03468325141364417,0.24340759843531126,0.06423119796902643,-0.00272793807990368,0.011624252566632798,0.12175013870000839,-0.29330840706825256,0.032400999218225514,0.0,-0.12877992256029203,0.020480761809272885,7.998777736013186,0.0,0.0,0.0,0.0,0.0,0.01839236844696751,0.0,0.0,0.04875524787955874,0.0,0.0,0.0,0.0,0.0,0.0,0.0,0.0,0.0183922405815124,0.0,0.0,0.0487550411224364
1.1500026226043707,0.10396257787942886,-0.012455668300390244,0.21629436314105988,0.185628024516829,0.05846557834431544,0.03977950206258591,0.10396257787942886,-0.012455668300390244,0.19536493221739262,0.185628024516829,0.05846557834431544,-0.012962500108470769,0.08616970416283687,-0.054163153792609275,0.01650955774298346,-0.1079675629734993,0.08659888803958893,-0.032000701874494566,0.0,-0.23383705840541313,0.10031915436746308,7.558577807347664,0.0,0.0,0.0,0.0,0.0,0.020929430923667263,0.0,0.0,0.05274200217105668,0.0,0.0,0.0,0.0,0.0,0.0,0.0,0.0,0.0209292926025389,0.0,0.0,0.0527417907714842
1.2000026226043707,0.11386977881193161,-0.007507252506911755,0.21555235981941223,0.18216191724904443,0.06491429024004457,-0.09874089816112043,0.11386977881193161,-0.007507252506911755,0.19188438266163074,0.18216191724904443,0.06491429024004457,-0.15555416882380968,0.08369675443054847,-0.046365629785905416,0.01904740949525774,-0.1717233806848526,0.1833772361278534,-0.03462844714522364,0.0,-0.9834770183726198,-0.11897692062932964,10.739512902930159,0.0,0.0,0.0,0.0,0.0,0.023667977157781482,0.0,0.0,0.05681327066268924,0.0,0.0,0.0,0.0,0.0,0.0,0.0,0.0,0.0236678281593321,0.0,0.0,0.0568130550384519
1.2500026226043708,0.11663695424795151,-0.006146726198494434,0.2134000062942505,0.14503647734114392,0.06647466259080037,-0.2752050612503783,0.11663695424795151,-0.006146726198494434,0.1867879714175416,0.14503647734114392,0.06647466259080037,-0.3361662181886981,0.07587835067070658,-0.03748393292233665,0.014378394572428732,-0.051077667623758316,0.013306543231010439,0.01565423794090748,0.0,-1.5880798358811004,-0.3477884162427755,13.52230391429164,0.0,0.0,0.0,0.0,0.0,0.02661203487670888,0.0,0.0,0.06096115693831979,0.0,0.0,0.0,0.0,0.0,0.0,0.0,0.0,0.0266118749999997,0.0,0.0,0.0609609374999996
1.3000026226043708,0.11663695424795151,-0.006146726198494434,0.2134000062942505,0.13150082310025654,0.0672974490224878,-0.26000662504998895,0.11663695424795151,-0.006146726198494434,0.1836347658739816,0.13150082310025654,0.0672974490224878,-0.32518452696090216,0.07587835067070658,-0.03748393292233665,0.014378394572428732,-0.003933001309633255,-0.15212608873844147,0.013934545218944569,0.0,-1.7164182446538558,-0.3962633085914763,15.336923468863464,0.0,0.0,0.0,0.0,0.0,0.0297652404202689,0.0,0.0,0.06517790191091324,0.0,0.0,0.0,0.0,0.0,0.0,0.0,0.0,0.0297650694847103,0.0,0.0,0.0651776790618892
1.3500026226043709,0.14308829605579376,0.006181877106428146,0.1843411773443222,0.1665365937720642,0.06654451870733716,-0.2040313418751999,0.14308829605579376,0.006181877106428146,0.15121033173716544,0.1665365937720642,0.06654451870733716,-0.2734872256977359,0.07047127657053975,-0.014735443320614827,0.010226292726861708,0.005790704395622015,1.3662166595458984,0.1715389192104338,0.0,-1.6172628832711347,-0.36721960191903613,15.040465006318234,0.0,0.0,0.0,0.0,0.0,0.033130845607156754,0.0,0.0,0.06945588382253605,0.0,0.0,0.0,0.0,0.0,0.0,0.0,0.0,0.033130663452148,0.0,0.0,0.0694556579589839
1.400002622604371,0.15496616065502167,0.011397963389754295,0.185306116938591,0.16813855965645577,0.07415103214256011,0.07332379542647273,0.15496616065502167,0.011397963389754295,0.14859439233719246,0.16813855965645577,0.07415103214256011,-0.00046382281788355517,0.08141762117484497,0.014105000879603757,0.02041804761456678,0.008340432308614254,0.0717410072684288,0.052432466298341744,0.0,-1.763126074689405,-0.3908202612147509,14.618605595702686,0.0,0.0,0.0,0.0,0.0,0.03671172460139853,0.0,0.0,0.07378761824435628,0.0,0.0,0.0,0.0,0.0,0.0,0.0,0.0,0.0367115310859675,0.0,0.0,0.0737873897552484
1.450002622604371,0.1613493412733078,0.015258543193340302,0.19009511172771454,0.14239022312373373,0.06995769738582683,0.1552892763775071,0.1613493412733078,0.015258543193340302,0.1495847309489083,0.14239022312373373,0.06995769738582683,0.0771235183008636,0.07770431581571202,0.000658577705964003,0.01964688345426957,0.09337582439184189,-0.5316367149353027,-0.0020290978718548363,0.0,-1.6445099707916864,-0.4151068196950215,12.93765215449916,0.0,0.0,0.0,0.0,0.0,0.040510380778806226,0.0,0.0,0.07816575807664351,0.0,0.0,0.0,0.0,0.0,0.0,0.0,0.0,0.0405101757812493,0.0,0.0,0.0781655273437493
1.500002622604371,0.16885127127170563,0.019851122051477432,0.19829609990119934,0.1461368699362711,0.05976946173772511,0.13775947555554569,0.16885127127170563,0.019851122051477432,0.15376714630776644,0.1461368699362711,0.05976946173772511,0.055176382006776714,0.0851768358026308,-0.028031020697723008,0.022205261215806793,0.2215789407491684,-0.591332733631134,-0.06899430602788918,0.0,-1.5419359758353048,-0.40562187346374456,12.518765619397849,0.0,0.0,0.0,0.0,0.0,0.0445289535934329,0.0,0.0,0.08258309354876897,0.0,0.0,0.0,0.0,0.0,0.0,0.0,0.0,0.044528737010955,0.0,0.0,0.0825828609466545
1.550002622604371,0.17542725801467896,0.023897478356957436,0.2032400667667389,0.1470084766366497,0.06630786926949929,0.08365633825834277,0.17542725801467896,0.023897478356957436,0.1544708413227112,0.1470084766366497,0.06630786926949929,-0.003376213960862559,0.09796926621637247,-0.06095142043465174,0.02352238532756523,0.1557062864303589,-0.5412200093269348,-0.023100236430764132,0.0,-1.6292004148371824,-0.39427618274900056,12.69453191883824,0.0,0.0,0.0,0.0,0.0,0.0487692254440277,0.0,0.0,0.08703255221920533,0.0,0.0,0.0,0.0,0.0,0.0,0.0,0.0,0.0487689971923819,0.0,0.0,0.0870323181152334
1.600002622604371,0.1773708611726761,0.025002997368574142,0.2043880969285965,0.14177577894487195,0.0714726924762176,0.05983445156800229,0.1773708611726761,0.025002997368574142,0.15115546838810556,0.14177577894487195,0.0714726924762176,-0.031672747407524605,0.09952239576778465,-0.0644285320500737,0.024144165777181925,0.0913267657160759,-0.4426141381263733,-0.011165397241711563,0.0,-1.7408215266007057,-0.44928162916439507,13.144070722945083,0.0,0.0,0.0,0.0,0.0,0.05323262854049092,0.0,0.0,0.0915071989755269,0.0,0.0,0.0,0.0,0.0,0.0,0.0,0.0,0.0532323885536183,0.0,0.0,0.0915069637298574
1.6500026226043711,0.18851850926876068,0.03240000829100609,0.20889751613140106,0.13557331650709645,0.06966126601738856,0.04212513754756514,0.18851850926876068,0.03240000829100609,0.15097726436107195,0.13557331650709645,0.06966126601738856,-0.053875098486844394,0.10371305649122142,-0.10858260698945976,0.020150211260951956,-0.006169997621327639,-0.2468327432870865,-0.0037346761673688585,0.0,-1.7842885902180337,-0.4836044904309422,13.43606312986419,0.0,0.0,0.0,0.0,0.0,0.057920251770329126,0.0,0.0,0.09600023603440953,0.0,0.0,0.0,0.0,0.0,0.0,0.0,0.0,0.0579199999999988,0.0,0.0,0.0959999999999989
1.7000026226043712,0.1942092627286911,0.03702220320701599,0.20947720110416412,0.10433721141578965,0.07387978346329586,0.02272080126504588,0.1942092627286911,0.03702220320701599,0.14664435353905386,0.10433721141578965,0.07387978346329586,-0.07778420167658476,0.10629696018443457,-0.1103002024157651,0.025488867343228527,-0.01778554730117321,-0.1226636990904808,0.001320752897299841,0.0,-1.833614098216795,-0.505306206776798,13.564032993102407,0.0,0.0,0.0,0.0,0.0,0.06283284756511025,0.0,0.0,0.10050500294163063,0.0,0.0,0.0,0.0,0.0,0.0,0.0,0.0,0.0628325839805589,0.0,0.0,0.1005047664642322
1.7500026226043712,0.19880631566047668,0.04153994843363762,0.2107052505016327,0.06794716174343941,0.0661727278738758,0.025689132801556127,0.19880631566047668,0.04153994843363762,0.14273441173471413,0.06794716174343941,0.0661727278738758,-0.07932584377051308,0.10914820723940011,-0.11302228536728443,0.026631029649612614,0.10064347833395004,-0.02151705138385296,-0.009974172338843342,0.0,-1.709289880606031,-0.5179113719814352,13.433554376734941,0.0,0.0,0.0,0.0,0.0,0.06797083876691856,0.0,0.0,0.10501497657206921,0.0,0.0,0.0,0.0,0.0,0.0,0.0,0.0,0.0679705633544907,0.0,0.0,0.1050147399902331
1.8000026226043713,0.19985173642635345,0.04263139143586159,0.21099098026752472,0.04434702311036372,0.06332615729418258,0.017650503275075904,0.19985173642635345,0.04263139143586159,0.13765665477271485,0.04434702311036372,0.06332615729418258,-0.09187326785462985,0.10878632629950324,-0.11078287102423623,0.025801655425560455,0.1042717918753624,0.04240316525101662,-0.013548813760280614,0.0,-1.5629598709264612,-0.4972053368171569,13.227628713773157,0.0,0.0,0.0,0.0,0.0,0.07333432549480987,0.0,0.0,0.10952377112970575,0.0,0.0,0.0,0.0,0.0,0.0,0.0,0.0,0.0733340382575972,0.0,0.0,0.1095235347747788
1.8500026226043713,0.19985173642635345,0.04263139143586159,0.21099098026752472,0.006820075666804369,0.08021962331961305,0.11409872528320612,0.19985173642635345,0.04263139143586159,0.1320678882562582,0.006820075666804369,0.08021962331961305,7.358713558366925e-05,0.10878632629950324,-0.11078287102423623,0.025801655425560455,0.03437718749046326,0.03821759670972825,0.044720046222209923,0.0,-3.9499942949241165,-1.185035098927807,23.2848,0.0,0.0,0.0,0.0,0.0,0.07892309201126653,0.0,0.0,0.11402513814762245,0.0,0.0,0.0,0.0,0.0,0.0,0.0,0.0,0.0789227929687481,0.0,0.0,0.1140249023437485
1.9000026226043714,0.20274926722049713,0.05222494155168533,0.22501935064792633,0.04963417823531011,0.11405715615769135,0.37472925534716833,0.20274926722049713,0.05222494155168533,0.14028273705927377,0.04963417823531011,0.11405715615769135,0.2562162888591655,0.11602330727025034,-0.10723940540838317,0.02768299540619079,-0.03750484436750412,0.13266152143478394,0.015904890373349172,0.0,-0.13960454534830008,-0.20582964027316383,7.777979740616111,0.0,0.0,0.0,0.0,0.0,0.08473661358865256,0.0,0.0,0.11851296648800289,0.0,0.0,0.0,0.0,0.0,0.0,0.0,0.0,0.0847363027763346,0.0,0.0,0.1185127315521224
1.9500026226043714,0.20142443478107452,0.054998788982629776,0.2407975047826767,0.03190915933460284,0.06467911928715492,0.20759827549074258,0.20142443478107452,0.054998788982629776,0.150023441407008,0.03190915933460284,0.06467911928715492,0.08461699314861024,0.11866588238998199,-0.08882544593292163,0.02561495809404235,0.10356463491916656,0.4632422626018524,-0.019884424284100588,0.0,-0.31836654702591044,-0.38612778496993205,6.719221317988135,0.0,0.0,0.0,0.0,0.0,0.0907740633756687,0.0,0.0,0.12298128234213235,0.0,0.0,0.0,0.0,0.0,0.0,0.0,0.0,0.0907737408447242,0.0,0.0,0.1229810485839827
2.0000026226043714,0.20023277401924133,0.05699345842003822,0.2444334179162979,-0.006902423219960109,0.05341447009167059,-0.02516799470251755,0.20023277401924133,0.05699345842003822,0.14739909865249046,-0.006902423219960109,0.05341447009167059,-0.15259224393291515,0.12207730144242523,-0.06522706673020773,0.022367735239608777,0.08358746767044067,0.48878568410873413,-0.003997437655925811,0.0,-0.8946802150169747,-0.36914820933392356,10.048596646474993,0.0,0.0,0.0,0.0,0.0,0.09703431926380747,0.0,0.0,0.1274242492303976,0.0,0.0,0.0,0.0,0.0,0.0,0.0,0.0,0.0970339850807164,0.0,0.0,0.1274240169525129
2.0500026226043713,0.20023277401924133,0.05699345842003822,0.2444334179162979,-0.061537051034733316,0.05459485465342382,-0.17915444857388813,0.20023277401924133,0.05699345842003822,0.14091744716248966,-0.061537051034733316,0.05459485465342382,-0.3109906165761751,0.12207730144242523,-0.06522706673020773,0.022367735239608777,-0.007804852444678545,0.2233135998249054,0.011943671852350207,0.0,-1.5103425488015028,-0.5902795360698362,13.799215006333707,0.0,0.0,0.0,0.0,0.0,0.10351597075380825,0.0,0.0,0.13183616800228695,0.0,0.0,0.0,0.0,0.0,0.0,0.0,0.0,0.1035156249999972,0.0,0.0,0.1318359374999982
2.100002622604371,0.20023277401924133,0.05699345842003822,0.2444334179162979,-0.07326620090169894,0.05045021565114645,-0.1725964367427567,0.20023277401924133,0.05699345842003822,0.1342160920941855,-0.07326620090169894,0.05045021565114645,-0.30880791357914705,0.12207730144242523,-0.06522706673020773,0.022367735239608777,-0.10458342730998993,0.07344266027212143,5.3967582061877795e-05,0.0,-1.5957748532434306,-0.6368475898948326,15.752873269517533,0.0,0.0,0.0,0.0,0.0,0.11021732582211242,0.0,0.0,0.13621147683639037,0.0,0.0,0.0,0.0,0.0,0.0,0.0,0.0,0.1102169685935944,0.0,0.0,0.1362112483978252
2.150002622604371,0.18820469081401825,0.0621841624379158,0.2187884896993637,-0.07686757185136733,0.031186813150199392,-0.06599724749224621,0.18820469081401825,0.0621841624379158,0.10165207191204531,-0.07686757185136733,0.031186813150199392,-0.20654199873264556,0.11179574994686581,-0.04825967586353341,0.015956318886393817,-0.017517609521746635,-0.10528364032506943,-0.003157814033329474,0.0,-1.7439692276238277,-0.639743864383901,16.49229845246285,0.0,0.0,0.0,0.0,0.0,0.1171364177873184,0.0,0.0,0.14054475124039936,0.0,0.0,0.0,0.0,0.0,0.0,0.0,0.0,0.1171360491943327,0.0,0.0,0.1405445251464824
2.2000026226043707,0.18312682211399078,0.06287861615419388,0.21643289923667908,-0.07243406310963034,0.02520075421573676,0.04672578318951589,0.18312682211399078,0.06287861615419388,0.09216188706004237,-0.07243406310963034,0.02520075421573676,-0.098104920861591,0.11206532643598344,-0.04749088046885719,0.01811481350341282,-0.04735131561756134,-0.031023947522044182,-0.007020956836640831,0.0,-1.4268576932433679,-0.5675260490885697,15.325380173188668,0.0,0.0,0.0,0.0,0.0,0.1242710121766367,0.0,0.0,0.1448307040511069,0.0,0.0,0.0,0.0,0.0,0.0,0.0,0.0,0.1242706323432888,0.0,0.0,0.1448304805755595
2.2500026226043706,0.17965766787528992,0.06274546682834625,0.21792471408843994,-0.062298600200529984,0.012571983391098709,0.14436864295265647,0.17965766787528992,0.06274546682834625,0.08630610049609494,-0.062298600200529984,0.012571983391098709,-0.004695542481751219,0.11053575886613753,-0.047657037298280525,0.021884718772376743,0.019268915057182312,-0.05003249645233154,0.015782022848725326,0.0,-1.3154251367859322,-0.5271390368409894,14.562961591314817,0.0,0.0,0.0,0.0,0.0,0.131618613592345,0.0,0.0,0.1490641854344077,0.0,0.0,0.0,0.0,0.0,0.0,0.0,0.0,0.1316182226562463,0.0,0.0,0.1490639648437479
2.3000026226043704,0.17965766787528992,0.06274546682834625,0.21792471408843994,-0.05930229056712196,0.007797526925186688,0.16655297242934658,0.17965766787528992,0.06274546682834625,0.07874824151019666,-0.05930229056712196,0.007797526925186688,0.013312789544048798,0.11053575886613753,-0.047657037298280525,0.021884718772376743,-0.03315310180187225,0.012269905768334866,-0.005522660911083223,0.0,-1.0297259896088948,-0.3996018093064464,12.829870315403008,0.0,0.0,0.0,0.0,0.0,0.13917647257824328,0.0,0.0,0.15324018288529778,0.0,0.0,0.0,0.0,0.0,0.0,0.0,0.0,0.1391760706901511,0.0,0.0,0.1532399654388405
2.35000262260437,0.17965766787528992,0.06274546682834625,0.21792471408843994,-0.06074760969000511,-0.0064693199155421745,0.11527372559366876,0.17965766787528992,0.06274546682834625,0.07098312160233108,-0.06074760969000511,-0.0064693199155421745,-0.04208009563420624,0.11053575886613753,-0.047657037298280525,0.021884718772376743,-0.07015035301446915,0.04552439600229263,-0.020307183265686042,0.0,-0.9368924398890155,-0.3591353117080971,12.275379479328672,0.0,0.0,0.0,0.0,0.0,0.14694159248610886,0.0,0.0,0.157353821227875,0.0,0.0,0.0,0.0,0.0,0.0,0.0,0.0,0.146941179809566,0.0,0.0,0.1573536071777322
2.40000262260437,0.16472026705741882,0.05966594070196152,0.23299287259578705,-0.06585373149385461,-0.013080448638061348,0.07381354894499108,0.16472026705741882,0.05966594070196152,0.07808213625363553,-0.06585373149385461,-0.013080448638061348,-0.08758681367034747,0.09847461310131278,-0.046089809868020026,0.017348873209050097,-0.056711167097091675,0.04174874350428581,-0.017616195604205135,0.0,-1.1830629806406434,-0.39083698806596123,13.542869597245522,0.0,0.0,0.0,0.0,0.0,0.15491073634215152,0.0,0.0,0.16140036261533855,0.0,0.0,0.0,0.0,0.0,0.0,0.0,0.0,0.1549103130531265,0.0,0.0,0.1614001522064186
2.45000262260437,0.16031348705291748,0.05790449678897858,0.23404061794281006,-0.07454266489908966,-0.023154866699696592,0.07476645818234698,0.16031348705291748,0.05790449678897858,0.0709601842293415,-0.07454266489908966,-0.023154866699696592,-0.09060874834764243,0.10331646946737383,-0.04728476219216704,0.01873058530306526,-0.0212936419993639,-0.004861229564994573,0.006453578360378743,0.0,-1.3920706998634331,-0.4345791474645446,14.885695554263437,0.0,0.0,0.0,0.0,0.0,0.16308043371346856,0.0,0.0,0.1653752065299894,0.0,0.0,0.0,0.0,0.0,0.0,0.0,0.0,0.1630799999999951,0.0,0.0,0.1653749999999977
2.5000026226043697,0.1558123379945755,0.05594504252076149,0.236601322889328,-0.07917604782350382,-0.018695655970227595,0.10782761442277355,0.1558123379945755,0.05594504252076149,0.06515433531482837,-0.07917604782350382,-0.018695655970227595,-0.06144627536045624,0.08959276327620236,-0.04439034061048108,0.014689217653229392,-0.08800286054611206,-0.03518929705023765,0.03423848748207093,0.0,-1.3277066664355108,-0.38907587002397026,14.816209556063262,0.0,0.0,0.0,0.0,0.0,0.17144698757449964,0.0,0.0,0.1692738897832298,0.0,0.0,0.0,0.0,0.0,0.0,0.0,0.0,0.1714465436363169,0.0,0.0,0.1692736873626685
2.5500026226043695,0.15121644735336304,0.05401049181818962,0.2410729080438614,-0.07275894150193782,-0.03161878040005445,0.15364608203062471,0.15121644735336304,0.05401049181818962,0.061066426870379026,-0.07275894150193782,-0.03161878040005445,-0.019446004484939217,0.09738089112599635,-0.044367403022088414,0.018770184372119303,-0.04345528781414032,0.010678639635443687,-0.005631734151393177,0.0,-1.0439447883316189,-0.3293713763272862,13.63551383538139,0.0,0.0,0.0,0.0,0.0,0.18000648117348236,0.0,0.0,0.17309208651556393,0.0,0.0,0.0,0.0,0.0,0.0,0.0,0.0,0.1800060272216743,0.0,0.0,0.173091888427732
2.6000026226043693,0.1481715738773346,0.05257998779416084,0.24468298256397247,-0.0793602631881091,-0.034548896821856044,0.13928772242300333,0.1481715738773346,0.05257998779416084,0.05592819766506543,-0.0793602631881091,-0.034548896821856044,-0.03753788577359382,0.08947588890287994,-0.044667521864956594,0.01315333720370937,-0.017953993752598763,0.021912958472967148,-0.004353430122137072,0.0,-0.9107436968578172,-0.2528711718561655,12.869935684396651,0.0,0.0,0.0,0.0,0.0,0.18875478489890704,0.0,0.0,0.17682560819659715,0.0,0.0,0.0,0.0,0.0,0.0,0.0,0.0,0.1887543211555424,0.0,0.0,0.1768254146575903
2.650002622604369,0.1481715738773346,0.05257998779416084,0.24468298256397247,-0.08838150437576468,-0.03139328717712812,0.08557869216144032,0.1481715738773346,0.05257998779416084,0.04699541941800095,-0.08838150437576468,-0.03139328717712812,-0.09489171146359632,0.08947588890287994,-0.044667521864956594,0.01315333720370937,-0.06579652428627014,0.07568228244781494,-0.0388518050312996,0.0,-1.0054165093508334,-0.27369331175408096,13.462301241614687,0.0,0.0,0.0,0.0,0.0,0.19768756314597152,0.0,0.0,0.18047040362503664,0.0,0.0,0.0,0.0,0.0,0.0,0.0,0.0,0.197687089843744,0.0,0.0,0.1804702148437476
2.700002622604369,0.1481715738773346,0.05257998779416084,0.24468298256397247,-0.09075855808418179,-0.03301327865419159,0.07297898936593966,0.1481715738773346,0.05257998779416084,0.037882701380935524,-0.09075855808418179,-0.03301327865419159,-0.11104356956275141,0.08947588890287994,-0.044667521864956594,0.01315333720370937,-0.03351767361164093,0.08033277094364166,-0.027840698137879382,0.0,-1.1954451794508631,-0.3391946775846683,14.562974969533434,0.0,0.0,0.0,0.0,0.0,0.20680028118303695,0.0,0.0,0.18402255892869107,0.0,0.0,0.0,0.0,0.0,0.0,0.0,0.0,0.2067997985649046,0.0,0.0,0.184022375106809
2.750002622604369,0.13415247201919556,0.0463847853243351,0.2527114152908325,-0.09322606102888006,-0.034718920434760436,0.10467377866069584,0.13415247201919556,0.0463847853243351,0.03662320327275048,-0.09322606102888006,-0.034718920434760436,-0.08280451890377495,0.09535165536671819,-0.03804351166452635,0.01607369892202115,-0.00018495204858481884,0.03957929462194443,-0.007650874555110937,0.0,-1.2352524789125314,-0.346925348144358,14.821305899753511,0.0,0.0,0.0,0.0,0.0,0.21608821201808204,0.0,0.0,0.1874782975644708,0.0,0.0,0.0,0.0,0.0,0.0,0.0,0.0,0.2160877203369074,0.0,0.0,0.1874781188964819
2.8000026226043686,0.12983117997646332,0.04453752189874649,0.25665977597236633,-0.0972112096299319,-0.03898098227165941,0.1596939609851208,0.12983117997646332,0.04453752189874649,0.031113332707207425,-0.0972112096299319,-0.03898098227165941,-0.031140019333266628,0.08705407420610989,-0.03386875702647396,0.01003643869540305,0.014567382633686066,-0.03778667002916336,0.0058746552094817205,0.0,-2.666343890881177,-0.7480396835402092,21.220573909621873,0.0,0.0,0.0,0.0,0.0,0.2255464432651589,0.0,0.0,0.19083398031838741,0.0,0.0,0.0,0.0,0.0,0.0,0.0,0.0,0.2255459427833487,0.0,0.0,0.1908338069915747
2.8500026226043684,0.12785325944423676,0.04388575628399849,0.26123738288879395,-0.022247687416774513,-0.040017926441730474,0.3857180672016614,0.12785325944423676,0.04388575628399849,0.026067498877946294,-0.022247687416774513,-0.040017926441730474,0.19163196189610712,0.08438522317541253,-0.03664309202887406,0.010764757412437653,-0.02145201340317726,-0.043475814163684845,0.018204275518655784,0.0,0.17735347688271696,0.06011508103284864,8.899258387081842,0.0,0.0,0.0,0.0,0.0,0.23516988401084765,0.0,0.0,0.19408610530555429,0.0,0.0,0.0,0.0,0.0,0.0,0.0,0.0,0.2351693749999927,0.0,0.0,0.1940859374999976
2.9000026226043683,0.12785325944423676,0.04388575628399849,0.26123738288879395,-0.007443198413780618,-0.040647251628385075,0.2536081159688009,0.12785325944423676,0.04388575628399849,0.016284111208082486,-0.007443198413780618,-0.040647251628385075,0.05637680799861444,0.08438522317541253,-0.03664309202887406,0.010764757412437653,-0.034646399319171906,0.29015231132507324,-0.002446262631565368,0.0,-0.11396742628879605,0.0334479398450892,8.215303547506197,0.0,0.0,0.0,0.0,0.0,0.24495327168071146,0.0,0.0,0.19723130797018645,0.0,0.0,0.0,0.0,0.0,0.0,0.0,0.0,0.2449527544212265,0.0,0.0,0.1972311458587622
2.950002622604368,0.11880994588136673,0.04117876663804054,0.2860852777957916,-0.016178873236921118,-0.035608772150792334,0.08236589437026642,0.11880994588136673,0.04117876663804054,0.031194098890039712,-0.016178873236921118,-0.035608772150792334,-0.11790046671533388,0.08073943077198154,-0.01789855513260097,0.012824537939001956,-0.06028531864285469,0.23972199857234955,0.0025191497988998595,0.0,-0.980299243997333,-0.18196797878871263,12.165825664356955,0.0,0.0,0.0,0.0,0.0,0.2548911789057519,0.0,0.0,0.2002663610856003,0.0,0.0,0.0,0.0,0.0,0.0,0.0,0.0,0.2548906536865155,0.0,0.0,0.200266204833982
3.000002622604368,0.11506936699151993,0.040093958377838135,0.2814226448535919,-0.047289846891034604,-0.029170913762978548,-0.07284567872685238,0.11506936699151993,0.040093958377838135,0.01644462446472783,-0.047289846891034604,-0.029170913762978548,-0.27603385348106635,0.07437807248490858,-0.009735434568654444,0.01037455409535415,-0.07131782174110413,0.018279341980814934,0.014005221426486967,0.0,-1.620872663390304,-0.37683099321225705,15.564321645819117,0.0,0.0,0.0,0.0,0.0,0.2649780203888641,0.0,0.0,0.20318817475421397,0.0,0.0,0.0,0.0,0.0,0.0,0.0,0.0,0.2649774875068581,0.0,0.0,0.2031880245208718
3.0500026226043677,0.11035028845071793,0.039306119084358215,0.27678003907203674,-0.06423109043797977,-0.031035100412637642,0.02654820075913649,0.11035028845071793,0.039306119084358215,0.0015719793007454852,-0.06423109043797977,-0.031035100412637642,-0.17944559564841034,0.08187182697029849,-0.018496314360027633,0.011337517718812862,-0.011316761374473572,-0.22274835407733917,0.011012743227183847,0.0,-2.112091615687578,-0.5580131136823441,18.75441706700786,0.0,0.0,0.0,0.0,0.0,0.27520805977129126,0.0,0.0,0.20599379640754684,0.0,0.0,0.0,0.0,0.0,0.0,0.0,0.0,0.2752075195312414,0.0,0.0,0.2059936523437477
3.1000026226043675,0.10955668240785599,0.03914735093712807,0.2766188979148865,-0.03234235289717995,-0.013943843672371673,0.16491860097070207,0.10955668240785599,0.03914735093712807,-0.008956518584193995,-0.03234235289717995,-0.013943843672371673,-0.04376180983551828,0.08234935829392276,-0.02205951659951655,0.015215031557048064,0.030066227540373802,-0.23132328689098358,-0.015433721244335147,0.0,-1.6031238444086042,-0.43212733326364894,16.747755749120312,0.0,0.0,0.0,0.0,0.0,0.28557541649908047,0.0,0.0,0.20868041080622035,0.0,0.0,0.0,0.0,0.0,0.0,0.0,0.0,0.2855748692130953,0.0,0.0,0.2086802730560281
3.1500026226043674,0.10955668240785599,0.03914735093712807,0.2766188979148865,-0.028790314312199486,-0.013471106972714553,0.2947907441225213,0.10955668240785599,0.03914735093712807,-0.01945517477465064,-0.028790314312199486,-0.013471106972714553,0.08354540408256417,0.08234935829392276,-0.02205951659951655,0.015215031557048064,0.07637057453393936,-0.16851377487182617,-0.006149647757410982,0.0,-0.8887017034787175,-0.26290734328463883,12.739538523862572,0.0,0.0,0.0,0.0,0.0,0.2960740726895371,0.0,0.0,0.21124534003995715,0.0,0.0,0.0,0.0,0.0,0.0,0.0,0.0,0.2960735186767485,0.0,0.0,0.2112452087402321
3.200002622604367,0.09652923047542572,0.038432683795690536,0.3012731075286865,-0.027031618636849893,-0.015553466730280954,0.2698500356548506,0.09652923047542572,0.038432683795690536,-0.005424772468993755,-0.027031618636849893,-0.015553466730280954,0.056163992127269136,0.09162325715255681,-0.0450296738014746,0.015766097270257795,0.1087338998913765,-0.0487808994948864,-0.025030585005879395,0.0,-0.646915867273211,-0.2053824578648431,11.157679110556224,0.0,0.0,0.0,0.0,0.0,0.3066978799976803,0.0,0.0,0.21368604352758147,0.0,0.0,0.0,0.0,0.0,0.0,0.0,0.0,0.3066973195838831,0.0,0.0,0.2136859188079811
3.250002622604367,0.09277141094207764,0.038380008190870285,0.3080071806907654,-0.04078995152805986,-0.004552216952756386,0.11652094305553451,0.09277141094207764,0.038380008190870285,-0.009433385791932591,-0.04078995152805986,-0.004552216952756386,-0.09947917496148481,0.09207023630173561,-0.044103110024745096,0.016116131097955844,0.01975230686366558,0.0444067157804966,0.003019770840182895,0.0,-1.1093173232959799,-0.3380908262603417,13.29336086461224,0.0,0.0,0.0,0.0,0.0,0.317440566482698,0.0,0.0,0.21600011801701932,0.0,0.0,0.0,0.0,0.0,0.0,0.0,0.0,0.31743999999999,0.0,0.0,0.2159999999999979
3.300002622604367,0.08894813805818558,0.03846747800707817,0.31078746914863586,-0.04676590170854446,-0.005734664622475914,0.09445983172058173,0.08894813805818558,0.03846747800707817,-0.017508274325766293,-0.04676590170854446,-0.005734664622475914,-0.12372546586471608,0.0950945221191195,-0.05496310731446208,0.01365581538710181,0.021024923771619797,0.027506938204169277,0.021169515326619145,0.0,-1.6590269896941867,-0.5306636643321279,16.35964885080098,0.0,0.0,0.0,0.0,0.0,0.32829574347440216,0.0,0.0,0.2181852975852978,0.0,0.0,0.0,0.0,0.0,0.0,0.0,0.0,0.3282951712608235,0.0,0.0,0.2181851863861064
3.3500026226043667,0.08438291400671005,0.03884275257587433,0.31524425745010376,-0.06411972555877692,-0.01229818100600983,0.20679152326644157,0.08438291400671005,0.03884275257587433,-0.024012654989579496,-0.06411972555877692,-0.01229818100600983,-0.01344793037210451,0.09173528443978096,-0.04257939882968742,0.01507587207374872,0.045917753130197525,-0.059531960636377335,-0.010923758149147027,0.0,-1.5733550296205006,-0.5125213758381699,16.25610637819093,0.0,0.0,0.0,0.0,0.0,0.33925691243968326,0.0,0.0,0.22023945363854608,0.0,0.0,0.0,0.0,0.0,0.0,0.0,0.0,0.3392563348388565,0.0,0.0,0.2202393493652325
3.4000026226043665,0.07903983443975449,0.03888162598013878,0.3238878846168518,-0.06933033062448554,-0.005131865895908807,0.25524748995362745,0.07903983443975449,0.03888162598013878,-0.026429587232114193,-0.06933033062448554,-0.005131865895908807,0.0330868950416327,0.09658024590235215,-0.04943474057428565,0.017273969802811706,0.05357677489519119,-0.0626770630478859,-0.010259497910737984,0.0,-1.019349829516099,-0.3700515573274025,13.887957758450787,0.0,0.0,0.0,0.0,0.0,0.350317471848966,0.0,0.0,0.22216059491199475,0.0,0.0,0.0,0.0,0.0,0.0,0.0,0.0,0.3503168892097363,0.0,0.0,0.2221604976654033
3.4500026226043663,0.07808584719896317,0.03872251138091087,0.32556208968162537,-0.07123003268351016,-0.0027654202775179533,0.213591663979616,0.07808584719896317,0.03872251138091087,-0.03590863436103897,-0.07123003268351016,-0.0027654202775179533,-0.010355203490359843,0.10182603878210195,-0.05608161880886353,0.013008928681122356,0.009538568556308746,0.06893941015005112,-0.015005053021013745,0.0,-0.7392770227893835,-0.3298008763439168,12.584511864796841,0.0,0.0,0.0,0.0,0.0,0.36147072404266434,0.0,0.0,0.22394686746997583,0.0,0.0,0.0,0.0,0.0,0.0,0.0,0.0,0.3614701367187387,0.0,0.0,0.2239467773437483
3.500002622604366,0.07808584719896317,0.03872251138091087,0.32556208968162537,-0.0771250460608618,0.00018517083307808963,0.1558048779294061,0.07808584719896317,0.03872251138091087,-0.04714779241601036,-0.0771250460608618,0.00018517083307808963,-0.06979167677651693,0.10182603878210195,-0.05608161880886353,0.013008928681122356,0.00033370405435562134,0.1448117345571518,-0.004226856864988821,0.0,-0.9344588205415163,-0.38993226431874106,13.56078977190986,0.0,0.0,0.0,0.0,0.0,0.3727098820976357,0.0,0.0,0.22559655470592302,0.0,0.0,0.0,0.0,0.0,0.0,0.0,0.0,0.3727092904472236,0.0,0.0,0.2255964717864974
3.550002622604366,0.0634457990527153,0.03943813964724541,0.34463104605674744,-0.08683307863743112,-0.0027326734833428555,0.1280723810246384,0.0634457990527153,0.03943813964724541,-0.03939703063689015,-0.08683307863743112,-0.0027326734833428555,-0.09903569631773324,0.10347483097202259,-0.03453796568250933,0.015359205754212013,-0.02001616731286049,0.08590354025363922,0.000619991216808547,0.0,-1.2909544792312329,-0.4998045237351316,15.376052404011675,0.0,0.0,0.0,0.0,0.0,0.3840280766936376,0.0,0.0,0.22710807734237162,0.0,0.0,0.0,0.0,0.0,0.0,0.0,0.0,0.3840274810790895,0.0,0.0,0.2271080017089828
3.6000026226043658,0.05772284045815468,0.03962869569659233,0.34949764609336853,-0.09315773034247404,-0.0033994322088733027,0.15397237298781238,0.05772284045815468,0.03962869569659233,-0.045920716886412694,-0.09315773034247404,-0.0033994322088733027,-0.07450762044314602,0.09976663699888899,-0.03287429090188532,0.013822486803739764,-0.0031380606815218925,0.01141400635242462,-0.008447770029306413,0.0,-1.3183803904930227,-0.527886984611411,15.914777751737688,0.0,0.0,0.0,0.0,0.0,0.3954183629797812,0.0,0.0,0.2284799934309584,0.0,0.0,0.0,0.0,0.0,0.0,0.0,0.0,0.3954177637672301,0.0,0.0,0.2284799251556383
3.6500026226043656,0.05254475399851799,0.039927996695041656,0.35514214634895325,-0.10450058780793792,-0.006727314051141838,0.19388047296624625,0.05254475399851799,0.039927996695041656,-0.05173158109203413,-0.10450058780793792,-0.006727314051141838,-0.03583052538617518,0.10000294168518709,-0.03637762709006065,0.013508439769419844,0.0289389006793499,-0.023367008194327354,0.005481429398059848,0.0,-1.040264348212886,-0.46355678518031534,14.849045767582579,0.0,0.0,0.0,0.0,0.0,0.4068737274409874,0.0,0.0,0.22971099835242142,0.0,0.0,0.0,0.0,0.0,0.0,0.0,0.0,0.4068731249999874,0.0,0.0,0.2297109374999986
3.7000026226043654,0.05254475399851799,0.039927996695041656,0.35514214634895325,-0.0933466947277377,-0.007080049551029421,0.231627596519449,0.05254475399851799,0.039927996695041656,-0.06324494841548794,-0.0933466947277377,-0.007080049551029421,0.0008276717028480318,0.10000294168518709,-0.03637762709006065,0.013508439769419844,0.05264022946357727,0.030370842665433884,0.0031753957737237176,0.0,-1.3208905580796573,-0.5541843979647546,16.178002009473825,0.0,0.0,0.0,0.0,0.0,0.4183870947644412,0.0,0.0,0.23079992481660097,0.0,0.0,0.0,0.0,0.0,0.0,0.0,0.0,0.4183864894676078,0.0,0.0,0.2307998714447011
3.7500026226043652,0.05254475399851799,0.039927996695041656,0.35514214634895325,-0.09403902411614153,-0.0011235601224217767,0.26328328658823635,0.05254475399851799,0.039927996695041656,-0.07480918835709444,-0.09403902411614153,-0.0011235601224217767,0.031537543725797756,0.10000294168518709,-0.03637762709006065,0.013508439769419844,0.03138631209731102,0.06771081686019897,-0.02874117903411389,0.0,-0.29447708750347606,-0.25215350358473104,11.404759008639548,0.0,0.0,0.0,0.0,0.0,0.4299513347060477,0.0,0.0,0.2317457428624386,0.0,0.0,0.0,0.0,0.0,0.0,0.0,0.0,0.4299507269286979,0.0,0.0,0.2317456970214833
3.800002622604365,0.034953612834215164,0.04038342460989952,0.3850611448287964,-0.08787163257128716,0.0008009418650112729,0.18257734705128864,0.034953612834215164,0.04038342460989952,-0.05649812412808963,-0.08787163257128716,0.0008009418650112729,-0.0499702128066882,0.10317137575680402,-0.027004779771361953,0.010938362521001999,-0.00037087779492139816,0.19167223572731018,-0.04448508471250536,0.0,-0.5038635007089121,-0.33699457547588824,12.21783973927726,0.0,0.0,0.0,0.0,0.0,0.441559268956886,0.0,0.0,0.23254755985797684,0.0,0.0,0.0,0.0,0.0,0.0,0.0,0.0,0.4415586590766772,0.0,0.0,0.2325475215911857
3.850002622604365,0.030540285632014275,0.04045978561043739,0.3886558413505554,-0.09543585885619199,0.00018289127875632886,0.07837371903421321,0.030540285632014275,0.04045978561043739,-0.06454783665911012,-0.09543585885619199,0.00018289127875632886,-0.15483090146614747,0.10412515665977518,-0.018874752220660707,0.009269652592823974,-0.0019957334734499454,0.15996386110782623,-0.01078896503895523,0.0,-1.3089834344488889,-0.5806444258363321,15.982513049733154,0.0,0.0,0.0,0.0,0.0,0.45320367800966554,0.0,0.0,0.23320462050036067,0.0,0.0,0.0,0.0,0.0,0.0,0.0,0.0,0.4532030664062363,0.0,0.0,0.2332045898437493
3.9000026226043647,0.028552846983075142,0.04053690284490585,0.38971421122550964,-0.1059176370437378,-0.0015394112244671286,0.12282030457116591,0.028552846983075142,0.04053690284490585,-0.07516309679967009,-0.1059176370437378,-0.0015394112244671286,-0.11089600224467058,0.1075554991072396,-0.014582128320189014,0.009921232359102028,0.032482217997312546,-0.007621900178492068,0.0042963079176843175,0.0,-1.603117355545454,-0.6694526625210095,17.808835427883672,0.0,0.0,0.0,0.0,0.0,0.46487730802517974,0.0,0.0,0.2337163068158365,0.0,0.0,0.0,0.0,0.0,0.0,0.0,0.0,0.4648766950797894,0.0,0.0,0.2337162837982173
3.9500026226043645,0.028552846983075142,0.04053690284490585,0.38971421122550964,-0.10023958394043764,0.0030367903013914653,0.27252962073723014,0.028552846983075142,0.04053690284490585,-0.08685866647325269,-0.10023958394043764,0.0030367903013914653,0.038447482577478764,0.1075554991072396,-0.014582128320189014,0.009921232359102028,0.032134801149368286,-0.09607048332691193,0.003702092450112116,0.0,-1.1005861585808139,-0.5371208441425237,15.776172280057466,0.0,0.0,0.0,0.0,0.0,0.47657287769876233,0.0,0.0,0.23408213815975137,0.0,0.0,0.0,0.0,0.0,0.0,0.0,0.0,0.4765722637939311,0.0,0.0,0.234082122802734
4.000002622604365,0.028552846983075142,0.04053690284490585,0.38971421122550964,-0.07226616298461702,0.009197145310622162,0.30517476158979584,0.028552846983075142,0.04053690284490585,-0.09856887390123259,-0.07226616298461702,0.009197145310622162,0.07087299037324066,0.1075554991072396,-0.014582128320189014,0.009921232359102028,0.0027853387873619795,-0.043357573449611664,0.0015185719821602158,0.0,-0.5588594623241153,-0.40605858529798844,12.825065828738387,0.0,0.0,0.0,0.0,0.0,0.48828308512674223,0.0,0.0,0.23430177121655518,0.0,0.0,0.0,0.0,0.0,0.0,0.0,0.0,0.4882824706458902,0.0,0.0,0.2343017635345457
4.050002622604365,0.012768609449267387,0.04100394621491432,0.4250766932964325,-0.06830858153627242,0.004215839672360719,0.22243726922072812,0.012768609449267387,0.04100394621491432,-0.07492392137646564,-0.06830858153627242,0.004215839672360719,-0.011937730779070455,0.1102122174433724,-0.018205005181731515,0.009373926887192852,0.03319002315402031,0.08243336528539658,-0.025391817092895518,0.0,-0.6539346978889677,-0.4271822565704705,12.641009151523948,0.0,0.0,0.0,0.0,0.0,0.5000006146728981,0.0,0.0,0.23437499999979858,0.0,0.0,0.0,0.0,0.0,0.0,0.0,0.0,0.4999999999999852,0.0,0.0,0.234375
4.100002622604364,0.009803670458495617,0.041079819202423096,0.43271884322166443,-0.06793843827645067,0.003242812270096865,0.16634957540319256,0.009803670458495617,0.041079819202423096,-0.07899930061324878,-0.06793843827645067,0.003242812270096865,-0.06795218044894119,0.10958357762746562,-0.014524664748672755,0.007849719959118318,0.0282751377671957,0.05937661603093147,-0.005062441341578967,0.0,-1.0915959646697444,-0.546916748261952,14.820128939901208,0.0,0.0,0.0,0.0,0.0,0.5117181438349132,0.0,0.0,0.23430175585213375,0.0,0.0,0.0,0.0,0.0,0.0,0.0,0.0,0.5117175293540807,0.0,0.0,0.234301763534546
4.150002622604364,0.006627419497817755,0.041258182376623154,0.43908244371414185,-0.06728981634821671,0.0012308578488080977,0.1922355510019561,0.006627419497817755,0.041258182376623154,-0.08434590639668937,-0.06728981634821671,0.0012308578488080977,-0.041846556443358995,0.10989582791629138,-0.013429483481842919,0.006322047292347754,0.05555913597345352,-0.0629790723323822,-0.006286575458943836,0.0,-1.4720599896553188,-0.6566903695503834,16.693371942498917,0.0,0.0,0.0,0.0,0.0,0.5234283501108312,0.0,0.0,0.2340821074453151,0.0,0.0,0.0,0.0,0.0,0.0,0.0,0.0,0.5234277362060393,0.0,0.0,0.2340821228027347
4.200002622604364,0.0032276755664497614,0.04117989167571068,0.4480671286582947,-0.07902927311244956,-0.0009320028574143056,0.23592366929194733,0.0032276755664497614,0.04117989167571068,-0.08705678920721782,-0.07902927311244956,-0.0009320028574143056,0.0022074085117498032,0.10758034315824583,-0.022798606487267392,0.006971650229200321,0.010845556855201721,-0.14662258327007294,0.020455550402402895,0.0,-1.2946355871159763,-0.6061829829919672,15.920442503259231,0.0,0.0,0.0,0.0,0.0,0.5351239178655125,0.0,0.0,0.23371626078019753,0.0,0.0,0.0,0.0,0.0,0.0,0.0,0.0,0.535123304920181,0.0,0.0,0.2337162837982183
4.250002622604364,0.00014293073036242276,0.04119204729795456,0.46031105518341064,-0.05693394016690664,1.988342725511903e-05,0.29134676678822236,0.00014293073036242276,0.04119204729795456,-0.08648649001367426,-0.05693394016690664,1.988342725511903e-05,0.05814220760148314,0.11176710362903464,-0.029830198023629073,0.007319695474748755,0.020967228338122368,-0.07207059860229492,0.001979235094040641,0.0,-0.8214167772036551,-0.4812513673547626,13.89075013121779,0.0,0.0,0.0,0.0,0.0,0.5467975451970849,0.0,0.0,0.2332045591867392,0.0,0.0,0.0,0.0,0.0,0.0,0.0,0.0,0.5467969335937344,0.0,0.0,0.2332045898437509
4.300002622604364,-0.002267950912937522,0.04086675867438316,0.47269880771636963,-0.05112297857728514,-0.004594651512014012,0.26883885197596485,-0.002267950912937522,0.04086675867438316,-0.08574314308703457,-0.05112297857728514,-0.004594651512014012,0.03629136865196697,0.11165092981242974,-0.03094812226289978,0.009218993183202961,0.011421465314924717,0.027609510347247124,-0.010317351669073108,0.0,-0.7751847113494811,-0.46005598185521684,13.11466202539828,0.0,0.0,0.0,0.0,0.0,0.5584419508034042,0.0,0.0,0.23254748332399788,0.0,0.0,0.0,0.0,0.0,0.0,0.0,0.0,0.5584413409232933,0.0,0.0,0.2325475215911875
4.3500026226043635,-0.004312270786613226,0.04033103585243225,0.4825657904148102,-0.049266736591694886,-0.012528564406782695,0.19131480742021745,-0.004312270786613226,0.04033103585243225,-0.0874840904336951,-0.049266736591694886,-0.012528564406782695,-0.04043084375991651,0.12658751778747535,-0.023567773437814132,0.015296430257825122,0.007809234783053398,0.07210870087146759,-0.015967948362231265,0.0,-1.0845657683512915,-0.5303354380100078,14.418880006853133,0.0,0.0,0.0,0.0,0.0,0.5700498808485053,0.0,0.0,0.23174565118013396,0.0,0.0,0.0,0.0,0.0,0.0,0.0,0.0,0.570049273071273,0.0,0.0,0.2317456970214855
4.400002622604363,-0.005934291053563356,0.03976953774690628,0.4905761778354645,-0.051997158654518975,-0.014027994384485647,0.18579308062964517,-0.005934291053563356,0.03976953774690628,-0.09103793799359483,-0.051997158654518975,-0.014027994384485647,-0.04500673744276429,0.10294490855633631,-0.016042075477392892,0.008026939589914406,-0.012411111034452915,0.010676387697458265,-0.01294644642621279,0.0,-1.409057589299747,-0.5933055167956479,16.041523130469077,0.0,0.0,0.0,0.0,0.0,0.5816141158290593,0.0,0.0,0.23079981807240946,0.0,0.0,0.0,0.0,0.0,0.0,0.0,0.0,0.5816135105323627,0.0,0.0,0.2307998714447034
4.450002622604363,-0.008032268844544888,0.039125192910432816,0.4996761977672577,-0.0546711444515862,-0.01927931794816451,0.2114106979215019,-0.008032268844544888,0.039125192910432816,-0.09345127967356937,-0.0546711444515862,-0.01927931794816451,-0.01830017872568601,0.10762591800185461,-0.023840332112745166,0.0060674299450660385,-0.011691225692629814,-0.07326986640691757,0.011237680912017831,0.0,-1.3510670979618415,-0.5765203746691532,15.867028266090719,0.0,0.0,0.0,0.0,0.0,0.5931274774408271,0.0,0.0,0.22971087664718792,0.0,0.0,0.0,0.0,0.0,0.0,0.0,0.0,0.5931268749999838,0.0,0.0,0.2297109375000015
4.500002622604363,-0.010066170245409012,0.03822322189807892,0.511277437210083,-0.044264181680461145,-0.01158065955791575,0.27654295033184256,-0.010066170245409012,0.03822322189807892,-0.09330539823503392,-0.044264181680461145,-0.01158065955791575,0.04806309345190923,0.11111300185529549,-0.029551015485638654,0.008227587254586055,-0.04753350466489792,-0.07383876293897629,0.006191408727318057,0.0,-1.0836058772682948,-0.4888550833845473,14.653665610241006,0.0,0.0,0.0,0.0,0.0,0.6045828354451169,0.0,0.0,0.22847985687993333,0.0,0.0,0.0,0.0,0.0,0.0,0.0,0.0,0.6045822362327409,0.0,0.0,0.2284799251556414
4.550002622604363,-0.011807328090071678,0.03748827427625656,0.5238204002380371,-0.04023160205124361,-0.021445752926586507,0.2652313187302636,-0.011807328090071678,0.03748827427625656,-0.0921527142971984,-0.04023160205124361,-0.021445752926586507,0.038123392655050714,0.10494123577811765,-0.029712364969773475,0.00527085814628947,-0.03745969757437706,-0.016086755320429802,-0.0012698714854195694,0.0,-0.9612009645181507,-0.4729956908272545,13.689659860867417,0.0,0.0,0.0,0.0,0.0,0.6159731145352355,0.0,0.0,0.2271079260752129,0.0,0.0,0.0,0.0,0.0,0.0,0.0,0.0,0.6159725189208816,0.0,0.0,0.2271080017089864
4.600002622604363,-0.01322966255247593,0.03634931147098541,0.5347525477409363,-0.04310300215165897,-0.02504448032809796,0.23632608197753355,-0.01322966255247593,0.03634931147098541,-0.09253875346201079,-0.04310300215165897,-0.02504448032809796,0.010729693110838295,0.10670718734487483,-0.029248647521087356,0.005386807685161088,-0.0027697996702045202,0.011633221991360186,-0.007499908562749626,0.0,-1.1456043761082417,-0.4912679402048923,14.416375152880544,0.0,0.0,0.0,0.0,0.0,0.6272913012029471,0.0,0.0,0.22559638886669525,0.0,0.0,0.0,0.0,0.0,0.0,0.0,0.0,0.627290709552748,0.0,0.0,0.2255964717865014
4.6500026226043625,-0.014555537141859531,0.035174865275621414,0.5446392893791199,-0.046310199753472725,-0.027904173274401065,0.2252010467481621,-0.014555537141859531,0.035174865275621414,-0.0938911612258071,-0.046310199753472725,-0.027904173274401065,0.0012543595310134936,0.10588683258319742,-0.02989105077076637,0.00626446746775855,-0.009882209822535515,-0.03000689670443535,0.004533958621323112,0.0,-1.3740689320378843,-0.546488610975611,15.525343333562178,0.0,0.0,0.0,0.0,0.0,0.638530450604927,0.0,0.0,0.2239466872171486,0.0,0.0,0.0,0.0,0.0,0.0,0.0,0.0,0.6385298632812328,0.0,0.0,0.2239467773437529
4.700002622604362,-0.016356034204363823,0.03380655124783516,0.5549021363258362,-0.04676873101357821,-0.029308525311817216,0.2529611884880151,-0.016356034204363823,0.03380655124783516,-0.09478155710337943,-0.04676873101357821,-0.029308525311817216,0.030800788069570206,0.1035976820911979,-0.0323874530825754,0.0022384546366982505,-0.004961165599524975,-0.057210106402635574,0.007744749076664455,0.0,-1.6328428386878728,-0.616152440402496,16.76714733690359,0.0,0.0,0.0,0.0,0.0,0.6496836934292156,0.0,0.0,0.22216040041844487,0.0,0.0,0.0,0.0,0.0,0.0,0.0,0.0,0.6496831107902354,0.0,0.0,0.2221604976654082
4.750002622604362,-0.018398467451334,0.03277406096458435,0.5680347681045532,-0.03699632636452906,-0.020421997590371523,0.3190404261872334,-0.018398467451334,0.03277406096458435,-0.09270947465712132,-0.03699632636452906,-0.020421997590371523,0.09880118109567643,0.10273062643471587,-0.03846190751235046,0.004838245451225909,-0.01425019558519125,-0.08263956755399704,0.005702762864530097,0.0,-0.956543178731284,-0.4127993834506824,13.677521114940742,0.0,0.0,0.0,0.0,0.0,0.6607442427616745,0.0,0.0,0.22023924509155696,0.0,0.0,0.0,0.0,0.0,0.0,0.0,0.0,0.6607436651611158,0.0,0.0,0.2202393493652374
4.800002622604362,-0.02011832222342491,0.031822893768548965,0.5817968845367432,-0.037950090354904396,-0.023336589093733408,0.28546273547970713,-0.02011832222342491,0.031822893768548965,-0.08990851641569897,-0.037950090354904396,-0.023336589093733408,0.0672776602931483,0.09780875279670331,-0.03963790749688911,0.005684227321436808,-0.014666121453046799,0.01164152193814516,-0.004208631813526155,0.0,-0.8743425455606326,-0.4142747318995542,12.877087767808407,0.0,0.0,0.0,0.0,0.0,0.6717054009524421,0.0,0.0,0.21818507518655883,0.0,0.0,0.0,0.0,0.0,0.0,0.0,0.0,0.6717048287391487,0.0,0.0,0.2181851863861117
4.850002622604362,-0.021541189402341843,0.03044871613383293,0.5920864939689636,-0.04050670255921356,-0.02878007757020773,0.2086966442846723,-0.021541189402341843,0.03044871613383293,-0.09047407251342399,-0.04050670255921356,-0.02878007757020773,-0.007303237697954074,0.095815074293228,-0.0352610424372668,0.0016899588537295784,-0.008778097108006477,0.054850995540618896,-0.004303429275751121,0.0,-1.2785595172485644,-0.5210258302003904,14.712619579103938,0.0,0.0,0.0,0.0,0.0,0.6825605664823876,0.0,0.0,0.21599988198262637,0.0,0.0,0.0,0.0,0.0,0.0,0.0,0.0,0.6825599999999824,0.0,0.0,0.2160000000000038
4.900002622604362,-0.023145487532019615,0.029128339141607285,0.6010839343070984,-0.050182928586470894,-0.03070801392558149,0.2065644043376044,-0.023145487532019615,0.029128339141607285,-0.09221930652246813,-0.050182928586470894,-0.03070801392558149,-0.007121389750432722,0.09602402450544334,-0.03511817035254339,0.0034616337693007537,0.003270477056503296,-0.0064678611233830435,0.013245719484984875,0.0,-1.6327023219378476,-0.6033658933039576,16.53455027959088,0.0,0.0,0.0,0.0,0.0,0.6933032408295665,0.0,0.0,0.21368579408803712,0.0,0.0,0.0,0.0,0.0,0.0,0.0,0.0,0.6933026804160896,0.0,0.0,0.213685918807987
4.950002622604361,-0.02537006139755249,0.027792995795607567,0.6119431853294373,-0.04800618931455535,-0.031590649267059005,0.28417223795229907,-0.02537006139755249,0.027792995795607567,-0.09198385000623865,-0.04800618931455535,-0.031590649267059005,0.072927160512129,0.09735852671956824,-0.038397792698417366,0.0055971340228611055,0.018209664151072502,-0.06651484966278076,0.00981157924979926,0.0,-1.489617285379398,-0.562760123269804,16.098194771503,0.0,0.0,0.0,0.0,0.0,0.7039270353356759,0.0,0.0,0.21124507744017007,0.0,0.0,0.0,0.0,0.0,0.0,0.0,0.0,0.7039264813232243,0.0,0.0,0.2112452087402385
