time,pos_x,pos_y,pos_z,vel_x,vel_y,vel_z,pos_xo,pos_yo,pos_zo,vel_xo,vel_yo,vel_zo,roll,pitch,yaw,roll_vel,pitch_vel,yaw_vel,thrust_z,force_x,force_y,force_z,torque_x,torque_y,torque_z,pos_xd,pos_yd,pos_zd,vel_xd,vel_yd,vel_zd,roll_d,pitch_d,yaw_d,roll_vel_d,pitch_vel_d,yaw_vel_d
0.005,-0.007618399549237988,0.013070062824192295,0.9786007131513135,-0.023379319114845847,0.0409485372786782,-0.3717517864832197,-0.007618399549237988,0.013070062824192295,0.5786007131513135,-0.023379319114845847,0.0409485372786782,-0.3717517864832197,-0.00356138680609045,0.012940587681786136,-0.010364117637349015,-0.017589046021206863,0.014798871424325644,-0.008808290662469562,0.0,0.0,0.0,0.0,0.0,0.0,0.0,0.0,0.0,0.4,0.0,0.0,0.0,0.0,0.0,0.0,0.0,0.0,0.0
0.01,-0.007720511860130374,0.01323018669334018,0.9766923943171925,-0.017968596748459888,0.020008662879512792,-0.4169019339565368,-0.007618399549237988,0.013070062824192295,0.5786007131513135,-0.023379319114845847,0.0409485372786782,-0.3717517864832197,-0.003127125871705928,0.013154754916658892,-0.010425896648589386,0.2821784638493534,0.09160750877670534,-0.01699210093025223,0.0,0.2188483888620702,-0.3818741400088978,3.1600774089789754,0.0,0.0,0.0,0.0,0.0,0.40000478721917954,0.0,0.0,0.001912335339540464,0.0,0.0,0.0,0.0,0.0,0.0
0.015,-0.007784889018159118,0.013229423963586801,0.9744658717269618,-0.007319117029219432,-0.015464983233164229,-0.4537946858811433,-0.007618399549237988,0.013070062824192295,0.5786007131513135,-0.023379319114845847,0.0409485372786782,-0.3717517864832197,-0.00022587845996321814,0.01400721766487807,-0.01053764098446835,0.7883368010050814,0.242860466903189,-0.024715209333382254,0.0,0.2188483888620702,-0.3818741400088978,3.1600774089789754,0.0,0.0,0.0,0.0,0.0,0.4000190979065458,0.0,0.0,0.0038094025529743134,0.0,0.0,0.0,0.0,0.0,0.0
0.02,-0.007790923649838099,0.013161029032928121,0.9720330068213302,0.0033434629423438637,-0.0028305207183693115,-0.4983505367353019,-0.007618399549237988,0.013070062824192295,0.5786007131513135,-0.023379319114845847,0.0409485372786782,-0.3717517864832197,0.003622802903581521,0.015681593421561533,-0.010660412330970667,0.6037367624158315,0.39106020819496673,-0.023451952237548507,0.0,0.2188483888620702,-0.3818741400088978,3.1600774089789754,0.0,0.0,0.0,0.0,0.0,0.4000428559502358,0.0,0.0,0.00569129306608472,0.0,0.0,0.0,0.0,0.0,0.0
0.025,-0.007773653542325096,0.013209282674164668,0.9695422435449708,0.0004227951078195052,0.01929224983089031,-0.5359639421268951,-0.007618399549237988,0.013070062824192295,0.5786007131513135,-0.023379319114845847,0.0409485372786782,-0.3717517864832197,0.005636453073622547,0.017553554220161922,-0.010754340529640789,0.29110722558690477,0.3420129744105807,-0.019125025321540784,0.0,0.2188483888620702,-0.3818741400088978,3.1600774089789754,0.0,0.0,0.0,0.0,0.0,0.40007598569429814,0.0,0.0,0.0075580978180245905,0.0,0.0,0.0,0.0,0.0,0.0
0.030000000000000002,-0.007809619666055893,0.013290081052318973,0.9667001136247938,-0.013215426714045173,0.005957541825000763,-0.5763495835030982,-0.007618399549237988,0.013070062824192295,0.5786007131513135,-0.023379319114845847,0.0409485372786782,-0.3717517864832197,0.007390645773980879,0.018746741801284956,-0.010827494933601614,0.49005383930591967,0.14724849360098455,-0.012779275567103579,0.0,0.2188483888620702,-0.3818741400088978,3.1600774089789754,0.0,0.0,0.0,0.0,0.0,0.40011841193626585,0.0,0.0,0.009409907263744853,0.0,0.0,0.0,0.0,0.0,0.0
0.035,-0.007879652220975706,0.013257828601862906,0.9636550478269126,-0.010400834378070607,-0.014440351685733387,-0.6149873724347312,-0.007618399549237988,0.013070062824192295,0.5786007131513135,-0.023379319114845847,0.0409485372786782,-0.3717517864832197,0.010783378807242002,0.01947041378177492,-0.010864977469415376,0.7830787435775908,0.19152687394894843,-0.004670187557214089,0.0,0.2188483888620702,-0.3818741400088978,3.1600774089789754,0.0,0.0,0.0,0.0,0.0,0.40017005992474053,0.0,0.0,0.011246811376411116,0.0,0.0,0.0,0.0,0.0,0.0
0.04,-0.007895474482478524,0.013209841614808506,0.9606042896668799,0.0022706918853443465,0.00029406743059078727,-0.6538699610498696,-0.007618399549237988,0.013070062824192295,0.5786007131513135,-0.023379319114845847,0.0409485372786782,-0.3717517864832197,0.014218638333637946,0.020874079017284306,-0.010847623525603915,0.5685920123776459,0.3717635049517278,0.0038365199025380305,0.0,0.2188483888620702,-0.3818741400088978,3.1600774089789754,0.0,0.0,0.0,0.0,0.0,0.400230855356991,0.0,0.0,0.01306889964980876,0.0,0.0,0.0,0.0,0.0,0.0
0.045,-0.007883351494942506,0.013277028742296052,0.9571662298372082,-0.001618016394901332,0.022224479392831217,-0.691282155558647,-0.007618399549237988,0.013070062824192295,0.5786007131513135,-0.023379319114845847,0.0409485372786782,-0.3717517864832197,0.016171323127167573,0.02275818943295636,-0.010780220949838033,0.2543075964366575,0.3114595832874774,0.010900357183641768,0.0,0.2188483888620702,-0.3818741400088978,3.1600774089789754,0.0,0.0,0.0,0.0,0.0,0.40030072437656083,0.0,0.0,0.014876261100736476,0.0,0.0,0.0,0.0,0.0,0.0
0.049999999999999996,-0.007930844122347461,0.013369590608782905,0.9535338386800755,-0.015128597400006036,0.008319739592091174,-0.7312161757049709,-0.007618399549237988,0.013070062824192295,0.5786007131513135,-0.023379319114845847,0.0409485372786782,-0.3717517864832197,0.017769870088664912,0.023786750380239717,-0.010687962264631897,0.4559385015754732,0.12186511866848852,0.018113787401351788,0.0,0.2188483888620702,-0.3818741400088978,3.1600774089789754,0.0,0.0,0.0,0.0,0.0,0.4003795935708907,0.0,0.0,0.016668984271388368,0.0,0.0,0.0,0.0,0.0,0.0
0.05499999999999999,-0.008005467880921165,0.01335565214531707,0.9499298143059296,-0.012604390118273343,-0.01031645327055064,-0.7677409356152904,-0.008005467880921165,0.01335565214531707,0.5494624243369792,-0.012604390118273343,-0.01031645327055064,-0.7861880928470151,0.02072071385398377,0.024353514269162366,-0.010572060148956784,0.7209104769762642,0.16303111633957026,0.025359784622934672,0.0,0.2188483888620702,-0.3818741400088978,3.1600774089789754,0.0,0.0,0.0,0.0,0.0,0.40046738996895037,0.0,0.0,0.018447157231724604,0.0,0.0,0.0,0.0,0.0,0.0
0.05999999999999999,-0.008036848710619996,0.013372853469898914,0.9459249417065932,-0.0031458926962871156,0.03031866670457572,-0.796699954019451,-0.008005467880921165,0.01335565214531707,0.5494624243369792,-0.012604390118273343,-0.01031645327055064,-0.7861880928470151,0.023369088129025963,0.025632317373688332,-0.010395555741075597,0.12853780480607407,0.2882781241149416,0.030650124402590045,0.0,0.14152585662267897,0.0034887511868157937,8.558820623992858,0.0,0.0,0.0,0.0,0.0,0.40056404103888354,0.0,0.0,0.020210867581830744,0.0,0.0,0.0,0.0,0.0,0.0
0.06499999999999999,-0.008097040278297647,0.013700477040615782,0.9418203344230489,-0.024899109685396832,0.08717647654632023,-0.8121406740419564,-0.008005467880921165,0.01335565214531707,0.5494624243369792,-0.012604390118273343,-0.01031645327055064,-0.7861880928470151,0.021534330742704586,0.026413817372285497,-0.010229350671857523,-0.6925778259547976,-0.03982694430199304,0.026659847117609832,0.0,0.14152585662267897,0.0034887511868157937,8.558820623992858,0.0,0.0,0.0,0.0,0.0,0.40066947468566505,0.0,0.0,0.02196020245426571,0.0,0.0,0.0,0.0,0.0,0.0
0.06999999999999999,-0.008275054358783899,0.014080750956546867,0.9378565407217652,-0.044233439930780605,0.057760065636078425,-0.8384983292979168,-0.008005467880921165,0.01335565214531707,0.5494624243369792,-0.012604390118273343,-0.01031645327055064,-0.7861880928470151,0.018773134980098433,0.02539264815188624,-0.010124268638371388,-0.2701384755826789,-0.3119985372648336,0.0271569923824929,0.0,0.14152585662267897,0.0034887511868157937,8.558820623992858,0.0,0.0,0.0,0.0,0.0,0.40078361924876804,0.0,0.0,0.023695248516398523,0.0,0.0,0.0,0.0,0.0,0.0
0.075,-0.008477222898453617,0.014246814394389377,0.9335134617656167,-0.030241250699662728,0.017472059915493558,-0.8621233465329269,-0.008005467880921165,0.01335565214531707,0.5494624243369792,-0.012604390118273343,-0.01031645327055064,-0.7861880928470151,0.019210667148991417,0.024153758190867645,-0.010005926883127195,0.29469229499725935,-0.10813073563557142,0.027576547434896553,0.0,0.14152585662267897,0.0034887511868157937,8.558820623992858,0.0,0.0,0.0,0.0,0.0,0.40090640349984485,0.0,0.0,0.025416091972733854,0.0,0.0,0.0,0.0,0.0,0.0
0.08,-0.008581240975232142,0.0143668342600763,0.9290671602617417,-0.014638852085847684,0.03819371838827618,-0.8797315644164371,-0.008005467880921165,0.01335565214531707,0.5494624243369792,-0.012604390118273343,-0.01031645327055064,-0.7861880928470151,0.020219825176334874,0.024289869275142727,-0.009861511418340393,-0.020974040107744098,0.10277223024997148,0.028529371467338673,0.0,0.14152585662267897,0.0034887511868157937,8.558820623992858,0.0,0.0,0.0,0.0,0.0,0.40103775664041785,0.0,0.0,0.027122818567226366,0.0,0.0,0.0,0.0,0.0,0.0
0.085,-0.008654149986725049,0.014616626846048824,0.924806655984077,-0.018775584463200545,0.06005878868357218,-0.8947334874420613,-0.008005467880921165,0.01335565214531707,0.5494624243369792,-0.012604390118273343,-0.01031645327055064,-0.7861880928470151,0.01913680600009061,0.02470167598562001,-0.009711798637001678,-0.34863703635154897,0.028994816042994358,0.029630755980252582,0.0,0.14152585662267897,0.0034887511868157937,8.558820623992858,0.0,0.0,0.0,0.0,0.0,0.40117760829958227,0.0,0.0,0.028815513585584013,0.0,0.0,0.0,0.0,0.0,0.0
0.09000000000000001,-0.008777502626920949,0.014909260557446546,0.9201970801995693,-0.027858251875434357,0.04965549425013674,-0.9118428100200168,-0.008005467880921165,0.01335565214531707,0.5494624243369792,-0.012604390118273343,-0.01031645327055064,-0.7861880928470151,0.01752927216580426,0.024427818312266827,-0.00956844915910219,-0.21238400375792782,-0.10897929678673543,0.028900347327740397,0.0,0.14152585662267897,0.0034887511868157937,8.558820623992858,0.0,0.0,0.0,0.0,0.0,0.4013258885317216,0.0,0.0,0.030494261857560257,0.0,0.0,0.0,0.0,0.0,0.0
0.09500000000000001,-0.008919498580422297,0.015124854277136187,0.9154997715161348,-0.02606264079620014,0.03712749245800656,-0.9292210585096409,-0.008005467880921165,0.01335565214531707,0.5494624243369792,-0.012604390118273343,-0.01031645327055064,-0.7861880928470151,0.01695873822772295,0.023863169677502735,-0.009428755211352932,-0.04487736683425921,-0.08662817327556394,0.030006459541585352,0.0,0.14152585662267897,0.0034887511868157937,8.558820623992858,0.0,0.0,0.0,0.0,0.0,0.40148252781423244,0.0,0.0,0.03215914775923528,0.0,0.0,0.0,0.0,0.0,0.0
0.10000000000000002,-0.009026842547857234,0.015301183142449725,0.9109998342713417,-0.01956497039509731,0.03883558535525352,-0.9448756893678568,-0.008005467880921165,0.01335565214531707,0.5494624243369792,-0.012604390118273343,-0.01031645327055064,-0.7861880928470151,0.016742500166492376,0.023688319728097405,-0.009282133971600678,-0.08205527203739857,0.0010984392122968879,0.032014595253570644,0.0,0.14152585662267897,0.0034887511868157937,8.558820623992858,0.0,0.0,0.0,0.0,0.0,0.40164745704526283,0.0,0.0,0.03381025521528627,0.0,0.0,0.0,0.0,0.0,0.0
0.10500000000000002,-0.009119615872626002,0.015513885735921173,0.9061374020029827,-0.018469445447987745,0.043813629058984865,-0.9612253207215046,-0.009119615872626002,0.015513885735921173,0.5043167944615227,-0.018469445447987745,0.043813629058984865,-0.9966729884227514,0.016084734811481247,0.023767779634437197,-0.00911707997429549,-0.16637421104651123,0.008129473173398249,0.0313239756233568,0.0,0.14152585662267897,0.0034887511868157937,8.558820623992858,0.0,0.0,0.0,0.0,0.0,0.40182060754146,0.0,0.0,0.03544766770124683,0.0,0.0,0.0,0.0,0.0,0.0
0.11000000000000003,-0.009222177544074327,0.01570881543773766,0.9012073677064258,-0.022073627472667532,0.028898356965645522,-0.9698878954921306,-0.009119615872626002,0.015513885735921173,0.5043167944615227,-0.018469445447987745,0.043813629058984865,-0.9966729884227514,0.015619765744547064,0.023667379400910512,-0.00896561383808954,0.03599309414214489,-0.050198532881683196,0.029302501811704056,0.0,0.19487439332758852,-0.4247601953576041,12.016016309188027,0.0,0.0,0.0,0.0,0.0,0.4020019110357309,0.0,0.0,0.03707146824575544,0.0,0.0,0.0,0.0,0.0,0.0
0.11500000000000003,-0.009331066096651897,0.01581311872903322,0.8965398295300425,-0.022639448367174117,0.018328114416860768,-0.9747522309600263,-0.009119615872626002,0.015513885735921173,0.5043167944615227,-0.018469445447987745,0.043813629058984865,-0.9966729884227514,0.016253736265241077,0.023373548111122116,-0.008822739721868547,0.17429095617822826,-0.06204632906256943,0.03288847188990214,0.0,0.19487439332758852,-0.4247601953576041,12.016016309188027,0.0,0.0,0.0,0.0,0.0,0.402191299675013,0.0,0.0,0.03868173943279329,0.0,0.0,0.0,0.0,0.0,0.0
0.12000000000000004,-0.009441505021566132,0.01591693806983915,0.891554949247225,-0.020483720180117654,0.024635335334500828,-0.9797213365056837,-0.009119615872626002,0.015513885735921173,0.5043167944615227,-0.018469445447987745,0.043813629058984865,-0.9966729884227514,0.016953572300179305,0.023111869338264392,-0.008642303381409498,0.06860841783179551,-0.037422166514385714,0.0385880657691838,0.0,0.19487439332758852,-0.4247601953576041,12.016016309188027,0.0,0.0,0.0,0.0,0.0,0.40238870601805676,0.0,0.0,0.04027856340391121,0.0,0.0,0.0,0.0,0.0,0.0
0.12500000000000003,-0.009543683544396343,0.016059286161354082,0.8865443735815376,-0.01987726337693456,0.02923251705586273,-0.9848448080084365,-0.009119615872626002,0.015513885735921173,0.5043167944615227,-0.018469445447987745,0.043813629058984865,-0.9966729884227514,0.017036004122985178,0.02293208312652688,-0.008443209318949756,-0.008766624173533742,-0.03546006622596807,0.04005254426050678,0.0,0.19487439332758852,-0.4247601953576041,12.016016309188027,0.0,0.0,0.0,0.0,0.0,0.4025940630332189,0.0,0.0,0.04186202186044599,0.0,0.0,0.0,0.0,0.0,0.0
0.13000000000000003,-0.009636281007280003,0.016192303619830505,0.8818053089682092,-0.018784530096734323,0.02534098240880956,-0.9894688553716784,-0.009119615872626002,0.015513885735921173,0.5043167944615227,-0.018469445447987745,0.043813629058984865,-0.9966729884227514,0.017077712095011577,0.02278898736089542,-0.008251206500910062,0.03699535680891038,-0.023651733972903845,0.04135361957115513,0.0,0.19487439332758852,-0.4247601953576041,12.016016309188027,0.0,0.0,0.0,0.0,0.0,0.40280730409626664,0.0,0.0,0.04343219606572607,0.0,0.0,0.0,0.0,0.0,0.0
0.13500000000000004,-0.009732892701179798,0.016309861970666466,0.8767432437890903,-0.01918311656809369,0.02144917700279877,-0.9952407375519932,-0.009119615872626002,0.015513885735921173,0.5043167944615227,-0.018469445447987745,0.043813629058984865,-0.9966729884227514,0.017400766559384134,0.022642378636650726,-0.008031026238594474,0.07820702189338682,-0.03394952276046006,0.046029099474611146,0.0,0.19487439332758852,-0.4247601953576041,12.016016309188027,0.0,0.0,0.0,0.0,0.0,0.403028362988194,0.0,0.0,0.04498916684726656,0.0,0.0,0.0,0.0,0.0,0.0
0.14000000000000004,-0.009830376968428348,0.01642377652849894,0.8716522961404874,-0.018846884335787146,0.023863969621190268,-1.0009128577162645,-0.009119615872626002,0.015513885735921173,0.5043167944615227,-0.018469445447987745,0.043813629058984865,-0.9966729884227514,0.01768678929187215,0.022451504900017613,-0.00778932262202183,0.023871230452761533,-0.036476600300237444,0.04917818421039658,0.0,0.19487439332758852,-0.4247601953576041,12.016016309188027,0.0,0.0,0.0,0.0,0.0,0.4032571738930468,0.0,0.0,0.046533014598953766,0.0,0.0,0.0,0.0,0.0,0.0
0.14500000000000005,-0.009918137027555115,0.01653842261329166,0.8668330527396914,-0.017591939415714818,0.023428544155830344,-1.0067352890060892,-0.009119615872626002,0.015513885735921173,0.5043167944615227,-0.018469445447987745,0.043813629058984865,-0.9966729884227514,0.017760759094713845,0.022296040428845986,-0.007558914535899125,0.013473325218794402,-0.02427659841167768,0.047553862148542875,0.0,0.19487439332758852,-0.4247601953576041,12.016016309188027,0.0,0.0,0.0,0.0,0.0,0.40349367139576164,0.0,0.0,0.04806381928321922,0.0,0.0,0.0,0.0,0.0,0.0
0.15000000000000005,-0.010007566241472903,0.01665497692623633,0.8616809945197751,-0.01764776223880112,0.02203557311069712,-1.013110565684642,-0.009119615872626002,0.015513885735921173,0.5043167944615227,-0.018469445447987745,0.043813629058984865,-0.9966729884227514,0.017837512764560113,0.02216053099609996,-0.0073234010446677645,0.019318527955839472,-0.02945678793616595,0.04621400192491568,0.0,0.19487439332758852,-0.4247601953576041,12.016016309188027,0.0,0.0,0.0,0.0,0.0,0.40373779048001235,0.0,0.0,0.0495816604332033,0.0,0.0,0.0,0.0,0.0,0.0
0.15500000000000005,-0.010096519964617275,0.016765068585013154,0.8564978589530248,-0.0170882660402028,0.021247482284554316,-1.0189974693852557,-0.010096519964617275,0.016765068585013154,0.4525083924269546,-0.0170882660402028,0.021247482284554316,-1.070084086540164,0.017937197201907562,0.022010895116856756,-0.007086495332907921,0.01705256768968923,-0.02543116742890275,0.04794201150110333,0.0,0.19487439332758852,-0.4247601953576041,12.016016309188027,0.0,0.0,0.0,0.0,0.0,0.40398946652607015,0.0,0.0,0.0510866171549083,0.0,0.0,0.0,0.0,0.0,0.0
0.16000000000000006,-0.010177776274031738,0.016873246160994185,0.8516042176414693,-0.01699599734922013,0.024948795344509462,-1.0187939467213467,-0.010096519964617275,0.016765068585013154,0.4525083924269546,-0.0170882660402028,0.021247482284554316,-1.070084086540164,0.017901140902444924,0.021884820077478852,-0.006854964043207879,-0.0495174434868515,-0.0285495220791433,0.04874174854918864,0.0,0.19264049358154378,-0.26476703537787283,14.06852275441457,0.0,0.0,0.0,0.0,0.0,0.40424863530867283,0.0,0.0,0.052578768129341355,0.0,0.0,0.0,0.0,0.0,0.0
0.16500000000000006,-0.010263274231838204,0.01700931998508287,0.8464176054210255,-0.016362582198409928,0.026603745316550322,-1.0153011493784396,-0.010096519964617275,0.016765068585013154,0.4525083924269546,-0.0170882660402028,0.021247482284554316,-1.070084086540164,0.01749307326047922,0.021744192420539044,-0.0066185875086050006,-0.08632624378445715,-0.02250141486222658,0.04426127481045036,0.0,0.19264049358154378,-0.26476703537787283,14.06852275441457,0.0,0.0,0.0,0.0,0.0,0.4045152329949051,0.0,0.0,0.05405819161464694,0.0,0.0,0.0,0.0,0.0,0.0
0.17000000000000007,-0.01034371972020559,0.017135205005435947,0.8412467516601206,-0.015140507281845716,0.02160352383917933,-1.0125793349916183,-0.010096519964617275,0.016765068585013154,0.4525083924269546,-0.0170882660402028,0.021247482284554316,-1.070084086540164,0.017164584761513134,0.02165847518656805,-0.006409863726409249,-0.027852845782049742,-0.009148235165506403,0.03866752752841475,0.0,0.19264049358154378,-0.26476703537787283,14.06852275441457,0.0,0.0,0.0,0.0,0.0,0.40478919614208964,0.0,0.0,0.055524965448229116,0.0,0.0,0.0,0.0,0.0,0.0
0.17500000000000007,-0.010417085229861737,0.017230903143435,0.8363913608698006,-0.015957679869672902,0.019051183099958856,-1.0104204229356037,-0.010096519964617275,0.016765068585013154,0.4525083924269546,-0.0170882660402028,0.021247482284554316,-1.070084086540164,0.01711208236012142,0.021591733318697865,-0.006230114060627215,-0.006030982117016845,-0.024628206237086267,0.03737141346835949,0.0,0.19264049358154378,-0.26476703537787283,14.06852275441457,0.0,0.0,0.0,0.0,0.0,0.40507046169568883,0.0,0.0,0.056979167048863626,0.0,0.0,0.0,0.0,0.0,0.0
0.18000000000000008,-0.010503000787681014,0.01733424448097009,0.8312452117710867,-0.0176732306079612,0.0219981198196131,-1.0075864480170487,-0.010096519964617275,0.016765068585013154,0.4525083924269546,-0.0170882660402028,0.021247482284554316,-1.070084086540164,0.01695910262676986,0.021389759709002913,-0.006039862397633126,-0.06188077918948236,-0.052895041331270196,0.038750575510783425,0.0,0.19264049358154378,-0.26476703537787283,14.06852275441457,0.0,0.0,0.0,0.0,0.0,0.40535896698721685,0.0,0.0,0.058420873418799785,0.0,0.0,0.0,0.0,0.0,0.0
0.18500000000000008,-0.01059088622731387,0.017450114883827396,0.8261142841248998,-0.016032712701348203,0.02227056828468355,-1.0042489382248745,-0.010096519964617275,0.016765068585013154,0.4525083924269546,-0.0170882660402028,0.021247482284554316,-1.070084086540164,0.016563321119102054,0.02113669809378845,-0.005844069514738257,-0.07854228074426146,-0.034671706286372644,0.03951795702624131,0.0,0.19264049358154378,-0.26476703537787283,14.06852275441457,0.0,0.0,0.0,0.0,0.0,0.4056546497321616,0.0,0.0,0.05985016114585228,0.0,0.0,0.0,0.0,0.0,0.0
0.19000000000000009,-0.010661982720308338,0.017549379643201246,0.8213017394054173,-0.013570019868042689,0.018420708151177842,-1.0009747307695571,-0.010096519964617275,0.016765068585013154,0.4525083924269546,-0.0170882660402028,0.021247482284554316,-1.070084086540164,0.01626635288198976,0.02103879092440194,-0.005653870057095135,-0.03712978572750555,-0.004147264915641711,0.04036056802714025,0.0,0.19264049358154378,-0.26476703537787283,14.06852275441457,0.0,0.0,0.0,0.0,0.0,0.4059574480279191,0.0,0.0,0.06126710640548294,0.0,0.0,0.0,0.0,0.0,0.0
0.1950000000000001,-0.010729603314937403,0.017640455266958333,0.816206328167753,-0.013541141118145441,0.01710081169080491,-0.9974161450177755,-0.010096519964617275,0.016765068585013154,0.4525083924269546,-0.0170882660402028,0.021247482284554316,-1.070084086540164,0.01608309617106023,0.021026310315574417,-0.005445193958076339,-0.0328557952566464,-0.0077218342188542614,0.04104035850984461,0.0,0.19264049358154378,-0.26476703537787283,14.06852275441457,0.0,0.0,0.0,0.0,0.0,0.4062673003517354,0.0,0.0,0.0626717849628724,0.0,0.0,0.0,0.0,0.0,0.0
0.2000000000000001,-0.010800305970765587,0.01772924673301986,0.8111266798487188,-0.014227687343203163,0.01730516895082736,-0.9945562495711389,-0.010096519964617275,0.016765068585013154,0.4525083924269546,-0.0170882660402028,0.021247482284554316,-1.070084086540164,0.01585843177122903,0.020949307887431774,-0.005241646201876387,-0.05053633699414423,-0.021901984170128723,0.03875263569348126,0.0,0.19264049358154378,-0.26476703537787283,14.06852275441457,0.0,0.0,0.0,0.0,0.0,0.4065841455586616,0.0,0.0,0.0640642721749819,0.0,0.0,0.0,0.0,0.0,0.0
0.2050000000000001,-0.010871222991537461,0.01780907420027091,0.8063579145304933,-0.015291904605450012,0.015960986977321588,-0.9925379355812206,-0.010871222991537461,0.01780907420027091,0.3994499916509764,-0.015291904605450012,0.015960986977321588,-1.0579825785738257,0.015633858238071223,0.020795822417264968,-0.005066884356681443,-0.04400120231769109,-0.04023006437912113,0.03564484741517951,0.0,0.19264049358154378,-0.26476703537787283,14.06852275441457,0.0,0.0,0.0,0.0,0.0,0.40690792287951694,0.0,0.0,0.06544464299260506,0.0,0.0,0.0,0.0,0.0,0.0
0.2100000000000001,-0.010952494986753693,0.017889331616351478,0.8013096120023965,-0.016583692312723664,0.015724417429383856,-0.9867013987122493,-0.010871222991537461,0.01780907420027091,0.3994499916509764,-0.015291904605450012,0.015960986977321588,-1.0579825785738257,0.015396479090431773,0.02053387394355005,-0.004893390327470842,-0.05314125357437953,-0.06217243468708817,0.03435212085011656,0.0,0.18634406279018037,-0.2350600170181267,15.175053375476717,0.0,0.0,0.0,0.0,0.0,0.4072385719188636,0.0,0.0,0.06681297196240991,0.0,0.0,0.0,0.0,0.0,0.0
0.2150000000000001,-0.011034624441316596,0.0179731962087539,0.7962987441803643,-0.015217841900879221,0.016134487032143045,-0.9786047200540144,-0.010871222991537461,0.01780907420027091,0.3994499916509764,-0.015291904605450012,0.015960986977321588,-1.0579825785738257,0.015044349591438229,0.0202385577397402,-0.004723229206581657,-0.07159231409712122,-0.04689177239680347,0.03433595237613115,0.0,0.18634406279018037,-0.2350600170181267,15.175053375476717,0.0,0.0,0.0,0.0,0.0,0.40757603265299125,0.0,0.0,0.06816933322897092,0.0,0.0,0.0,0.0,0.0,0.0
0.2200000000000001,-0.011102699513265908,0.018047079711384383,0.7916214453638917,-0.013116596984346557,0.01379607068822434,-0.9705712590196824,-0.010871222991537461,0.01780907420027091,0.3994499916509764,-0.015291904605450012,0.015960986977321588,-1.0579825785738257,0.014727849383807771,0.020073632700640283,-0.004559819740610764,-0.04922499365045926,-0.02022836157282733,0.03475950995001336,0.0,0.18634406279018037,-0.2350600170181267,15.175053375476717,0.0,0.0,0.0,0.0,0.0,0.40792024542791083,0.0,0.0,0.06951380053679138,0.0,0.0,0.0,0.0,0.0,0.0
0.22500000000000012,-0.011169481642604104,0.018113118096164192,0.7866929622399537,-0.013170181453555859,0.0124444891178146,-0.9625373227307584,-0.010871222991537461,0.01780907420027091,0.3994499916509764,-0.015291904605450012,0.015960986977321588,-1.0579825785738257,0.014514696856745885,0.019959080485154747,-0.004384159522339104,-0.040402762979446685,-0.024967693786753228,0.03445052616722721,0.0,0.18634406279018037,-0.2350600170181267,15.175053375476717,0.0,0.0,0.0,0.0,0.0,0.40827115095736055,0.0,0.0,0.07084644723231605,0.0,0.0,0.0,0.0,0.0,0.0
0.23000000000000012,-0.011236701734518092,0.018176171692503275,0.7818039820369344,-0.012964690536744388,0.012703824473717313,-0.9553729019566772,-0.010871222991537461,0.01780907420027091,0.3994499916509764,-0.015291904605450012,0.015960986977321588,-1.0579825785738257,0.014290838456526815,0.019816518169426135,-0.004209582150406473,-0.05445854541173645,-0.026302209935911643,0.03459211129851574,0.0,0.18634406279018037,-0.2350600170181267,15.175053375476717,0.0,0.0,0.0,0.0,0.0,0.4086286903208194,0.0,0.0,0.07216734626593393,0.0,0.0,0.0,0.0,0.0,0.0
0.23500000000000013,-0.01129952214097659,0.018238390955139388,0.777234052833836,-0.013320389277144244,0.013487003699747199,-0.94953130304783,-0.010871222991537461,0.01780907420027091,0.3994499916509764,-0.015291904605450012,0.015960986977321588,-1.0579825785738257,0.013997457626968683,0.01967331392377424,-0.004048348793346201,-0.07221087402828003,-0.033529320843367884,0.03306097088093801,0.0,0.18634406279018037,-0.2350600170181267,15.175053375476717,0.0,0.0,0.0,0.0,0.0,0.40899280496153245,0.0,0.0,0.07347657019397169,0.0,0.0,0.0,0.0,0.0,0.0
0.24000000000000013,-0.01136650013569595,0.01830939917887453,0.7724078497467103,-0.013269294417091869,0.014256453210616794,-0.9436578133483597,-0.010871222991537461,0.01780907420027091,0.3994499916509764,-0.015291904605450012,0.015960986977321588,-1.0579825785738257,0.0135933575885913,0.0195138184636919,-0.0038904664320878646,-0.0861106980175905,-0.033175733026186774,0.030224126374447866,0.0,0.18634406279018037,-0.2350600170181267,15.175053375476717,0.0,0.0,0.0,0.0,0.0,0.4093634366845452,0.0,0.0,0.07477419118067714,0.0,0.0,0.0,0.0,0.0,0.0
0.24500000000000013,-0.01143472679242266,0.018378701146583853,0.7676128419511244,-0.013464460789427604,0.012170754801361532,-0.9370553201621604,-0.010871222991537461,0.01780907420027091,0.3994499916509764,-0.015291904605450012,0.015960986977321588,-1.0579825785738257,0.013196971229301881,0.01933085700118889,-0.003743410985834127,-0.06059405946379275,-0.037966192668486595,0.02869091250160038,0.0,0.18634406279018037,-0.2350600170181267,15.175053375476717,0.0,0.0,0.0,0.0,0.0,0.40974052765474867,0.0,0.0,0.0760602810001935,0.0,0.0,0.0,0.0,0.0,0.0
0.2500000000000001,-0.011497784513243915,0.018428569181681835,0.7631323752698665,-0.012577742820965396,0.008585157878473268,-0.9299307198976665,-0.010871222991537461,0.01780907420027091,0.3994499916509764,-0.015291904605450012,0.015960986977321588,-1.0579825785738257,0.013013715364826954,0.01916452216113579,-0.003607846320110304,-0.01689145819494113,-0.027685779233401486,0.028419474686548964,0.0,0.18634406279018037,-0.2350600170181267,15.175053375476717,0.0,0.0,0.0,0.0,0.0,0.41012402039493323,0.0,0.0,0.07733491103852384,0.0,0.0,0.0,0.0,0.0,0.0
0.2550000000000001,-0.011561131467308763,0.018466603396849853,0.758410948943524,-0.012637108023822261,0.007192821372197302,-0.9218790236583977,-0.011561131467308763,0.018466603396849853,0.34789709115967093,-0.012637108023822261,0.007192821372197302,-1.000477175953884,0.012986384448745883,0.01902648239507809,-0.0034639630887964698,-0.006831258673747681,-0.03129721101115041,0.02896712273373759,0.0,0.18634406279018037,-0.2350600170181267,15.175053375476717,0.0,0.0,0.0,0.0,0.0,0.4105138577838531,0.0,0.0,0.0785981522954863,0.0,0.0,0.0,0.0,0.0,0.0
0.2600000000000001,-0.011628561139458038,0.018509519014257916,0.7537333188160827,-0.014312084017514614,0.010453701268545428,-0.9125356965559095,-0.011561131467308763,0.018466603396849853,0.34789709115967093,-0.012637108023822261,0.007192821372197302,-1.000477175953884,0.012839695290667604,0.01881192509286602,-0.003310738467712255,-0.06356911786970827,-0.05938982395658209,0.0320178016335272,0.0,0.17313928941668427,-0.17668589631989914,15.729226832816574,0.0,0.0,0.0,0.0,0.0,0.4109099830542998,0.0,0.0,0.07985007538665972,0.0,0.0,0.0,0.0,0.0,0.0
0.2650000000000001,-0.011698581536006506,0.018566553282669943,0.7493771364760702,-0.01464035774115484,0.012847728965375756,-0.902876462748383,-0.011561131467308763,0.018466603396849853,0.34789709115967093,-0.012637108023822261,0.007192821372197302,-1.000477175953884,0.012413966751625288,0.0184973440915983,-0.003162765294801661,-0.10910478642528913,-0.06828767704260004,0.030866443894260173,0.0,0.17313928941668427,-0.17668589631989914,15.729226832816574,0.0,0.0,0.0,0.0,0.0,0.41131233979118653,0.0,0.0,0.08109075054532004,0.0,0.0,0.0,0.0,0.0,0.0
0.27000000000000013,-0.011763695893230702,0.018628479182325994,0.7447990613894875,-0.010045118166534646,0.010615759720199468,-0.89276793477933,-0.011561131467308763,0.018466603396849853,0.34789709115967093,-0.012637108023822261,0.007192821372197302,-1.000477175953884,0.011881087860285551,0.018265754261372804,-0.0030129678811086948,-0.08908474940566978,-0.009725994394768876,0.029432783283029763,0.0,0.17313928941668427,-0.17668589631989914,15.729226832816574,0.0,0.0,0.0,0.0,0.0,0.41172087192964124,0.0,0.0,0.08232024762436707,0.0,0.0,0.0,0.0,0.0,0.0
0.27500000000000013,-0.011812043289492948,0.018672362814398956,0.7402739749735063,-0.009496802227765815,0.007270963800717932,-0.882086265198595,-0.011561131467308763,0.018466603396849853,0.34789709115967093,-0.012637108023822261,0.007192821372197302,-1.000477175953884,0.011553166407738093,0.018237116955611952,-0.002859036778862404,-0.0495943331453824,-0.008102238175726228,0.030547955175801358,0.0,0.17313928941668427,-0.17668589631989914,15.729226832816574,0.0,0.0,0.0,0.0,0.0,0.41213552375310925,0.0,0.0,0.0835386360982424,0.0,0.0,0.0,0.0,0.0,0.0
0.28000000000000014,-0.011860352595483122,0.018702579452554286,0.7360673599107539,-0.010805765470816948,0.006581054779864329,-0.8714534993115157,-0.011561131467308763,0.018466603396849853,0.34789709115967093,-0.012637108023822261,0.007192821372197302,-1.000477175953884,0.011375288313969821,0.01815184865538074,-0.002718899863295577,-0.04303647808273194,-0.028702621968572015,0.027790087537059215,0.0,0.17313928941668427,-0.17668589631989914,15.729226832816574,0.0,0.0,0.0,0.0,0.0,0.4125562398914657,0.0,0.0,0.08474598506483777,0.0,0.0,0.0,0.0,0.0,0.0
0.28500000000000014,-0.011916031675538764,0.018742784617919676,0.731651746397113,-0.011318399389578175,0.009612270691652951,-0.8608511101403793,-0.011561131467308763,0.018466603396849853,0.34789709115967093,-0.012637108023822261,0.007192821372197302,-1.000477175953884,0.01105658109042707,0.01799705781219071,-0.002589171330427926,-0.09017414595802864,-0.03595149799788048,0.02467209422976251,0.0,0.17313928941668427,-0.17668589631989914,15.729226832816574,0.0,0.0,0.0,0.0,0.0,0.41298296531913825,0.0,0.0,0.08594236324739417,0.0,0.0,0.0,0.0,0.0,0.0
0.29000000000000015,-0.011974589208949941,0.018793584075046978,0.7272877213947893,-0.011454283662592338,0.009242731347054658,-0.8511565641120092,-0.011561131467308763,0.018466603396849853,0.34789709115967093,-0.012637108023822261,0.007192821372197302,-1.000477175953884,0.010550662168137104,0.017799490605711378,-0.002461953282121728,-0.0952903632048972,-0.03858400440441024,0.02640502206564008,0.0,0.17313928941668427,-0.17668589631989914,15.729226832816574,0.0,0.0,0.0,0.0,0.0,0.4134156453532377,0.0,0.0,0.0871278389963921,0.0,0.0,0.0,0.0,0.0,0.0
0.29500000000000015,-0.012029453862002125,0.018825740848868885,0.7232245249047502,-0.011284559361703883,0.004259805416408209,-0.8424738215706308,-0.011561131467308763,0.018466603396849853,0.34789709115967093,-0.012637108023822261,0.007192821372197302,-1.000477175953884,0.010234873599534823,0.017609282673724955,-0.0023363079213997644,-0.03828408904105773,-0.03902068119703076,0.02622803497487053,0.0,0.17313928941668427,-0.17668589631989914,15.729226832816574,0.0,0.0,0.0,0.0,0.0,0.4138542256516995,0.0,0.0,0.08830248029143234,0.0,0.0,0.0,0.0,0.0,0.0
0.30000000000000016,-0.012084259148575277,0.018839942923969406,0.7189536807340098,-0.010456068676632301,0.0025432328809231663,-0.8329341832206526,-0.011561131467308763,0.018466603396849853,0.34789709115967093,-0.012637108023822261,0.007192821372197302,-1.000477175953884,0.010118522075929701,0.01743751929245277,-0.0022067192771042577,-0.023645285678712834,-0.03153171512885842,0.025363790883800835,0.0,0.17313928941668427,-0.17668589631989914,15.729226832816574,0.0,0.0,0.0,0.0,0.0,0.41429865221143347,0.0,0.0,0.08946635474310793,0.0,0.0,0.0,0.0,0.0,0.0
0.30500000000000016,-0.012135442830551952,0.018857969316507867,0.7147331493939889,-0.009896621660582097,0.00445026098112305,-0.8225343158452273,-0.012135442830551952,0.018857969316507867,0.2999842780275047,-0.009896621660582097,0.00445026098112305,-0.9131538454400943,0.009919476486987926,0.017290463151761276,-0.0020810059330616327,-0.053608000849483035,-0.029999183470860807,0.023578718636704386,0.0,0.17313928941668427,-0.17668589631989914,15.729226832816574,0.0,0.0,0.0,0.0,0.0,0.4147488713664842,0.0,0.0,0.09061952959486701,0.0,0.0,0.0,0.0,0.0,0.0
0.31000000000000016,-0.012184746400415461,0.01888648557241973,0.7108109087984105,-0.011145903609937337,0.006434189447922864,-0.8120618772348606,-0.012135442830551952,0.018857969316507867,0.2999842780275047,-0.009896621660582097,0.00445026098112305,-0.9131538454400943,0.009559459755105916,0.017102716169711207,-0.0019806121918327668,-0.08345302889673642,-0.054809126421736125,0.019066929526130986,0.0,0.15871184166294208,-0.162736272324208,15.855971727140494,0.0,0.0,0.0,0.0,0.0,0.41520482978619944,0.0,0.0,0.09176207172486651,0.0,0.0,0.0,0.0,0.0,0.0
0.31500000000000017,-0.012239651263698036,0.018918045995166274,0.7067003723939841,-0.010198475719491302,0.00528535456148389,-0.8006462509683789,-0.012135442830551952,0.018857969316507867,0.2999842780275047,-0.009896621660582097,0.00445026098112305,-0.9131538454400943,0.009145391005796151,0.01683468960008638,-0.0018947804268103533,-0.07107311271585746,-0.04738051047585974,0.016286930484067527,0.0,0.15871184166294208,-0.162736272324208,15.855971727140494,0.0,0.0,0.0,0.0,0.0,0.415666474473408,0.0,0.0,0.09289404764781724,0.0,0.0,0.0,0.0,0.0,0.0
0.3200000000000002,-0.012282696021299,0.01893629037390772,0.7026493874400382,-0.007203305990447856,0.0023562502278223277,-0.7890093671078701,-0.012135442830551952,0.018857969316507867,0.2999842780275047,-0.009896621660582097,0.00445026098112305,-0.9131538454400943,0.00888909004191164,0.016701423806888105,-0.0018095746952382441,-0.03765593275217378,-0.011734212253356574,0.018220869082540052,0.0,0.15871184166294208,-0.162736272324208,15.855971727140494,0.0,0.0,0.0,0.0,0.0,0.41613375276260767,0.0,0.0,0.09401552351681979,0.0,0.0,0.0,0.0,0.0,0.0
0.3250000000000002,-0.01231473383414525,0.018948101075593526,0.698887704027644,-0.006794044741230051,0.002719943902201821,-0.7790276016773352,-0.012135442830551952,0.018857969316507867,0.2999842780275047,-0.009896621660582097,0.00445026098112305,-0.9131538454400943,0.008672970891546734,0.016665467589659547,-0.0017120399146651724,-0.0553852747904945,-0.011753879638596056,0.021897787470063622,0.0,0.15871184166294208,-0.162736272324208,15.855971727140494,0.0,0.0,0.0,0.0,0.0,0.41660661231816165,0.0,0.0,0.09512656512519153,0.0,0.0,0.0,0.0,0.0,0.0
0.3300000000000002,-0.012351587806415066,0.018963068526225306,0.6949406181677844,-0.007719736230969067,0.0027629393556937052,-0.7693350092342246,-0.012135442830551952,0.018857969316507867,0.2999842780275047,-0.009896621660582097,0.00445026098112305,-0.9131538454400943,0.008344545623212326,0.016560639900094303,-0.0016029242636168152,-0.06749136176164273,-0.030138285596729528,0.0201980308055192,0.0,0.15871184166294208,-0.162736272324208,15.855971727140494,0.0,0.0,0.0,0.0,0.0,0.4170850011325039,0.0,0.0,0.09622723790828512,0.0,0.0,0.0,0.0,0.0,0.0
0.3350000000000002,-0.012385405666598716,0.01897174623246652,0.6910420322292528,-0.0054394824745826065,0.00014373273057909954,-0.7602305901221904,-0.012135442830551952,0.018857969316507867,0.2999842780275047,-0.009896621660582097,0.00445026098112305,-0.9131538454400943,0.00805942189073346,0.016462180889233364,-0.001517452801403403,-0.037460222013571604,-0.007210799905433,0.012982896915282618,0.0,0.15871184166294208,-0.162736272324208,15.855971727140494,0.0,0.0,0.0,0.0,0.0,0.41756886752435407,0.0,0.0,0.09731760694529785,0.0,0.0,0.0,0.0,0.0,0.0
0.3400000000000002,-0.012410644159687524,0.01896570438046422,0.6874137070071209,-0.006125467524773871,-0.0015284795126739303,-0.7521795771733991,-0.012135442830551952,0.018857969316507867,0.2999842780275047,-0.009896621660582097,0.00445026098112305,-0.9131538454400943,0.00796144123382563,0.016416757411956417,-0.0014861802587698945,-0.019099417434595263,-0.025067259629261075,0.0015346164908408735,0.0,0.15871184166294208,-0.162736272324208,15.855971727140494,0.0,0.0,0.0,0.0,0.0,0.4180581601369411,0.0,0.0,0.09839773696107249,0.0,0.0,0.0,0.0,0.0,0.0
0.3450000000000002,-0.01245201468985238,0.018960374149043207,0.6836016901467427,-0.01003130687194363,-0.00041435763863275493,-0.7427674023575557,-0.012135442830551952,0.018857969316507867,0.2999842780275047,-0.009896621660582097,0.00445026098112305,-0.9131538454400943,0.007822063433467025,0.016138783308221733,-0.0014934451308782311,-0.03748777671804797,-0.08294552424589877,-0.0012539482982040044,0.0,0.15871184166294208,-0.162736272324208,15.855971727140494,0.0,0.0,0.0,0.0,0.0,0.41855282793623594,0.0,0.0,0.09946769232788925,0.0,0.0,0.0,0.0,0.0,0.0
0.3500000000000002,-0.012504025849919068,0.018958018994187892,0.6798423699850822,-0.009706851708245595,-0.0007056764391961826,-0.7318734142080674,-0.012135442830551952,0.018857969316507867,0.2999842780275047,-0.009896621660582097,0.00445026098112305,-0.9131538454400943,0.00761969172475212,0.015699674116323323,-0.0014888883555253926,-0.040357933091707175,-0.08087860094260159,0.005164160827608879,0.0,0.15871184166294208,-0.162736272324208,15.855971727140494,0.0,0.0,0.0,0.0,0.0,0.41905282020919365,0.0,0.0,0.1005275370672493,0.0,0.0,0.0,0.0,0.0,0.0
0.3550000000000002,-0.012539030571138664,0.01894978610823895,0.6763550407898873,-0.005435757519586353,-0.0021913511561924707,-0.7220518993741285,-0.012539030571138664,0.01894978610823895,0.2567969542278845,-0.005435757519586353,-0.0021913511561924707,-0.823629234225778,0.007466707120262749,0.015470862807242249,-0.0014379593462602626,-0.030814375163192482,-0.022148668154979383,0.016580033504424493,0.0,0.15871184166294208,-0.162736272324208,15.855971727140494,0.0,0.0,0.0,0.0,0.0,0.4195580865620028,0.0,0.0,0.10157733485164956,0.0,0.0,0.0,0.0,0.0,0.0
0.3600000000000002,-0.012556697144672693,0.018943384670073848,0.6726992267694542,-0.002601814833715613,0.0005533600329873985,-0.7122562678411317,-0.012539030571138664,0.01894978610823895,0.2567969542278845,-0.005435757519586353,-0.0021913511561924707,-0.823629234225778,0.007227987313009945,0.015491111318165692,-0.0013219379746310335,-0.07440697848406724,0.014345987233398243,0.02706458356343361,0.0,0.13023375841307197,-0.11734698300851559,15.847116738403521,0.0,0.0,0.0,0.0,0.0,0.42006857691834654,0.0,0.0,0.10261714900634873,0.0,0.0,0.0,0.0,0.0,0.0
0.3650000000000002,-0.012571963019018587,0.01895316406873428,0.6690941953608693,-0.003861723562464201,0.002120523790529883,-0.7020982407418336,-0.012539030571138664,0.01894978610823895,0.2567969542278845,-0.005435757519586353,-0.0021913511561924707,-0.823629234225778,0.006753626244757187,0.015517156030616163,-0.0011778035405081663,-0.09663778900440066,-0.010403161441204104,0.027369473600223036,0.0,0.13023375841307197,-0.11734698300851559,15.847116738403521,0.0,0.0,0.0,0.0,0.0,0.42058424151766893,0.0,0.0,0.10364704251112512,0.0,0.0,0.0,0.0,0.0,0.0
0.3700000000000002,-0.012593946714599534,0.01895670828734747,0.6657471167766849,-0.005497038479533869,-0.00111405816808058,-0.6930312793340555,-0.012539030571138664,0.01894978610823895,0.2567969542278845,-0.005435757519586353,-0.0021913511561924707,-0.823629234225778,0.00638035747992072,0.015401238275040693,-0.0010655640154839897,-0.05391972334903887,-0.04034420774472993,0.019293150437889203,0.0,0.13023375841307197,-0.11734698300851559,15.847116738403521,0.0,0.0,0.0,0.0,0.0,0.4211050309134535,0.0,0.0,0.10466707800202579,0.0,0.0,0.0,0.0,0.0,0.0
0.3750000000000002,-0.012628893197890713,0.018946337869624783,0.6622364916250821,-0.008521619976353484,-0.0019206858428348385,-0.6841590862213855,-0.012539030571138664,0.01894978610823895,0.2567969542278845,-0.005435757519586353,-0.0021913511561924707,-0.823629234225778,0.0061541172776410835,0.015082768374043033,-0.0009938610306547782,-0.050203742817369126,-0.08885940929092033,0.011170270930617406,0.0,0.13023375841307197,-0.11734698300851559,15.847116738403521,0.0,0.0,0.0,0.0,0.0,0.4216308959715084,0.0,0.0,0.10567731777310717,0.0,0.0,0.0,0.0,0.0,0.0
0.3800000000000002,-0.012670892224127983,0.01893405981061074,0.6587722961822402,-0.007022325176746745,-0.0031003112307143267,-0.674634349439947,-0.012539030571138664,0.01894978610823895,0.2567969542278845,-0.005435757519586353,-0.0021913511561924707,-0.823629234225778,0.00591349992328829,0.014640337023223399,-0.0009504173139915505,-0.04097546645203654,-0.0711461305293598,0.007925614852645167,0.0,0.13023375841307197,-0.11734698300851559,15.847116738403521,0.0,0.0,0.0,0.0,0.0,0.42216178786826,0.0,0.0,0.10667782377816744,0.0,0.0,0.0,0.0,0.0,0.0
0.38500000000000023,-0.012697998089192896,0.01891665656068005,0.655556177909444,-0.004149827894240545,-0.003836663554230327,-0.6658534540057232,-0.012539030571138664,0.01894978610823895,0.2567969542278845,-0.005435757519586353,-0.0021913511561924707,-0.823629234225778,0.005735695634799927,0.014393091288167468,-0.0009063250056138389,-0.037922859719912286,-0.03037887968441023,0.01193929675538973,0.0,0.13023375841307197,-0.11734698300851559,15.847116738403521,0.0,0.0,0.0,0.0,0.0,0.42269765808905746,0.0,0.0,0.10766865763247033,0.0,0.0,0.0,0.0,0.0,0.0
0.39000000000000024,-0.012713862709228724,0.018897748046049268,0.6521874211903536,-0.002478304740228767,-0.0031029497636123533,-0.6556593224787922,-0.012539030571138664,0.01894978610823895,0.2567969542278845,-0.005435757519586353,-0.0021913511561924707,-0.823629234225778,0.005516965004144741,0.01430407732351813,-0.0008265152602588048,-0.053909830380869106,-0.010956776797990937,0.01843945168970681,0.0,0.13023375841307197,-0.11734698300851559,15.847116738403521,0.0,0.0,0.0,0.0,0.0,0.4232384584264828,0.0,0.0,0.10864988061446078,0.0,0.0,0.0,0.0,0.0,0.0
0.39500000000000024,-0.012723646245337087,0.018882002192131042,0.6488746574861439,-0.0017061901015414964,-0.0038726910577215256,-0.6439196655664046,-0.012539030571138664,0.01894978610823895,0.2567969542278845,-0.005435757519586353,-0.0021913511561924707,-0.823629234225778,0.0052371699328605135,0.014267787560517603,-0.0007257509868908207,-0.04567426540881799,-0.007895153986867114,0.02000757592798599,0.0,0.13023375841307197,-0.11734698300851559,15.847116738403521,0.0,0.0,0.0,0.0,0.0,0.42378414097867234,0.0,0.0,0.10962155366747216,0.0,0.0,0.0,0.0,0.0,0.0
0.40000000000000024,-0.01272976469466508,0.018857933165249058,0.6458097536065381,-0.0012304130292266702,-0.006529523447046966,-0.6334312827137744,-0.012539030571138664,0.01894978610823895,0.2567969542278845,-0.005435757519586353,-0.0021913511561924707,-0.823629234225778,0.005076026784931546,0.014241050621363884,-0.0006453975060253307,-0.017591830234776663,-0.007965210666897217,0.012911656501759579,0.0,0.13023375841307197,-0.11734698300851559,15.847116738403521,0.0,0.0,0.0,0.0,0.0,0.42433465814764426,0.0,0.0,0.11058373740142523,0.0,0.0,0.0,0.0,0.0,0.0
0.40500000000000025,-0.012742678860967806,0.018824607345762277,0.6426068233356451,-0.00390922622061736,-0.0053212954135395205,-0.6231153915959519,-0.012742678860967806,0.018824607345762277,0.21771686069800822,-0.00390922622061736,-0.0053212954135395205,-0.7346518836904709,0.004959485643482571,0.014089922837986161,-0.0006053223527004574,-0.04381354593765703,-0.05210213606467892,0.004783043675586171,0.0,0.13023375841307197,-0.11734698300851559,15.847116738403521,0.0,0.0,0.0,0.0,0.0,0.4248899626376369,0.0,0.0,0.11153649209451899,0.0,0.0,0.0,0.0,0.0,0.0
0.41000000000000025,-0.012768290209445438,0.018804366707459753,0.6394551133408799,-0.005462785640538679,-0.002898297592548533,-0.613671379064953,-0.012742678860967806,0.018824607345762277,0.21771686069800822,-0.00390922622061736,-0.0053212954135395205,-0.7346518836904709,0.0046354893381282125,0.013729261831129772,-0.0005880077418169612,-0.07894368479094158,-0.0797124825540266,0.003963190650726244,0.0,0.12303149301632614,-0.09737359990605823,15.74890887394458,0.0,0.0,0.0,0.0,0.0,0.4254500074534532,0.0,0.0,0.11247987769491316,0.0,0.0,0.0,0.0,0.0,0.0
0.41500000000000026,-0.012787958133746264,0.018786474368228726,0.6365294328109558,-0.002510731117330186,-0.004978359506659367,-0.6060226105560695,-0.012742678860967806,0.018824607345762277,0.21771686069800822,-0.00390922622061736,-0.0053212954135395205,-0.7346518836904709,0.00431297070359039,0.013436619287672723,-0.0005512050179304647,-0.050370945386878724,-0.037966625594244,0.013150998466414873,0.0,0.12303149301632614,-0.09737359990605823,15.74890887394458,0.0,0.0,0.0,0.0,0.0,0.42601474589881594,0.0,0.0,0.11341395382240269,0.0,0.0,0.0,0.0,0.0,0.0
0.42000000000000026,-0.012791601522069419,0.018758114016655617,0.6334577445674355,0.00018354694389416046,-0.005211610934356872,-0.5987743838776614,-0.012742678860967806,0.018824607345762277,0.21771686069800822,-0.00390922622061736,-0.0053212954135395205,-0.7346518836904709,0.004096896007667079,0.01339066160880408,-0.00045536875877951827,-0.047699340783962624,0.00736053225194702,0.022359004945643052,0.0,0.12303149301632614,-0.09737359990605823,15.74890887394458,0.0,0.0,0.0,0.0,0.0,0.42658413157472885,0.0,0.0,0.11433877977008415,0.0,0.0,0.0,0.0,0.0,0.0
0.42500000000000027,-0.012789192932706642,0.018736028762617405,0.6304247328226424,-0.00017890934879971968,-0.0038326709501755973,-0.5906556673024647,-0.012742678860967806,0.018824607345762277,0.21771686069800822,-0.00390922622061736,-0.0053212954135395205,-0.7346518836904709,0.003797356760066299,0.013467949905838945,-0.000338161387981075,-0.06546628436998614,0.008609997499974438,0.02237183199383918,0.0,0.12303149301632614,-0.09737359990605823,15.74890887394458,0.0,0.0,0.0,0.0,0.0,0.42715811837784845,0.0,0.0,0.11525441450601379,0.0,0.0,0.0,0.0,0.0,0.0
0.43000000000000027,-0.012795672340560926,0.018705083124908962,0.6276128796190199,-0.0027565462625461536,-0.009031900092550196,-0.5816066256020317,-0.012742678860967806,0.018824607345762277,0.21771686069800822,-0.00390922622061736,-0.0053212954135395205,-0.7346518836904709,0.003659206829990119,0.013434831781454553,-0.0002484975398436626,0.005646790127638736,-0.026394885876298246,0.014600626458898786,0.0,0.12303149301632614,-0.09737359990605823,15.74890887394458,0.0,0.0,0.0,0.0,0.0,0.42773666049886183,0.0,0.0,0.11616091667485798,0.0,0.0,0.0,0.0,0.0,0.0
0.4350000000000003,-0.012819562745892465,0.01865059112377121,0.6246733495894763,-0.006019115974861416,-0.009912194203524467,-0.5714415034036386,-0.012742678860967806,0.018824607345762277,0.21771686069800822,-0.00390922622061736,-0.0053212954135395205,-0.7346518836904709,0.003786329787306628,0.013161110325409708,-0.0001986594383407558,0.009759910975215958,-0.07268348597253708,0.007706104258738754,0.0,0.12303149301632614,-0.09737359990605823,15.74890887394458,0.0,0.0,0.0,0.0,0.0,0.42831971242087463,0.0,0.0,0.11705834459953526,0.0,0.0,0.0,0.0,0.0,0.0
0.4400000000000003,-0.012851440742960345,0.018612507511310224,0.6217874789804505,-0.005592902596349673,-0.004949721437136715,-0.5604117247165626,-0.012742678860967806,0.018824607345762277,0.21771686069800822,-0.00390922622061736,-0.0053212954135395205,-0.7346518836904709,0.0036403087548467247,0.012775640358760098,-0.00015594251479631303,-0.0679744469387707,-0.06653230632426604,0.010486719818509843,0.0,0.12303149301632614,-0.09737359990605823,15.74890887394458,0.0,0.0,0.0,0.0,0.0,0.42890722891780586,0.0,0.0,0.11794675628285083,0.0,0.0,0.0,0.0,0.0,0.0
0.4450000000000003,-0.012873492888584573,0.0185897388971742,0.6191236732820548,-0.0036528862673675996,-0.005847441078539394,-0.5499427912920145,-0.012742678860967806,0.018824607345762277,0.21771686069800822,-0.00390922622061736,-0.0053212954135395205,-0.7346518836904709,0.00328217485650205,0.012526039350042883,-9.110621435915569e-05,-0.06327896738614804,-0.03828496860729364,0.017853582551014168,0.0,0.12303149301632614,-0.09737359990605823,15.74890887394458,0.0,0.0,0.0,0.0,0.0,0.4294991650527923,0.0,0.0,0.11882620940912263,0.0,0.0,0.0,0.0,0.0,0.0
0.4500000000000003,-0.012889958614922419,0.01854889018994359,0.6163451105717609,-0.003178026819404537,-0.00945846795158404,-0.5401819810636936,-0.012742678860967806,0.018824607345762277,0.21771686069800822,-0.00390922622061736,-0.0053212954135395205,-0.7346518836904709,0.0030944488405314765,0.012367667962850775,4.271709401125128e-05,-0.020168502899736613,-0.02925229424728258,0.034218465503066134,0.0,0.12303149301632614,-0.09737359990605823,15.74890887394458,0.0,0.0,0.0,0.0,0.0,0.4300954761765987,0.0,0.0,0.1196967613458,0.0,0.0,0.0,0.0,0.0,0.0
0.4550000000000003,-0.01290145517763583,0.018502980285193628,0.6136147258712569,-0.0008534832346680406,-0.00772430135017712,-0.5309122029912501,-0.01290145517763583,0.018502980285193628,0.1829186079452182,-0.0008534832346680406,-0.00772430135017712,-0.6514706721363244,0.0029552297065771234,0.012294672791100877,0.00024555485197584424,-0.04599325073780978,0.007542120158128009,0.042454713417144255,0.0,0.12303149301632614,-0.09737359990605823,15.74890887394458,0.0,0.0,0.0,0.0,0.0,0.4306961179260387,0.0,0.0,0.12055846914507425,0.0,0.0,0.0,0.0,0.0,0.0
0.4600000000000003,-0.012904420123498692,0.018473286303063906,0.6110885861209673,-0.00037681587500329027,-0.005141413138271874,-0.5220891219558017,-0.01290145517763583,0.018502980285193628,0.1829186079452182,-0.0008534832346680406,-0.00772430135017712,-0.6514706721363244,0.0026336700667715543,0.012346740556177647,0.00043873370778097604,-0.08284072029351891,0.012980038292457127,0.0367429110566215,0.0,0.10386976586259378,-0.08174214948855878,15.617000709776336,0.0,0.0,0.0,0.0,0.0,0.43130104622240206,0.0,0.0,0.12141138954548139,0.0,0.0,0.0,0.0,0.0,0.0
0.4650000000000003,-0.012912406410116678,0.018440873778678608,0.6084496292120557,-0.002998526050262273,-0.008181324729146348,-0.5133897574936099,-0.01290145517763583,0.018502980285193628,0.1829186079452182,-0.0008534832346680406,-0.00772430135017712,-0.6514706721363244,0.002292958399847246,0.012302043249222195,0.0005921949765010818,-0.043340632144484185,-0.0339091137973634,0.02486295288696037,0.0,0.10386976586259378,-0.08174214948855878,15.617000709776336,0.0,0.0,0.0,0.0,0.0,0.4319102172698901,0.0,0.0,0.12225557897349741,0.0,0.0,0.0,0.0,0.0,0.0
0.4700000000000003,-0.012933156185537,0.018389194059257114,0.605861740016441,-0.00434311179511832,-0.011589235016131773,-0.5020874092816363,-0.01290145517763583,0.018502980285193628,0.1829186079452182,-0.0008534832346680406,-0.00772430135017712,-0.6514706721363244,0.002201326585940078,0.012030196103263405,0.0007045239693917085,-0.0009762436830865308,-0.060847177659664214,0.020515962426428804,0.0,0.10386976586259378,-0.08174214948855878,15.617000709776336,0.0,0.0,0.0,0.0,0.0,0.4325235875540602,0.0,0.0,0.12309109354512524,0.0,0.0,0.0,0.0,0.0,0.0
0.4750000000000003,-0.012951775705324913,0.018340710402337992,0.6034610180244228,-0.002873549366994565,-0.009679786564266933,-0.4972164925071152,-0.01290145517763583,0.018502980285193628,0.1829186079452182,-0.0008534832346680406,-0.00772430135017712,-0.6514706721363244,0.0020849455709266796,0.01175654277872587,0.0007961452686306031,-0.03137410577834986,-0.0447472273959823,0.01887430836654614,0.0,0.10386976586259378,-0.08174214948855878,15.617000709776336,0.0,0.0,0.0,0.0,0.0,0.4331411138402762,0.0,0.0,0.12391798906747456,0.0,0.0,0.0,0.0,0.0,0.0
0.4800000000000003,-0.012960552162346792,0.018290909826302014,0.6009557354076807,-0.0015061145267270043,-0.010615586874991305,-0.4867805533953427,-0.01290145517763583,0.018502980285193628,0.1829186079452182,-0.0008534832346680406,-0.00772430135017712,-0.6514706721363244,0.0019136699518771453,0.011604517047399954,0.0009043224083182473,-0.026273227792420698,-0.02709456441438405,0.02446671328600846,0.0,0.10386976586259378,-0.08174214948855878,15.617000709776336,0.0,0.0,0.0,0.0,0.0,0.4337627531721694,0.0,0.0,0.12473632104033379,0.0,0.0,0.0,0.0,0.0,0.0
0.4850000000000003,-0.01296806714600219,0.018239167405243423,0.5984958178311126,-0.001637101061637363,-0.009807186452949203,-0.4786108184175245,-0.01290145517763583,0.018502980285193628,0.1829186079452182,-0.0008534832346680406,-0.00772430135017712,-0.6514706721363244,0.001725298963284352,0.011473702132274098,0.0010409561218042663,-0.04454564060560925,-0.02674694116227211,0.02752358485708142,0.0,0.10386976586259378,-0.08174214948855878,15.617000709776336,0.0,0.0,0.0,0.0,0.0,0.43438846287010413,0.0,0.0,0.1255461446577342,0.0,0.0,0.0,0.0,0.0,0.0
0.4900000000000003,-0.012973577869360917,0.018196925130496554,0.5962214690818725,-0.0008098682265104129,-0.008894408920513786,-0.46967743307253745,-0.01290145517763583,0.018502980285193628,0.1829186079452182,-0.0008534832346680406,-0.00772430135017712,-0.6514706721363244,0.0014442078396053422,0.011381371931672313,0.0011666528668406802,-0.05729845165150205,-0.014365708148415972,0.023984304595228264,0.0,0.10386976586259378,-0.08174214948855878,15.617000709776336,0.0,0.0,0.0,0.0,0.0,0.4350182005296541,0.0,0.0,0.12634751480950682,0.0,0.0,0.0,0.0,0.0,0.0
0.49500000000000033,-0.012977618695368598,0.018144775773282766,0.5938509781233564,-0.0012599386459525748,-0.012150795494867547,-0.4605314287022926,-0.01290145517763583,0.018502980285193628,0.1829186079452182,-0.0008534832346680406,-0.00772430135017712,-0.6514706721363244,0.0012451354237788077,0.01130481792081223,0.0012643897311461264,-0.013090074863467808,-0.02231873645173462,0.013706687959138248,0.0,0.10386976586259378,-0.08174214948855878,15.617000709776336,0.0,0.0,0.0,0.0,0.0,0.4356519240200851,0.0,0.0,0.12714048608283146,0.0,0.0,0.0,0.0,0.0,0.0
0.5000000000000003,-0.012990358786210264,0.018080058501677966,0.5915315089886967,-0.003362941287312997,-0.012438096996542842,-0.4502722910861694,-0.01290145517763583,0.018502980285193628,0.1829186079452182,-0.0008534832346680406,-0.00772430135017712,-0.6514706721363244,0.0012017693689634866,0.011098952387286832,0.0013126894965246412,-0.0156400738261123,-0.0528815991139501,0.006901895634781465,0.0,0.10386976586259378,-0.08174214948855878,15.617000709776336,0.0,0.0,0.0,0.0,0.0,0.4362895914828451,0.0,0.0,0.12792511276377846,0.0,0.0,0.0,0.0,0.0,0.0
0.5050000000000003,-0.013002561854867834,0.018022570766459863,0.5893965283864179,-0.0016124228142186986,-0.011651425244847519,-0.44016864889039387,-0.013002561854867834,0.018022570766459863,0.15246536705635483,-0.0016124228142186986,-0.011651425244847519,-0.5688700977292367,0.0010717622553035155,0.010898832818895197,0.0013427668401312693,-0.037219511282764274,-0.029363708705340084,0.0065248434327137925,0.0,0.10386976586259378,-0.08174214948855878,15.617000709776336,0.0,0.0,0.0,0.0,0.0,0.43693116133006304,0.0,0.0,0.12870144883884282,0.0,0.0,0.0,0.0,0.0,0.0
0.5100000000000003,-0.013005646502536602,0.017961952120304023,0.5871780140599778,0.00015315184875959627,-0.012423316993112308,-0.4308348124004245,-0.013002561854867834,0.018022570766459863,0.15246536705635483,-0.0016124228142186986,-0.011651425244847519,-0.5688700977292367,0.0008641187924537118,0.010812581790676935,0.0013903576950142966,-0.03867202092590645,-0.00756951072493541,0.012275961600804103,0.0,0.11347450165776668,-0.053417031724767514,15.38817182007134,0.0,0.0,0.0,0.0,0.0,0.43757659224305434,0.0,0.0,0.12946954799647076,0.0,0.0,0.0,0.0,0.0,0.0
0.5150000000000003,-0.013005923339883839,0.01789910752585783,0.5850023206397823,-9.630497075032492e-05,-0.0125551738598923,-0.42283742139374236,-0.013002561854867834,0.018022570766459863,0.15246536705635483,-0.0016124228142186986,-0.011651425244847519,-0.5688700977292367,0.0006456736038247757,0.010758350741366971,0.0014624127011468072,-0.04114588657638466,-0.010304674053457865,0.014316094090002163,0.0,0.11347450165776668,-0.053417031724767514,15.38817182007134,0.0,0.0,0.0,0.0,0.0,0.4382258431708349,0.0,0.0,0.13022946362857926,0.0,0.0,0.0,0.0,0.0,0.0
0.5200000000000004,-0.013003423201568437,0.017841260815823795,0.5829922014137044,0.0012201731363815386,-0.012044041043040434,-0.4148355519582097,-0.013002561854867834,0.018022570766459863,0.15246536705635483,-0.0016124228142186986,-0.011651425244847519,-0.5688700977292367,0.00041053360973065874,0.010757897100291368,0.0015220350174197487,-0.05089547448091782,0.010736480531037916,0.009957152262435907,0.0,0.11347450165776668,-0.053417031724767514,15.38817182007134,0.0,0.0,0.0,0.0,0.0,0.43887887332864206,0.0,0.0,0.13098124883206777,0.0,0.0,0.0,0.0,0.0,0.0
0.5250000000000004,-0.013000522372780012,0.017775145602117362,0.5808990009915849,-0.0008998377276604563,-0.014234882409893861,-0.40655038984929404,-0.013002561854867834,0.018022570766459863,0.15246536705635483,-0.0016124228142186986,-0.011651425244847519,-0.5688700977292367,0.00020271180017307207,0.010768080903475903,0.0015474874635381193,-0.025984342634569273,-0.017681858957242926,-8.200577209661636e-05,0.0,0.11347450165776668,-0.053417031724767514,15.38817182007134,0.0,0.0,0.0,0.0,0.0,0.4395356421964631,0.0,0.0,0.13172495641032286,0.0,0.0,0.0,0.0,0.0,0.0
0.5300000000000004,-0.013016041567024031,0.017695339358017762,0.5788469864374246,-0.00415185514354446,-0.016203505409337106,-0.3988846201440846,-0.013002561854867834,0.018022570766459863,0.15246536705635483,-0.0016124228142186986,-0.011651425244847519,-0.5688700977292367,0.00015171283345120904,0.01053928586796482,0.0015282143188047202,-0.005900345054265706,-0.057222642357199774,-0.005266614208831816,0.0,0.11347450165776668,-0.053417031724767514,15.38817182007134,0.0,0.0,0.0,0.0,0.0,0.4401961095175717,0.0,0.0,0.13246063887471551,0.0,0.0,0.0,0.0,0.0,0.0
0.5350000000000004,-0.013035441649141614,0.017618364511726204,0.5769519550129736,-0.00305825476291057,-0.015180833184284906,-0.3913817334170658,-0.013002561854867834,0.018022570766459863,0.15246536705635483,-0.0016124228142186986,-0.011651425244847519,-0.5688700977292367,9.072290374130226e-05,0.01028485952827546,0.0015114328936128314,-0.02895901888890232,-0.0371233952162752,-0.000821578596922026,0.0,0.11347450165776668,-0.053417031724767514,15.38817182007134,0.0,0.0,0.0,0.0,0.0,0.4408602352970713,0.0,0.0,0.13318834844609095,0.0,0.0,0.0,0.0,0.0,0.0
0.5400000000000004,-0.013046242990198995,0.017541312459567922,0.5749774980503246,-0.001095942680527309,-0.014755485920816951,-0.38348598711726517,-0.013002561854867834,0.018022570766459863,0.15246536705635483,-0.0016124228142186986,-0.011651425244847519,-0.5688700977292367,-8.315783729318729e-05,0.010177297212928713,0.001536369285789256,-0.04206444665703076,-0.00362788525121816,0.010790835707823585,0.0,0.11347450165776668,-0.053417031724767514,15.38817182007134,0.0,0.0,0.0,0.0,0.0,0.44152797980044656,0.0,0.0,0.13390813705625157,0.0,0.0,0.0,0.0,0.0,0.0
