time,pos_x,pos_y,pos_z,vel_x,vel_y,vel_z,pos_xo,pos_yo,pos_zo,vel_xo,vel_yo,vel_zo,roll,pitch,yaw,roll_vel,pitch_vel,yaw_vel,thrust_z,force_x,force_y,force_z,torque_x,torque_y,torque_z,pos_xd,pos_yd,pos_zd,vel_xd,vel_yd,vel_zd,roll_d,pitch_d,yaw_d,roll_vel_d,pitch_vel_d,yaw_vel_d
0.050000238418579104,0.0,0.0,0.0,0.0,0.0,0.0,0.0,0.0,-0.400000000000011,0.0,0.0,-9.15527169127034e-08,0.004750204366879451,0.011517362324942937,-0.06770843201998833,0.0,0.0,0.0,0.0,5.739291429519653,4.0405433177948,24.925253927707672,0.0,0.0,0.0,0.0,0.0,0.400000000000011,0.0,0.0,9.15527169127034e-08,0.0,0.0,0.0,0.0,0.0,0.0
0.10000023841857911,0.007112528663128614,0.00178670440800488,0.03021358698606491,0.011325453778067358,-0.00702594608309986,-0.004039448516466079,0.007112528663128614,0.00178670440800488,-0.3702538073810405,0.011325453778067358,-0.00702594608309986,-0.02248669019255855,0.005220095844762795,0.01194471544603637,-0.06771473788775761,2.2328225895762444e-05,-0.015940044075250626,-0.0005454618949443082,0.0,-5.252547025680542,-1.6515659093856812,25.964206874370575,0.0,0.0,0.0,0.0,0.0,0.40046739436710543,0.0,0.0,0.01844724167609247,0.0,0.0,0.0,0.0,0.0,0.0
0.15000023841857912,0.006988747976720333,0.000538464286364615,0.031388357281684875,-0.012495462645797846,-0.007565354246813709,0.09294744151436055,0.006988747976720333,0.000538464286364615,-0.37043225871116703,-0.012495462645797846,-0.007565354246813709,0.0574996960604096,0.004936781716263994,0.006320412261646702,-0.06758095224658733,-0.023566674441099167,-2.205240488052368,-0.03655039146542522,0.0,-5.477346181869507,-0.8287904262542725,25.958675920963287,0.0,0.0,0.0,0.0,0.0,0.4018206159928519,0.0,0.0,0.03544774545395095,0.0,0.0,0.0,0.0,0.0,0.0
0.2000002384185791,-0.0015723221004009247,-0.00206594355404377,0.06236429512500763,-0.1604018924259656,-0.006250774533011139,0.6701648420826856,-0.0015723221004009247,-0.00206594355404377,-0.34162518358106964,-0.1604018924259656,-0.006250774533011139,0.6190781534717996,0.023354332564015756,-0.0516498767839515,-0.06583897753047907,0.5329842567443848,3.9460599422454834,0.2753339111804957,0.0,-1.2410615980625153,-3.2176501750946045,25.942903637886047,0.0,0.0,0.0,0.0,0.0,0.40398947870607727,0.0,0.0,0.051086688610885944,0.0,0.0,0.0,0.0,0.0,0.0
0.2500002384185791,-0.007212291471660137,-0.0036190396640449762,0.08675479143857956,-0.16411432629615763,-0.002196552701878317,0.8088320378400777,-0.007212291471660137,-0.0036190396640449762,-0.320153147044164,-0.16411432629615763,-0.002196552701878317,0.7433873293139674,0.057359757370415654,0.053042887356579804,-0.05572734649563005,0.4722113013267517,-8.332215309143066,0.40067335963249306,0.0,-1.5052049160003662,-1.8497611284255981,25.683545470237732,0.0,0.0,0.0,0.0,0.0,0.40690793848274354,0.0,0.0,0.06544470852611027,0.0,0.0,0.0,0.0,0.0,0.0
0.3000002384185791,-0.018349673599004745,-0.008931306190788746,0.14728525280952454,-0.1895347720911331,-0.014101626890203,1.0495798601588893,-0.018349673599004745,-0.008931306190788746,-0.26322862371359546,-0.1895347720911331,-0.014101626890203,0.9709816478977845,0.08026992799378707,-0.07708384798669021,-0.03561101654166565,0.011109035462141037,3.4644198417663574,-0.11008524149656339,0.0,5.649346232414246,-5.964849829673767,25.93374401330948,0.0,0.0,0.0,0.0,0.0,0.41051387652312,0.0,0.0,0.07859821226110474,0.0,0.0,0.0,0.0,0.0,0.0
0.3500002384185791,-0.026333265006542206,-0.012993301264941692,0.18251274526119232,-0.18238698290584227,-0.04196553258541766,1.1529999563001376,-0.026333265006542206,-0.012993301264941692,-0.23223614771067802,-0.18238698290584227,-0.04196553258541766,1.0623803719716547,0.08229163825955776,-0.017213372783504433,-0.04053756550168819,0.6257356405258179,-2.5098330974578857,-0.05902597308158844,0.0,5.847586154937744,5.073138356208801,12.500468093901873,0.0,0.0,0.0,0.0,0.0,0.41474889297187034,0.0,0.0,0.0906195843284829,0.0,0.0,0.0,0.0,0.0,0.0
0.40000023841857907,-0.03932642936706543,-0.022368652746081352,0.2651093006134033,-0.3510426797766258,-0.07301681104333185,1.1942644070306532,-0.03932642936706543,-0.022368652746081352,-0.15444881016652934,-0.3510426797766258,-0.07301681104333185,1.092687022359286,0.11162915400118001,0.040991049499073284,-0.0422622500293377,-0.6802123188972473,2.609363317489624,0.09793651103973357,0.0,4.873425364494324,4.711703538894653,2.7974040508270264,0.0,0.0,0.0,0.0,0.0,0.41955811077993266,0.0,0.0,0.10157738467136722,0.0,0.0,0.0,0.0,0.0,0.0
0.45000023841857906,-0.04380059242248535,-0.026895148679614067,0.2978878915309906,-0.38044575179692397,-0.13092755643645754,1.0335652186308963,-0.04380059242248535,-0.026895148679614067,-0.1270020976990236,-0.38044575179692397,-0.13092755643645754,0.9220286813293557,0.0874206295160378,0.11407276240959296,-0.036728179105769865,-1.2701319456100464,1.0773192644119263,0.11957046389579759,0.0,5.6534364223480225,1.8486937880516052,0.1383489966392517,0.0,0.0,0.0,0.0,0.0,0.4248899892300142,0.0,0.0,0.11153653730154062,0.0,0.0,0.0,0.0,0.0,0.0
0.5000002384185791,-0.052316442131996155,-0.03689873218536377,0.34619519114494324,-0.39021845535743893,-0.21207017099842124,0.5506738924909219,-0.052316442131996155,-0.03689873218536377,-0.08450095552447923,-0.39021845535743893,-0.21207017099842124,0.43011538246638553,0.014907586523400074,0.23285494707050258,-0.017640421488344327,-1.8445054292678833,4.236344337463379,0.1386679112911219,0.0,5.702647805213928,3.7331796884536743,0.13991963863372803,0.0,0.0,0.0,0.0,0.0,0.43069614666942246,0.0,0.0,0.1205585100245364,0.0,0.0,0.0,0.0,0.0,0.0
0.5500002384185791,-0.05639476329088211,-0.042124081403017044,0.3601132333278656,-0.3507141963150653,-0.2329523019751333,0.26541748061248227,-0.05639476329088211,-0.042124081403017044,-0.07681795868701835,-0.3507141963150653,-0.2329523019751333,0.136715994951869,-0.0634370017592536,0.38517354862909325,0.01373270893664369,-2.7605364322662354,1.9182127714157104,0.1094509586691854,0.0,5.62551748752594,5.402422070503235,10.054412230849266,0.0,0.0,0.0,0.0,0.0,0.43693119201488395,0.0,0.0,0.12870148566061326,0.0,0.0,0.0,0.0,0.0,0.0
0.6000002384185792,-0.06078984960913658,-0.053089503198862076,0.3671755790710449,-0.030578713447254956,-0.14313017604608344,-0.09552281145883526,-0.06078984960913658,-0.053089503198862076,-0.07637698554293737,-0.030578713447254956,-0.14313017604608344,-0.23154333661103138,-0.2533502147883384,0.47748483060318314,0.10352155684527187,-2.2639760971069336,-3.895613431930542,0.02856796421110678,0.0,5.808804988861084,5.95689332485199,9.82069380581379,0.0,0.0,0.0,0.0,0.0,0.4435525646139823,0.0,0.0,0.13602052515219612,0.0,0.0,0.0,0.0,0.0,0.0
0.6500002384185792,-0.058464135974645615,-0.056007057428359985,0.3621874451637268,0.07447223979510931,-0.05023871755208624,-0.17191022023294086,-0.058464135974645615,-0.056007057428359985,-0.08833293690321053,0.07447223979510931,-0.05023871755208624,-0.31447794316374955,-0.3369470313246232,0.3560489714958921,0.14009454938597354,-1.9534964561462402,3.9921810626983643,0.1640571802854533,0.0,-2.291459798812866,-5.071726083755493,25.88169664144516,0.0,0.0,0.0,0.0,0.0,0.45052038206693734,0.0,0.0,0.1425677229308087,0.0,0.0,0.0,0.0,0.0,0.0
0.7000002384185793,-0.04575920104980469,-0.05356253683567047,0.3444088399410248,0.38977709468984556,0.17787180950194142,-0.06013272749362608,-0.04575920104980469,-0.05356253683567047,-0.11338845568964928,0.38977709468984556,0.17787180950194142,-0.2085250823933702,-0.45260491722474505,0.34544680529704497,0.19198136799332044,0.6944193243980408,-9.598105430603027,-0.003531070891766565,0.0,-3.297979474067688,-4.413414359092712,23.668831765651703,0.0,0.0,0.0,0.0,0.0,0.45779729563067406,0.0,0.0,0.14839235489974412,0.0,0.0,0.0,0.0,0.0,0.0
0.7500002384185793,-0.03276420012116432,-0.04521047696471214,0.33520078659057617,0.3980836577975465,0.30276517653130514,-0.0838485804571025,-0.03276420012116432,-0.04521047696471214,-0.13014756625396207,0.3980836577975465,0.30276517653130514,-0.23738959982978758,-0.3726339073142082,0.030211702868060186,0.18126950438095513,2.1985487937927246,6.037138938903809,0.015087011270224309,0.0,-5.695371508598328,-5.81299352645874,24.458315312862396,0.0,0.0,0.0,0.0,0.0,0.46534835284453824,0.0,0.0,0.15354101937268508,0.0,0.0,0.0,0.0,0.0,0.0
0.8000002384185794,-0.01788341999053955,-0.017193200066685677,0.3271075487136841,0.5195948894485071,0.5172664568189571,0.15816361826120945,-0.01788341999053955,-0.017193200066685677,-0.14603331831995747,0.5195948894485071,0.5172664568189571,0.00010584696805412963,-0.25223673111955947,0.08553194476835069,0.16924903694643234,2.949685573577881,-9.051941871643066,0.033566709607840695,0.0,-0.28720834851264954,-5.745893597602844,24.451346218585968,0.0,0.0,0.0,0.0,0.0,0.47314086703364155,0.0,0.0,0.15805777129315532,0.0,0.0,0.0,0.0,0.0,0.0
0.8500002384185794,-0.014347909018397331,-0.0017498089000582695,0.32883158326148987,0.4419752073204513,0.577718674538364,0.07292010559321915,-0.014347909018397331,-0.0017498089000582695,-0.15231271010020309,0.4419752073204513,0.577718674538364,-0.0890641444518219,-0.0891804814567827,-0.16170087409721878,0.17942021496881289,2.41263747215271,7.22172737121582,-0.4882845580577859,0.0,-5.776386737823486,-5.966815710067749,16.663950562477112,0.0,0.0,0.0,0.0,0.0,0.48114429336169295,0.0,0.0,0.16198425004504105,0.0,0.0,0.0,0.0,0.0,0.0
0.9000002384185795,-0.01310727559030056,0.03185870125889778,0.3421134650707245,0.4225263355949753,0.6168821835779408,0.2516311120962487,-0.01310727559030056,0.03185870125889778,-0.14721664604960827,0.4225263355949753,0.6168821835779408,0.08627131094583135,0.021186723136702668,-0.01679419639097146,0.15663671421454417,1.8180582523345947,-7.229608058929443,-0.17363551259040744,0.0,-3.991013288497925,-5.714831829071045,20.55770844221115,0.0,0.0,0.0,0.0,0.0,0.48933011112033276,0.0,0.0,0.16535980115041737,0.0,0.0,0.0,0.0,0.0,0.0
0.9500002384185795,-0.011467711068689823,0.04875267297029495,0.35274192690849304,0.36073185646942696,0.6148593610641189,0.1957153041404601,-0.011467711068689823,0.04875267297029495,-0.14492978504796783,0.36073185646942696,0.6148593610641189,0.027493712002919307,0.13379192952837915,-0.24534840243899847,0.16619891206756243,1.4966131448745728,7.232069492340088,-0.35610586404800504,0.0,-5.138368248939514,-5.966763496398926,11.356580793857574,0.0,0.0,0.0,0.0,0.0,0.49767171195646087,0.0,0.0,0.1682215921375408,0.0,0.0,0.0,0.0,0.0,0.0
1.0000002384185795,-0.017973357811570168,0.08089005202054977,0.38163867592811584,0.2007262257150929,0.5289883533780906,0.25087949792610864,-0.017973357811570168,0.08089005202054977,-0.12450561782475456,0.2007262257150929,0.5289883533780906,0.08027477507702516,0.18735437898674956,-0.016453828587810193,0.15022118770334725,1.0943840742111206,-4.397986888885498,-0.28634735941886846,0.0,-3.8103586435317993,-5.458762049674988,17.28171807527542,0.0,0.0,0.0,0.0,0.0,0.5061442937528704,0.0,0.0,0.17060472284908348,0.0,0.0,0.0,0.0,0.0,0.0
1.0500002384185796,-0.020966896787285805,0.09246745705604553,0.3935742974281311,0.1238303811971635,0.4728196800374116,0.2498942571056169,-0.020966896787285805,0.09246745705604553,-0.121150462462566,0.1238303811971635,0.4728196800374116,0.07735192665714946,0.25042295160338224,-0.12934409159785076,0.14447049241270982,0.32723963260650635,7.628785133361816,-0.28741744160652255,0.0,-1.9274436235427856,-5.980478882789612,15.52102181315422,0.0,0.0,0.0,0.0,0.0,0.5147247598906971,0.0,0.0,0.17254233044846745,0.0,0.0,0.0,0.0,0.0,0.0
1.1000002384185796,-0.03019293025135994,0.10720588266849518,0.4205091893672943,0.09626423270077761,0.3165775173208146,0.35547752495388507,-0.03019293025135994,0.10720588266849518,-0.10288243426749544,0.09626423270077761,0.3165775173208146,0.18141183558339988,0.24643108021272342,0.042598804028118664,0.12921693304050752,0.441496878862381,-4.08684778213501,-0.16620908677577922,0.0,-3.2985291481018066,-2.3251742720603943,24.05204439163208,0.0,0.0,0.0,0.0,0.0,0.5233916236347897,0.0,0.0,0.1740656893704852,0.0,0.0,0.0,0.0,0.0,0.0
1.1500002384185797,-0.033149901777505875,0.11073090881109238,0.4350799024105072,0.05435058795949988,0.24206309752905664,0.4119356567586288,-0.033149901777505875,0.11073090881109238,-0.09704501498463047,0.05435058795949988,0.24206309752905664,0.2367313503073917,0.2790640293475164,-0.07566426663109738,0.12422085095874014,-0.28797391057014465,7.9832048416137695,-0.17221105098724462,0.0,1.6597988605499268,-5.977192997932434,12.990249158465303,0.0,0.0,0.0,0.0,0.0,0.5321249173951377,0.0,0.0,0.1752043064512371,0.0,0.0,0.0,0.0,0.0,0.0
1.2000002384185797,-0.046234678477048874,0.11659535020589828,0.4703746736049652,0.002271014445849588,0.0574903094076175,0.4760225036182182,-0.046234678477048874,0.11659535020589828,-0.070531433024009,0.002271014445849588,0.0574903094076175,0.30003649215645983,0.22798447911014508,0.11339615745711784,0.11800672350983188,0.44996368885040283,-1.9392786026000977,-0.31091246008872964,0.0,-1.5302338600158691,0.7257407605648041,21.970336258411407,0.0,0.0,0.0,0.0,0.0,0.5409061066289742,0.0,0.0,0.17598601146175835,0.0,0.0,0.0,0.0,0.0,0.0
1.2500002384185798,-0.051742445677518845,0.11875951290130615,0.4852646291255951,-0.05797724485143764,-0.005428516404949318,0.5306186532736304,-0.051742445677518845,0.11875951290130615,-0.06445337903354231,-0.05797724485143764,-0.005428516404949318,0.35418161001410664,0.24049594607163183,0.11495602531493443,0.10407221281223222,-1.4986646175384521,5.352108001708984,-0.4591422677040107,0.0,3.8946468830108643,-5.86981737613678,9.756285473704338,0.0,0.0,0.0,0.0,0.0,0.5497180081591374,0.0,0.0,0.17643704325952378,0.0,0.0,0.0,0.0,0.0,0.0
1.3000002384185798,-0.057174380868673325,0.11504162102937698,0.5175788998603821,0.06634549436580664,-0.18456194376553475,0.5154859586882594,-0.057174380868673325,0.11504162102937698,-0.04096581283434819,0.06634549436580664,-0.18456194376553475,0.3389038269259703,0.13196237057495397,0.16151756577414034,0.09436567786527306,-1.2306017875671387,1.8541854619979858,-0.46099629998207114,0.0,-3.2648706436157227,-3.3653383255004883,16.21370166540146,0.0,0.0,0.0,0.0,0.0,0.5585447126947303,0.0,0.0,0.17658213176228912,0.0,0.0,0.0,0.0,0.0,0.0
1.3500002384185799,-0.05712689086794853,0.1111556813120842,0.5316061973571777,0.0460081397378936,-0.2321353494506211,0.48673036788244495,-0.05712689086794853,0.1111556813120842,-0.035765313992940806,0.0460081397378936,-0.2321353494506211,0.31028579194301453,0.0861354168733599,0.212989027478383,0.08604847526637904,-0.11049194633960724,-3.2352869510650635,-0.24997372925281486,0.0,0.04592388588935137,-4.31594717502594,14.424002282321453,0.0,0.0,0.0,0.0,0.0,0.5673715113501185,0.0,0.0,0.17644457593943041,0.0,0.0,0.0,0.0,0.0,0.0
1.40000023841858,-0.049266472458839417,0.10106267035007477,0.5638595819473267,0.25748326477568356,-0.277824670171146,0.42521072301261237,-0.049266472458839417,0.10106267035007477,-0.012325244020502613,0.25748326477568356,-0.277824670171146,0.2491644050055505,0.09914621089179176,-0.03150738010565801,0.07360325911316945,0.268284410238266,3.686312198638916,-0.05733964964747474,0.0,3.344282627105713,-4.156214118003845,13.216657234355807,0.0,0.0,0.0,0.0,0.0,0.5761848259678293,0.0,0.0,0.17604631800706186,0.0,0.0,0.0,0.0,0.0,0.0
1.45000023841858,-0.04621419310569763,0.09554989635944366,0.577538788318634,0.1672754917822166,-0.2962635752895817,0.40929775344358343,-0.04621419310569763,0.09554989635944366,-0.0074333547413898415,0.1672754917822166,-0.2962635752895817,0.2338897394388568,0.10158002217159723,0.081412077612395,0.0717957198092023,0.14756222069263458,-0.23563145101070404,-0.03533376380801198,0.0,-4.591841697692871,3.9020916223526,6.43631112575531,0.0,0.0,0.0,0.0,0.0,0.5849721430600239,0.0,0.0,0.17540801400472664,0.0,0.0,0.0,0.0,0.0,0.0
1.50000023841858,-0.03705211356282234,0.08212509751319885,0.5970458984375,0.2641086128030173,-0.3512501021586914,0.15684416095171028,-0.03705211356282234,0.08212509751319885,0.0033239472456070285,0.2641086128030173,-0.3512501021586914,-0.017704939971639327,0.11085209608567093,-0.0349323716112897,0.06914310647052346,-0.5287339687347412,-2.6993277072906494,-0.07998781651258435,0.0,-5.319314002990723,4.600929021835327,6.795736312866211,0.0,0.0,0.0,0.0,0.0,0.593721951191893,0.0,0.0,0.1745491009233496,0.0,0.0,0.0,0.0,0.0,0.0
1.55000023841858,-0.03209609165787697,0.07433634251356125,0.5994269847869873,0.21936673349596422,-0.38109776032270803,-0.032008358649781424,-0.03209609165787697,0.07433634251356125,-0.0029966968516359493,0.21936673349596422,-0.38109776032270803,-0.205496219196177,0.09054807900479434,-0.11269968797569874,0.06414357927264902,-1.6135766506195068,-3.3729684352874756,-0.12449444830417591,0.0,-5.224122762680054,5.565661668777466,13.169945865869522,0.0,0.0,0.0,0.0,0.0,0.6024236816386233,0.0,0.0,0.17348786054639556,0.0,0.0,0.0,0.0,0.0,0.0
1.60000023841858,-0.023803427815437317,0.054504863917827606,0.5879977941513062,0.0003091853092501151,-0.36586462714860873,-0.30923604462452325,-0.023803427815437317,0.054504863917827606,-0.02306985800417971,0.0003091853092501151,-0.36586462714860873,-0.4814775247833043,-0.04541256848989583,-0.3167401775376151,0.025381037140393303,-4.0752387046813965,5.644241809844971,-0.03802871704101632,0.0,5.61544132232666,5.967122912406921,19.897318959236145,0.0,0.0,0.0,0.0,0.0,0.6110676521554859,0.0,0.0,0.17224148015878105,0.0,0.0,0.0,0.0,0.0,0.0
1.6500002384185801,-0.02531464956700802,0.04597301036119461,0.5799079537391663,-0.03474904138758498,-0.26356646882672374,-0.3194522328349695,-0.02531464956700802,0.04597301036119461,-0.03973705996898369,-0.03474904138758498,-0.26356646882672374,-0.49027834310598917,-0.19536449815543833,-0.09488732396255051,-0.012754824406196796,-1.6764475107192993,-1.9616793394088745,-0.14243742823600744,0.0,5.993314862251282,5.993356704711914,25.207495272159576,0.0,0.0,0.0,0.0,0.0,0.61964501370815,0.0,0.0,0.17082611027101968,0.0,0.0,0.0,0.0,0.0,0.0
1.7000002384185802,-0.029621953144669533,0.03701703995466232,0.5702218413352966,-0.0988379581197029,-0.07266463869624884,-0.09038471214247036,-0.029621953144669533,0.03701703995466232,-0.0579258586822351,-0.0988379581197029,-0.07266463869624884,-0.259641631641802,-0.305828111995897,-0.19352732580341048,-0.0320191659207798,-1.2439601421356201,9.125663757324219,0.26517319679260143,0.0,5.758065104484558,-1.7307974696159363,23.93221378326416,0.0,0.0,0.0,0.0,0.0,0.6281477000175317,0.0,0.0,0.1692569194993316,0.0,0.0,0.0,0.0,0.0,0.0
1.7500002384185802,-0.035936903208494186,0.03824019059538841,0.5692613124847412,-0.1493444160356838,0.040723917989255023,-0.02050916434301159,-0.035936903208494186,0.03824019059538841,-0.06730706729561597,-0.1493444160356838,0.040723917989255023,-0.18805731107901286,-0.3291024394488584,0.11021567665131027,-0.0255358807262267,0.23492126166820526,-1.5805619955062866,0.5811544656753542,0.0,4.7329230308532715,4.841145157814026,25.717949271202087,0.0,0.0,0.0,0.0,0.0,0.6365683797803572,0.0,0.0,0.16754814673600127,0.0,0.0,0.0,0.0,0.0,0.0
1.8000002384185803,-0.034797217696905136,0.05067341402173042,0.5735235810279846,-0.06621775981766236,0.2643333170306967,0.2889323080112781,-0.034797217696905136,0.05067341402173042,-0.07137683040519727,-0.06621775981766236,0.2643333170306967,0.1232191572731704,-0.322175732028807,-0.03500269478585416,0.0034713486541662064,0.3340544104576111,8.182269096374512,0.09000889211892982,0.0,2.2206024527549744,-5.970888376235962,23.095066249370575,0.0,0.0,0.0,0.0,0.0,0.6449004114331819,0.0,0.0,0.16571315073810772,0.0,0.0,0.0,0.0,0.0,0.0
1.8500002384185803,-0.03182394430041313,0.061146337538957596,0.5789427757263184,-0.0975547115696301,0.37221036029783255,0.36931684153848465,-0.03182394430041313,0.061146337538957596,-0.07419502460754601,-0.0975547115696301,0.37221036029783255,0.20555238428161232,-0.2987113779812294,0.20611558629402094,0.0038816645957098217,1.775380253791809,-6.960477352142334,-0.06452725082635795,0.0,-1.5296051502227783,-5.959588050842285,16.638143837451935,0.0,0.0,0.0,0.0,0.0,0.6531378003338644,0.0,0.0,0.16376445725687233,0.0,0.0,0.0,0.0,0.0,0.0
1.9000002384185803,-0.017258673906326294,0.09248311072587967,0.596826434135437,0.07593435525348588,0.5630366041765522,0.49110623412858156,-0.017258673906326294,0.09248311072587967,-0.06444872410502644,0.07593435525348588,0.5630366041765522,0.3293924303043314,-0.1861498393480332,-0.043919542023536096,-0.0028660898853511974,2.382695436477661,7.787264347076416,0.19131186604499723,0.0,0.9815638661384583,-5.998152852058411,8.281414479017258,0.0,0.0,0.0,0.0,0.0,0.6612751582404635,0.0,0.0,0.16171380382425016,0.0,0.0,0.0,0.0,0.0,0.0
1.9500002384185804,-0.011656244285404682,0.1114439144730568,0.6073014736175537,-0.030509229590784094,0.6437916823166844,0.3734780618814328,-0.011656244285404682,0.1114439144730568,-0.06200619135567198,-0.030509229590784094,0.6437916823166844,0.21390587957340693,-0.09400467374514143,0.20446073677316967,-0.0007756547083968002,2.269054412841797,2.3909878730773926,0.21608847379684418,0.0,-3.2859588861465454,-5.997790575027466,0.7059729695320129,0.0,0.0,0.0,0.0,0.0,0.6693076649732257,0.0,0.0,0.15957218230802586,0.0,0.0,0.0,0.0,0.0,0.0
2.0000002384185804,0.0055155628360807896,0.15570376813411713,0.6147679090499878,0.18002511640516236,0.6786280252001896,-0.08960250022990207,0.0055155628360807896,0.15570376813411713,-0.06246312310077373,0.18002511640516236,0.6786280252001896,-0.246952379571456,0.04868221785749283,0.22441672962759895,-0.0241457134898182,3.0266942977905273,-3.966855764389038,0.21833758056163838,0.0,-2.5351885557174683,-5.99995744228363,0.5226239562034607,0.0,0.0,0.0,0.0,0.0,0.6772310321507615,0.0,0.0,0.15734987934155392,0.0,0.0,0.0,0.0,0.0,0.0
2.0500002384185803,0.014681298285722733,0.17535251379013062,0.6076287627220154,0.19057556034564085,0.6132106642487518,-0.40941549792815984,0.014681298285722733,0.17535251379013062,-0.07741270617467766,0.19057556034564085,0.6132106642487518,-0.5644720126575474,0.16449986567718344,0.0792458640999869,-0.03225282504138649,2.76237154006958,-2.0560946464538574,0.19829715788364435,0.0,-4.166050314903259,-5.999864459037781,7.264020472764969,0.0,0.0,0.0,0.0,0.0,0.685041468896693,0.0,0.0,0.1550565147293876,0.0,0.0,0.0,0.0,0.0,0.0
2.10000023841858,0.03533175587654114,0.21702082455158234,0.5680059790611267,0.01461535306242158,0.3211828030943896,-0.8988649489874645,0.03533175587654114,0.21702082455158234,-0.1247296703568761,0.01461535306242158,0.3211828030943896,-1.0515660269128357,0.3207085330510089,-0.17061136538634525,-0.01761668539242711,1.859849452972412,-1.4705036878585815,0.25661242008209245,0.0,-5.106584787368774,-5.997778058052063,24.416048228740692,0.0,0.0,0.0,0.0,0.0,0.6927356494180028,0.0,0.0,0.15270107792537135,0.0,0.0,0.0,0.0,0.0,0.0
2.15000023841858,0.04039689525961876,0.22888275980949402,0.550017237663269,-0.10059143823561632,0.17916916578287595,-0.8718251470485732,0.04039689525961876,0.22888275980949402,-0.15029344469775752,-0.10059143823561632,0.17916916578287595,-1.0221171097238808,0.3870592439061018,-0.18487113123464116,0.004058642809701141,-1.2000012397766113,5.257131576538086,-0.1683120280504233,0.0,2.657498359680176,-4.943421006202698,25.981476187705994,0.0,0.0,0.0,0.0,0.0,0.7003106823610266,0.0,0.0,0.15029196267530762,0.0,0.0,0.0,0.0,0.0,0.0
2.2000002384185797,0.04833650961518288,0.2532251179218292,0.507086992263794,-0.0757031813663693,-0.033018762773175225,-0.6188139656254524,0.04833650961518288,0.2532251179218292,-0.20067708959173813,-0.0757031813663693,-0.033018762773175225,-0.766650965537504,0.3159199905475365,-0.17228465373780644,-0.018688521927400004,-1.4002279043197632,-0.7704350948333741,-0.5314766764640807,0.0,5.603919267654419,4.150376915931702,25.994827806949615,0.0,0.0,0.0,0.0,0.0,0.7077640818555321,0.0,0.0,0.14783699991205157,0.0,0.0,0.0,0.0,0.0,0.0
2.2500002384185795,0.0483398362994194,0.25848931074142456,0.4939608573913574,-0.16843387989513975,-0.09685614013105912,-0.4952430552011005,0.0483398362994194,0.25848931074142456,-0.22113288277026055,-0.16843387989513975,-0.09685614013105912,-0.6405865441879182,0.2653268383230363,-0.09685276127678666,-0.04527251341640026,-2.918452739715576,6.930591583251953,-0.14126661419868555,0.0,5.945070147514343,-3.744793653488159,25.871335208415985,0.0,0.0,0.0,0.0,0.0,0.715093740161618,0.0,0.0,0.14534348898681765,0.0,0.0,0.0,0.0,0.0,0.0
2.3000002384185794,0.046466339379549026,0.2592225670814514,0.4745062291622162,-0.029448419995492463,-0.13306065617932988,-0.314383022481575,0.046466339379549026,0.2592225670814514,-0.24779167267603874,-0.029448419995492463,-0.13306065617932988,-0.45720124979817334,0.09710133765361917,-0.01730064221932537,-0.045106718544753566,-1.5370897054672241,1.3365075588226318,-0.17175251245498674,0.0,5.826364159584045,5.9160919189453125,25.994541883468628,0.0,0.0,0.0,0.0,0.0,0.7222979018382549,0.0,0.0,0.14281822731659832,0.0,0.0,0.0,0.0,0.0,0.0
2.350000238418579,0.045138344168663025,0.25718238949775696,0.4692626893520355,-0.09293754436868014,-0.13776340071208282,-0.21080582362910233,0.045138344168663025,0.25718238949775696,-0.2601124500041604,-0.09293754436868014,-0.13776340071208282,-0.351073362152992,0.03455967502991575,0.09083814332328277,-0.05269694605517694,-2.9952392578125,2.4539430141448975,-0.4580453336238864,0.0,-0.014003519900143147,-4.453054904937744,25.95431500673294,0.0,0.0,0.0,0.0,0.0,0.7293751393561959,0.0,0.0,0.14026753852388965,0.0,0.0,0.0,0.0,0.0,0.0
2.400000238418579,0.047798458486795425,0.2517137825489044,0.46804186701774597,0.08693246178440359,-0.07026453212690438,-0.0018944831982159191,0.047798458486795425,0.2517137825489044,-0.26828246306395465,0.08693246178440359,-0.07026453212690438,-0.13959178233959132,-0.13535243437581812,0.038751290262691196,-0.056715107204326376,-1.6415034532546997,1.8452296257019043,-0.4014047384262087,0.0,-0.8763182759284973,-5.05521833896637,25.966342389583588,0.0,0.0,0.0,0.0,0.0,0.7363243300817006,0.0,0.0,0.1376972991413754,0.0,0.0,0.0,0.0,0.0,0.0
2.450000238418579,0.050195448100566864,0.25192493200302124,0.47246599197387695,0.025914169948369394,-0.008133795146012302,0.11673344334857381,0.050195448100566864,0.25192493200302124,-0.2706786425871919,0.025914169948369394,-0.008133795146012302,-0.01837952060226998,-0.18138921625960158,0.1509091632105548,-0.06972216292628808,0.2862667143344879,-0.32748645544052124,0.06933493912220005,0.0,2.065577745437622,-5.979090571403503,25.848567485809326,0.0,0.0,0.0,0.0,0.0,0.7431446345610688,0.0,0.0,0.1351129639508438,0.0,0.0,0.0,0.0,0.0,0.0
2.5000002384185787,0.06209598109126091,0.25951337814331055,0.48933351039886475,0.1957852656833205,0.12445965666029316,0.3244188486959922,0.06209598109126091,0.25951337814331055,-0.2605019656404932,0.1957852656833205,0.12445965666029316,0.19189925867360771,-0.16346484987945686,0.00075265199439567,-0.0700224153795217,1.1378766298294067,4.159154891967773,-0.23064474761486103,0.0,2.0941017866134644,-5.996320009231567,24.200780391693115,0.0,0.0,0.0,0.0,0.0,0.749835476039358,0.0,0.0,0.13251959002238448,0.0,0.0,0.0,0.0,0.0,0.0
2.5500002384185785,0.06796392053365707,0.2666691541671753,0.5025017857551575,0.06979807936099322,0.18470554121624538,0.45300358721850237,0.06796392053365707,0.2666691541671753,-0.2538947353947263,0.06979807936099322,0.18470554121624538,0.3230817277016694,-0.10855330417081799,0.16002727571652908,-0.08172877865372552,1.232216715812683,-1.2089875936508179,-0.2241052240133284,0.0,-0.5458507686853409,-5.982703685760498,13.259360177442431,0.0,0.0,0.0,0.0,0.0,0.7563965211498838,0.0,0.0,0.129921859516833,0.0,0.0,0.0,0.0,0.0,0.0
2.6000002384185783,0.08759994804859161,0.2852126657962799,0.5366730093955994,0.28278639223181357,0.2850624193059119,0.4682048174456449,0.08759994804859161,0.2852126657962799,-0.22615465231858456,0.28278639223181357,0.2850624193059119,0.3408807161341536,-0.052166955525811076,-0.06662024702624336,-0.09684771335813736,1.4388726949691772,0.9500782489776611,0.022842328995466114,0.0,-3.8773831129074097,-5.997743368148804,2.16402930021286,0.0,0.0,0.0,0.0,0.0,0.7628276617141839,0.0,0.0,0.12732410131149133,0.0,0.0,0.0,0.0,0.0,0.0
2.650000238418578,0.09568467736244202,0.2937011420726776,0.5486614108085632,0.2424631034467071,0.3108133353268498,0.3040061660171336,0.09568467736244202,0.2937011420726776,-0.22046758678648148,0.2424631034467071,0.3108133353268498,0.17927585451078748,0.0049024162914759195,-0.07679094734762337,-0.0912177056071557,1.5695537328720093,-0.9612607359886169,0.04786231368780148,0.0,-4.458942532539368,-5.999605178833008,0.7641564607620239,0.0,0.0,0.0,0.0,0.0,0.7691289975950447,0.0,0.0,0.1247303115063461,0.0,0.0,0.0,0.0,0.0,0.0
2.700000238418578,0.11282359063625336,0.31252628564834595,0.5540748834609985,0.16298017333001036,0.2745753159342575,-0.20258707485894215,0.11282359063625336,0.31252628564834595,-0.221225937086996,0.16298017333001036,0.2745753159342575,-0.32473124772427003,0.09154175913201712,-0.22392304441319677,-0.07744797678979909,2.3371188640594482,-3.495222568511963,0.08362756669521375,0.0,-4.149680972099304,-5.99947464466095,2.4487370252609253,0.0,0.0,0.0,0.0,0.0,0.7753008205479945,0.0,0.0,0.12214417286532789,0.0,0.0,0.0,0.0,0.0,0.0
2.7500002384185778,0.11763477325439453,0.31856513023376465,0.5483877062797546,0.04758866396138514,0.21110836847776404,-0.3791945931608041,0.11763477325439453,0.31856513023376465,-0.23295589273956863,0.04758866396138514,0.21110836847776404,-0.4987636664054046,0.18033204616414844,-0.35273404925685803,-0.048249283255935804,2.3606131076812744,-1.6546924114227295,0.09331778436899206,0.0,-2.63358610868454,-5.965939164161682,21.180990636348724,0.0,0.0,0.0,0.0,0.0,0.7813435990193233,0.0,0.0,0.11956907324460048,0.0,0.0,0.0,0.0,0.0,0.0
2.8000002384185776,0.12364264577627182,0.3328060805797577,0.5134157538414001,-0.24965025013086853,0.009640519008770193,-0.47231845506253983,0.12364264577627182,0.3328060805797577,-0.27384220999983055,-0.24965025013086853,0.009640519008770193,-0.5893265781199661,0.22512233517360647,-0.3256011577729887,-0.02651820620987877,-0.5283383131027222,8.4937744140625,0.23162600398063557,0.0,5.620584726333618,-5.691064953804016,24.93822431564331,0.0,0.0,0.0,0.0,0.0,0.7872579638412307,0.0,0.0,0.1170081230574263,0.0,0.0,0.0,0.0,0.0,0.0
2.8500002384185774,0.12022621929645538,0.3354087173938751,0.49736544489860535,-0.10443178751386177,-0.03346459904165672,-0.42749774744067714,0.12022621929645538,0.3354087173938751,-0.2956792498785137,-0.10443178751386177,-0.03346459904165672,-0.5419619192635068,0.20210006950372605,-0.03454223232285214,-0.02276808068347913,-0.7501829266548157,-5.62836217880249,0.4004331827163703,0.0,5.999989628791809,5.999441027641296,25.9993297457695,0.0,0.0,0.0,0.0,0.0,0.793044694777119,0.0,0.0,0.11446417182282961,0.0,0.0,0.0,0.0,0.0,0.0
2.9000002384185772,0.11167395859956741,0.33261558413505554,0.47558900713920593,-0.2546540209428801,-0.13672679564209306,-0.18479989546824607,0.11167395859956741,0.33261558413505554,-0.3231157007331513,-0.2546540209428801,-0.13672679564209306,-0.29673971931130017,0.1431204453933348,-0.06631034392886903,-0.007644116202264684,-2.6223769187927246,8.272845268249512,0.40388575196266074,0.0,5.019833207130432,-5.6960989236831665,25.70683777332306,0.0,0.0,0.0,0.0,0.0,0.7987047078723573,0.0,0.0,0.11193982384305408,0.0,0.0,0.0,0.0,0.0,0.0
2.950000238418577,0.10466361045837402,0.3280695080757141,0.46949267387390137,-0.13740001664770912,-0.15120386523133086,-0.1415248243689373,0.10466361045837402,0.3280695080757141,-0.33474636969413374,-0.13740001664770912,-0.15120386523133086,-0.25096227742163024,0.036739373635678696,0.16601033738666837,0.014424687790652868,-1.2933026552200317,-6.633156776428223,-0.2300795167684547,0.0,5.999512195587158,5.999983191490173,25.999647438526154,0.0,0.0,0.0,0.0,0.0,0.8042390435680351,0.0,0.0,0.10943745305269292,0.0,0.0,0.0,0.0,0.0,0.0
3.000000238418577,0.10707472264766693,0.32322877645492554,0.4653559923171997,-0.14210486246052356,-0.12860012539634672,0.10119686862569788,0.10707472264766693,0.32322877645492554,-0.34429286322012054,-0.14210486246052356,-0.12860012539634672,-0.0057623484546495685,-0.04240244104794755,0.09462096774975226,0.010791219594548096,-2.5936174392700195,4.276256084442139,0.06612722575664468,0.0,5.645870089530945,-5.9310901165008545,25.744255781173706,0.0,0.0,0.0,0.0,0.0,0.8096488555373202,0.0,0.0,0.10695921708034745,0.0,0.0,0.0,0.0,0.0,0.0
3.0500002384185767,0.11328952759504318,0.32390889525413513,0.46798983216285706,-0.0051019747852549535,-0.10992081818209135,0.20099041813955398,0.11328952759504318,0.32390889525413513,-0.3469455680431699,-0.0051019747852549535,-0.10992081818209135,0.09648334757781771,-0.14017209308820178,0.2414212986653692,0.033391871532239215,-0.3606168329715729,-5.940011978149414,-0.22412964701652455,0.0,1.878380298614502,-5.224536895751953,25.7990802526474,0.0,0.0,0.0,0.0,0.0,0.814935400206027,0.0,0.0,0.10450707056173628,0.0,0.0,0.0,0.0,0.0,0.0
3.1000002384185765,0.1325499713420868,0.3309457302093506,0.48299530148506165,5.312150856265352e-06,0.0031321038181819083,0.41978274849822406,0.1325499713420868,0.3309457302093506,-0.337104725435841,5.312150856265352e-06,0.0031321038181819083,0.3176999707568837,-0.1602387393264717,0.21851764883548253,0.028924127434592606,0.229757159948349,0.39545324444770813,-0.1478333324193955,0.0,-1.3880051672458649,-5.999333024024963,21.838066816329956,0.0,0.0,0.0,0.0,0.0,0.8201000269209027,0.0,0.0,0.10208277774134035,0.0,0.0,0.0,0.0,0.0,0.0
3.1500002384185763,0.14438404142856598,0.3374357223510742,0.49554529786109924,0.1683696310277467,0.05755739784702196,0.5475907424261601,0.14438404142856598,0.3374357223510742,-0.32959887086985007,0.1683696310277467,0.05755739784702196,0.4479028180282531,-0.14990957445522213,0.20101267953644975,0.021937476067748207,1.110617756843567,-5.745308876037598,-0.05827391147613455,0.0,-3.21026873588562,-5.998908877372742,3.6207195520401,0.0,0.0,0.0,0.0,0.0,0.8251441687309493,0.0,0.0,0.09968792439790704,0.0,0.0,0.0,0.0,0.0,0.0
3.200000238418576,0.1780834048986435,0.3573375344276428,0.5267945528030396,0.30885921997041677,0.18621149697457784,0.346064974798449,0.1780834048986435,0.3573375344276428,-0.30327478094578186,0.30885921997041677,0.18621149697457784,0.2487410456709855,-0.07775865240398439,-0.04445118136879911,0.016163427820881537,1.5381518602371216,-2.2385549545288086,-0.08513686060905429,0.0,-5.279381632804871,-5.999922394752502,2.717988610267639,0.0,0.0,0.0,0.0,0.0,0.8300693337488214,0.0,0.0,0.09732392912746349,0.0,0.0,0.0,0.0,0.0,0.0
3.250000238418576,0.19218961894512177,0.366912305355072,0.5338199734687805,0.32220994346476156,0.2216612676479442,0.11393706192075118,0.19218961894512177,0.366912305355072,-0.3010571235922028,0.32220994346476156,0.2216612676479442,0.018945007904862143,-0.013428998500978118,-0.1521962416659295,0.017640391729431215,2.274383783340454,-4.977569580078125,-0.03529093414544998,0.0,-5.772089838981628,-5.999869108200073,3.382692515850067,0.0,0.0,0.0,0.0,0.0,0.8348770970609833,0.0,0.0,0.09499205401588903,0.0,0.0,0.0,0.0,0.0,0.0
3.300000238418576,0.2171081006526947,0.3858179450035095,0.5298890471458435,0.12011172351591384,0.18105569745753078,-0.3192288211737516,0.2171081006526947,0.3858179450035095,-0.3096800460110286,0.12011172351591384,0.18105569745753078,-0.4119222359053222,0.14129266529498352,-0.36076339250880274,0.0568106842156082,1.025295376777649,-3.301339626312256,0.0189238227903847,0.0,-5.524342775344849,-5.999825477600098,15.304408431053162,0.0,0.0,0.0,0.0,0.0,0.8395690931568721,0.0,0.0,0.09269341473157054,0.0,0.0,0.0,0.0,0.0,0.0
3.3500002384185756,0.22646057605743408,0.3940887153148651,0.5200814008712769,-0.04101467909312667,0.1184045048156609,-0.3790351704006096,0.22646057605743408,0.3940887153148651,-0.32406560797752826,-0.04101467909312667,0.1184045048156609,-0.4694641604678188,0.168263550473557,-0.43955451358296926,0.06683924107990791,-1.5801962614059448,7.056763648986816,0.13971558213233862,0.0,4.468284487724304,-5.962547063827515,25.302829444408417,0.0,0.0,0.0,0.0,0.0,0.8441470088488051,0.0,0.0,0.09042899006720921,0.0,0.0,0.0,0.0,0.0,0.0
3.4000002384185755,0.229437917470932,0.40912479162216187,0.501916229724884,-0.1129581061454998,0.047295234548389534,-0.22742095448525407,0.229437917470932,0.40912479162216187,-0.3466963469309019,-0.1129581061454998,0.047295234548389534,-0.3156205854437154,0.14875092254780986,-0.13114295944121146,0.061570018712966856,0.5961073040962219,-4.954434871673584,0.17195416986942352,0.0,5.999915242195129,5.99540376663208,25.98898845911026,0.0,0.0,0.0,0.0,0.0,0.8486125766557859,0.0,0.0,0.08819963095846137,0.0,0.0,0.0,0.0,0.0,0.0
3.4500002384185753,0.2269614338874817,0.4134726822376251,0.49968281388282776,-0.24670216798889003,-0.010517121208908678,-0.09416793867786863,0.2269614338874817,0.4134726822376251,-0.35328475474288656,-0.24670216798889003,-0.010517121208908678,-0.180174007683637,0.18584978873898317,-0.2428838177977104,0.07362946548329141,-1.625114917755127,10.844764709472656,-0.04891070723533763,0.0,5.594194650650024,-5.979467868804932,24.2943657040596,0.0,0.0,0.0,0.0,0.0,0.8529675686257143,0.0,0.0,0.08600606900576838,0.0,0.0,0.0,0.0,0.0,0.0
3.500000238418575,0.21239019930362701,0.41431617736816406,0.5023877024650574,-0.22009300175881782,-0.09444706060415307,0.03664487218421795,0.21239019930362701,0.41431617736816406,-0.35482608810673555,-0.22009300175881782,-0.09444706060415307,-0.04720405234025401,0.03971298492167197,0.10054355836652684,0.071011281973,-1.5968449115753174,-5.893515586853027,-0.3315058052539818,0.0,6.0,6.0,25.99991863965988,0.0,0.0,0.0,0.0,0.0,0.8572137905717929,0.0,0.0,0.08384892452447196,0.0,0.0,0.0,0.0,0.0,0.0
3.550000238418575,0.20716078579425812,0.41323962807655334,0.5082601308822632,-0.23684760995128504,-0.09547157707467913,0.16371292293280207,0.20716078579425812,0.41323962807655334,-0.35309294581788464,-0.23684760995128504,-0.09547157707467913,0.08198420878569805,-0.01702465554079602,-0.03420036080294331,0.06000494762324138,-1.5012075901031494,9.480979919433594,-0.14324112236499903,0.0,5.472944140434265,-5.995745658874512,21.3237447142601,0.0,0.0,0.0,0.0,0.0,0.8613530767001478,0.0,0.0,0.08172871414710402,0.0,0.0,0.0,0.0,0.0,0.0
3.6000002384185747,0.19535315036773682,0.41176554560661316,0.5326168537139893,-0.12889687751780643,-0.08022230269279422,0.333647538353295,0.19535315036773682,0.41176554560661316,-0.3327704308928541,-0.12889687751780643,-0.08022230269279422,0.25400168035270115,-0.17598487148526054,0.22538348464314018,0.0767585881740036,-1.506982445716858,-4.633443832397461,-0.6405904889106745,0.0,5.999948143959045,5.999986052513123,25.99548488855362,0.0,0.0,0.0,0.0,0.0,0.8653872846068433,0.0,0.0,0.07964585800059387,0.0,0.0,0.0,0.0,0.0,0.0
3.6500002384185746,0.19490663707256317,0.4140596389770508,0.5471944212913513,-0.10218639266740012,-0.03730424021804264,0.45723216856649934,0.19490663707256317,0.4140596389770508,-0.3221238693322316,-0.10218639266740012,-0.03730424021804264,0.3796314820864594,-0.2318622305084812,0.08235487420295051,0.061231056405817164,-1.172372579574585,8.575641632080078,-0.17817397415638075,0.0,-2.4770484566688538,-5.999816536903381,2.7293217182159424,0.0,0.0,0.0,0.0,0.0,0.8693182906235829,0.0,0.0,0.07760068648003994,0.0,0.0,0.0,0.0,0.0,0.0
3.7000002384185744,0.19659344851970673,0.4268939197063446,0.5817365050315857,-0.03632110380508957,0.08650045482265277,0.46785940375174423,0.19659344851970673,0.4268939197063446,-0.29141148046085985,-0.03632110380508957,0.08650045482265277,0.3922659571120956,-0.32204488515394836,0.30047773437855607,0.0735971348004778,-0.6097152829170227,-1.6600356101989746,-0.1427774578332899,0.0,5.961637616157532,5.8496750593185425,19.694259822368622,0.0,0.0,0.0,0.0,0.0,0.8731479854924455,0.0,0.0,0.07559344663964863,0.0,0.0,0.0,0.0,0.0,0.0
3.750000238418574,0.20085182785987854,0.4366564154624939,0.5949475765228271,-0.010898586697767249,0.17569387743382248,0.4825779167591051,0.20085182785987854,0.4366564154624939,-0.28193069382818003,-0.010898586697767249,0.17569387743382248,0.4089536085386562,-0.3453653341876368,0.32785119937107066,0.07646546531851683,-0.8618883490562439,7.087636947631836,-0.04074565693736163,0.0,-4.086627960205078,-5.999966382980347,0.2864620089530945,0.0,0.0,0.0,0.0,0.0,0.8768782703510072,0.0,0.0,0.0736243082204489,0.0,0.0,0.0,0.0,0.0,0.0
3.800000238418574,0.2086840569972992,0.4651992619037628,0.620091438293457,0.19926573087193694,0.37996850780471403,0.4456258017676016,0.2086840569972992,0.4651992619037628,-0.2604196147167015,0.19926573087193694,0.37996850780471403,0.37393243243416135,-0.42599009877080896,0.5671482078389998,0.10950026737813712,-0.7374404072761536,-2.3619871139526367,-0.1861199885606763,0.0,4.212275505065918,-5.766663551330566,0.8907066583633423,0.0,0.0,0.0,0.0,0.0,0.8805110530101585,0.0,0.0,0.07169336933344021,0.0,0.0,0.0,0.0,0.0,0.0
3.850000238418574,0.21295605599880219,0.479142963886261,0.6216981410980225,0.3618027379961143,0.4845079270534624,0.295638354484443,0.21295605599880219,0.479142963886261,-0.262350103409816,0.3618027379961143,0.4845079270534624,0.22583769266851456,-0.4501594225933774,0.4915478805327451,0.11389662147421564,-0.5725759267807007,0.946506679058075,-0.1553599387407304,0.0,-5.786927103996277,-5.9999964237213135,0.025028765201568604,0.0,0.0,0.0,0.0,0.0,0.8840482445078385,0.0,0.0,0.06980066181592842,0.0,0.0,0.0,0.0,0.0,0.0
3.9000002384185737,0.22637523710727692,0.5110634565353394,0.6029613018035889,0.6352233492566799,0.727489768017902,0.04801077137138349,0.22637523710727692,0.5110634565353394,-0.28453045411917766,0.6352233492566799,0.727489768017902,-0.01993538490655722,-0.4848197883776617,0.5059950416407637,0.12052280752188338,-0.09511636942625046,-4.184350967407227,-0.21904896199703167,0.0,-5.937617540359497,-5.999992847442627,0.02857530117034912,0.0,0.0,0.0,0.0,0.0,0.8874917559227665,0.0,0.0,0.0679461562779407,0.0,0.0,0.0,0.0,0.0,0.0
3.9500002384185735,0.23656967282295227,0.529274046421051,0.5826968550682068,0.7518855628107735,0.8610067307898799,-0.20929772283747328,0.23656967282295227,0.529274046421051,-0.30814664036487815,0.7518855628107735,0.8610067307898799,-0.2754274896922618,-0.45729477038743926,0.34288658759946067,0.101113871478141,1.2039551734924316,-2.5087852478027344,-0.22966520488262146,0.0,-5.986730217933655,-5.999997854232788,0.08386701345443726,0.0,0.0,0.0,0.0,0.0,0.8908434954330849,0.0,0.0,0.0661297668547885,0.0,0.0,0.0,0.0,0.0,0.0
4.000000238418574,0.26413580775260925,0.5761153697967529,0.5125700831413269,0.8297424562499245,1.0849766141783672,-0.7757407228121611,0.26413580775260925,0.5761153697967529,-0.38153528246427615,0.8297424562499245,1.0849766141783672,-0.8400920784932254,-0.35167645581248763,0.19232188774278924,0.062142659195322025,2.3208038806915283,-5.617271423339844,-0.17122988402843406,0.0,-5.992027044296265,-5.999991416931152,0.7201319932937622,0.0,0.0,0.0,0.0,0.0,0.894105365605603,0.0,0.0,0.06435135568106427,0.0,0.0,0.0,0.0,0.0,0.0
4.050000238418574,0.27825769782066345,0.599193811416626,0.47078514099121094,0.635367595516824,1.0816887802122008,-1.2191846555541157,0.27825769782066345,0.599193811416626,-0.42649411991086983,0.635367595516824,1.0816887802122008,-1.281795392654726,-0.243538772193582,-0.016010996313083226,0.045842004973629,2.919070243835449,-2.245779275894165,-0.1628900766372678,0.0,-5.972111821174622,-5.999969244003296,24.240357160568237,0.0,0.0,0.0,0.0,0.0,0.8972792609020808,0.0,0.0,0.06261073710061041,0.0,0.0,0.0,0.0,0.0,0.0
4.100000238418573,0.30399778485298157,0.6484788060188293,0.37520667910575867,0.5485359033357143,0.986720101577759,-1.3863573481647207,0.30399778485298157,0.6484788060188293,-0.5251603862839418,0.5485359033357143,0.986720101577759,-1.4472650297910077,-0.11591865933642787,-0.008782966304734074,0.04299546140721766,0.18254773318767548,-8.01598834991455,-0.3212990164756765,0.0,-5.9733123779296875,-5.999990344047546,25.98973774909973,0.0,0.0,0.0,0.0,0.0,0.9003670653897005,0.0,0.0,0.06090768162628712,0.0,0.0,0.0,0.0,0.0,0.0
4.150000238418573,0.3203924298286438,0.6817099452018738,0.3194514513015747,0.1978429762460519,1.0109721455300573,-1.3590411419454507,0.3203924298286438,0.6817099452018738,-0.5839191993419717,0.1978429762460519,1.0109721455300573,-1.4182830616081383,-0.09274905700969249,-0.2545657068172651,0.035030691152390325,1.4756699800491333,-1.8807910680770874,-0.14950971305370309,0.0,-5.904260516166687,-5.999590873718262,25.999941885471344,0.0,0.0,0.0,0.0,0.0,0.9033706506435464,0.0,0.0,0.059241919662687686,0.0,0.0,0.0,0.0,0.0,0.0
4.200000238418573,0.3342323899269104,0.7390168309211731,0.23843233287334442,0.13891152608538487,0.9166833151769743,-1.1998778526603504,0.3342323899269104,0.7390168309211731,-0.667859540956212,0.13891152608538487,0.9166833151769743,-1.257490997664653,-0.007748718617701655,-0.11644531951989912,0.04911335081086676,1.1633195877075195,-5.010019302368164,-0.1680927574634546,0.0,-5.054503440856934,-5.999949216842651,25.998643219470978,0.0,0.0,0.0,0.0,0.0,0.9062918738295564,0.0,0.0,0.057613145004302785,0.0,0.0,0.0,0.0,0.0,0.0
4.250000238418573,0.3387626111507416,0.7680745720863342,0.2029869109392166,-0.13021646612345672,0.8557714312041924,-1.118697287813669,0.3387626111507416,0.7680745720863342,-0.7061456650177994,-0.13021646612345672,0.8557714312041924,-1.1747183059346893,0.04735465769357727,-0.3183762415530569,0.05251982439020342,1.493247151374817,1.5921392440795898,-0.24827535450458546,0.0,-3.6480542421340942,-5.999769687652588,25.999145328998566,0.0,0.0,0.0,0.0,0.0,0.909132575957016,0.0,0.0,0.056021018121020234,0.0,0.0,0.0,0.0,0.0,0.0
4.300000238418573,0.33338266611099243,0.8230444192886353,0.13927142322063446,-0.1771040777732868,0.7168383026914005,-0.987175712901569,0.33338266611099243,0.8230444192886353,-0.7726231570696135,-0.1771040777732868,0.7168383026914005,-1.0416408821438279,0.1087318666448378,-0.10777012715694534,0.05797401624245069,0.4792039394378662,-5.514471054077148,0.06491716206073829,0.0,5.999201059341431,-5.994313716888428,25.996110200881958,0.0,0.0,0.0,0.0,0.0,0.911894580290248,0.0,0.0,0.054465169242258867,0.0,0.0,0.0,0.0,0.0,0.0
4.3500002384185725,0.3279651403427124,0.8481327891349792,0.11220305413007736,-0.3076578306033355,0.6656604420984132,-0.8349472411978239,0.3279651403427124,0.8481327891349792,-0.8023766367796218,-0.3076578306033355,0.6656604420984132,-0.8878924424483008,0.13131695477021932,-0.24502711921096276,0.06353587365958724,0.41421830654144287,4.055233001708984,0.07474062591791103,0.0,5.997325301170349,-5.996617555618286,25.99703073501587,0.0,0.0,0.0,0.0,0.0,0.9145796909096992,0.0,0.0,0.05294520125047681,0.0,0.0,0.0,0.0,0.0,0.0
4.400000238418572,0.30432865023612976,0.8976449966430664,0.06268181651830673,-0.16643987582554629,0.5666073157729908,-0.674012079511539,0.30432865023612976,0.8976449966430664,-0.854507874894844,-0.16643987582554629,0.5666073157729908,-0.7254727719058002,0.11461959654401666,0.10256401432350515,0.06391819021498968,-0.15968835353851318,-6.343138694763184,-0.43983623385429305,0.0,5.999997854232788,-3.3930662870407104,25.998035728931427,0.0,0.0,0.0,0.0,0.0,0.9171896914131508,0.0,0.0,0.05146069239426125,0.0,0.0,0.0,0.0,0.0,0.0
4.450000238418572,0.29555052518844604,0.9167332649230957,0.04614640772342682,-0.23483792954031943,0.5110850793888445,-0.5080576509635105,0.29555052518844604,0.9167332649230957,-0.8735799360248495,-0.23483792954031943,0.5110850793888445,-0.5580688497942101,0.11305052753063949,-0.06514866481818826,0.050870942120051055,-2.588156223297119,5.834648132324219,1.8384345769882195,0.0,5.998869180679321,-5.991991996765137,25.99646508693695,0.0,0.0,0.0,0.0,0.0,0.9197263437482763,0.0,0.0,0.050011198830699655,0.0,0.0,0.0,0.0,0.0,0.0
4.500000238418572,0.28176289796829224,0.9400907158851624,0.03389798477292061,-0.03944760881683052,0.20854791461988348,0.08202444373976119,0.28176289796829224,0.9400907158851624,-0.8882934023953216,-0.03944760881683052,0.20854791461988348,0.03342818673351165,-0.030770768648478608,0.08762995238684912,0.09439774837754555,0.010699134320020676,-6.623857021331787,-0.7589308023452751,0.0,5.9999696016311646,5.999849081039429,25.998712956905365,0.0,0.0,0.0,0.0,0.0,0.9221913871682422,0.0,0.0,0.04859625700624953,0.0,0.0,0.0,0.0,0.0,0.0
4.550000238418572,0.27919092774391174,0.9456227421760559,0.03944586589932442,-0.05803840382353663,0.14818296028483283,0.2605204194219655,0.27919092774391174,0.9456227421760559,-0.8851406714031738,-0.05803840382353663,0.14818296028483283,0.2133050335371033,0.0013861337682428143,-0.0523544428217102,0.08093426606382437,-0.08402974903583527,7.535373687744141,0.06696252524852661,0.0,5.995006084442139,-5.9781306982040405,25.137566447257996,0.0,0.0,0.0,0.0,0.0,0.9245865373024982,0.0,0.0,0.04721538588486221,0.0,0.0,0.0,0.0,0.0,0.0
4.600000238418572,0.25942230224609375,0.9740194082260132,0.05769624933600426,-0.004505254066425678,0.15973964381733213,0.4741237522068436,0.25942230224609375,0.9740194082260132,-0.8692172359993255,-0.004505254066425678,0.15973964381733213,0.42825566317516406,-0.014369657956505577,0.035754396905033126,0.0833078708378574,1.1394715309143066,-0.1753300279378891,-0.1125008016824722,0.0,5.999975681304932,5.95268189907074,25.982072830200195,0.0,0.0,0.0,0.0,0.0,0.9269134853353298,0.0,0.0,0.04586808903167954,0.0,0.0,0.0,0.0,0.0,0.0
4.6500002384185715,0.2473309189081192,0.9924830198287964,0.06912532448768616,-0.09807051948541456,0.1865257676606467,0.5791425476869504,0.2473309189081192,0.9924830198287964,-0.8600485727974634,-0.09807051948541456,0.1865257676606467,0.5345886911267471,0.02127705084964182,0.03281146899508691,0.07921429928222246,-0.7522567510604858,5.534859657287598,-0.11738809943199226,0.0,5.642646074295044,-5.999082326889038,6.642158597707748,0.0,0.0,0.0,0.0,0.0,0.9291738972851495,0.0,0.0,0.04455385656020332,0.0,0.0,0.0,0.0,0.0,0.0
4.700000238418571,0.22665837407112122,1.0264984369277954,0.0979502871632576,-0.08004326222304989,0.16945474464744328,0.5134271226368393,0.22665837407112122,1.0264984369277954,-0.8334191262146341,-0.08004326222304989,0.16945474464744328,0.4701549556863987,-0.0393692129616694,0.23064510422422124,0.08553133588229933,-0.6930699944496155,3.129800796508789,-0.0740516111254696,0.0,5.976351499557495,-4.522530555725098,17.207060664892197,0.0,0.0,0.0,0.0,0.0,0.9313694133778917,0.0,0.0,0.04327216695044064,0.0,0.0,0.0,0.0,0.0,0.0
4.750000238418571,0.21948906779289246,1.0430285930633545,0.11012320220470428,-0.12245649979009839,0.18846095452600098,0.4931818355768518,0.21948906779289246,1.0430285930633545,-0.8233784453035323,-0.12245649979009839,0.18846095452600098,0.4511593468317018,-0.07139351062595445,0.38641731960259973,0.09077636394522237,1.0877084732055664,-0.9624722003936768,0.11671024560928356,0.0,5.600837230682373,-5.990749955177307,3.415882885456085,0.0,0.0,0.0,0.0,0.0,0.9335016475082366,0.0,0.0,0.04202248874515,0.0,0.0,0.0,0.0,0.0,0.0
4.800000238418571,0.2192484736442566,1.0811892747879028,0.13440845906734467,0.21818758332008442,0.2584681602781146,0.37087709842493644,0.2192484736442566,1.0811892747879028,-0.8011637277153978,0.21818758332008442,0.2584681602781146,0.33007281629398477,0.012828607191568864,0.31048489566277704,0.06450031733614559,1.6914567947387695,-0.3202090859413147,0.1453088074922562,0.0,5.468743443489075,-5.999893069267273,1.5940396785736084,0.0,0.0,0.0,0.0,0.0,0.9355721867827425,0.0,0.0,0.040804282130951657,0.0,0.0,0.0,0.0,0.0,0.0
4.850000238418571,0.22284381091594696,1.0975981950759888,0.13854138553142548,0.2838528162402089,0.263658062254058,0.18495704746335,0.22284381091594696,1.0975981950759888,-0.7990412056078627,0.2838528162402089,0.263658062254058,0.145340047052626,0.08266848759155243,0.295292042733184,0.04967751286475952,2.121981620788574,4.2065911293029785,0.07038848847150751,0.0,4.238993883132935,-5.999884128570557,2.8055447340011597,0.0,0.0,0.0,0.0,0.0,0.9375825911392882,0.0,0.0,0.03961700041072402,0.0,0.0,0.0,0.0,0.0,0.0
4.900000238418571,0.23357786238193512,1.1281278133392334,0.12906329333782196,0.5028229883638761,0.18583076020668032,-0.12213062002053315,0.23357786238193512,1.1281278133392334,-0.8104710996997243,0.5028229883638761,0.18583076020668032,-0.16059071139391337,0.22333047953167817,0.48337176767101653,-0.0032448532922977336,0.7887178063392639,-1.2198669910430908,0.0118457823991777,0.0,5.513538122177124,-5.859990477561951,13.81254281103611,0.0,0.0,0.0,0.0,0.0,0.9395343930375463,0.0,0.0,0.03846009137338021,0.0,0.0,0.0,0.0,0.0,0.0
4.95000023841857,0.2425943911075592,1.141283631324768,0.11534202843904495,0.6337560164945705,0.08422970456664558,-0.20089110670841187,0.2425943911075592,1.141283631324768,-0.8260870687764548,0.6337560164945705,0.08422970456664558,-0.2382241052752206,0.23998992473491176,0.45830762346459775,-0.01068493647638924,-5.566096782684326,4.770553112030029,0.21748514473438205,0.0,3.720425248146057,-5.996044278144836,25.205107152462006,0.0,0.0,0.0,0.0,0.0,0.9414290972154997,0.0,0.0,0.03733299856680873,0.0,0.0,0.0,0.0,0.0,0.0
5.00000023841857,0.27117204666137695,1.1581915616989136,0.0839003324508667,1.0023800453078302,0.040139748754749835,0.0031625630582864384,0.27117204666137695,1.1581915616989136,-0.8593678480564333,1.0023800453078302,0.040139748754749835,-0.033072599421179974,-0.09351419131052374,0.48018938200667094,0.1596741184329984,-1.1236799955368042,-7.704809665679932,-0.43012854456901456,0.0,5.963687539100647,5.518855333328247,25.77621954679489,0.0,0.0,0.0,0.0,0.0,0.9432681805073,0.0,0.0,0.03623516247946641,0.0,0.0,0.0,0.0,0.0,0.0
5.05000023841857,0.29094934463500977,1.1649589538574219,0.07281628251075745,1.0036241963135866,0.09117016857134363,-0.14547137497297602,0.29094934463500977,1.1649589538574219,-0.8722368092072732,1.0036241963135866,0.09117016857134363,-0.18063739660880568,-0.11817377337183377,0.2094492835830719,0.1533492058429422,-1.7198158502578735,7.2669572830200195,-0.4050023853778848,0.0,1.3057982325553894,-5.999457478523254,25.675329625606537,0.0,0.0,0.0,0.0,0.0,0.9450530917180306,0.0,0.0,0.03516602163582967,0.0,0.0,0.0,0.0,0.0,0.0
5.10000023841857,0.33996954560279846,1.1830987930297852,0.05960267409682274,1.231021425510852,0.17972488073720527,0.23201045782224683,0.33996954560279846,1.1830987930297852,-0.8871825774543697,1.231021425510852,0.17972488073720527,0.19788544421160348,-0.2598725975461402,0.29605177673537586,0.17611831440417536,-1.153634786605835,-7.731281280517578,-0.3887322545051565,0.0,5.855436086654663,5.814228773117065,25.76612079143524,0.0,0.0,0.0,0.0,0.0,0.9467852515511924,0.0,0.0,0.03412501361064335,0.0,0.0,0.0,0.0,0.0,0.0
5.15000023841857,0.371352881193161,1.1964927911758423,0.05566927045583725,1.242660316326349,0.2751944634826462,0.025016170193866233,0.371352881193161,1.1964927911758423,-0.8927967821291323,1.242660316326349,0.2751944634826462,-0.00809540577278415,-0.26940781441420203,0.029473469738621638,0.16220376803560654,-1.1527996063232422,7.265173435211182,0.01570849493145854,0.0,0.7729932367801666,-5.9994882345199585,23.638741612434387,0.0,0.0,0.0,0.0,0.0,0.9484660525849695,0.0,0.0,0.03311157596665038,0.0,0.0,0.0,0.0,0.0,0.0
5.2000002384185695,0.4437045454978943,1.2393779754638672,0.057921748608350754,1.3425023792103368,0.4644796839967465,0.47395474207258087,0.4437045454978943,1.2393779754638672,-0.8921751106852114,1.3425023792103368,0.4644796839967465,0.44182959495233703,-0.34849312953080336,0.1306869028470965,0.16328884606061322,1.0511835813522339,-5.606706619262695,-0.6154253482818597,0.0,5.908255219459534,5.971218824386597,25.83596283197403,0.0,0.0,0.0,0.0,0.0,0.9500968592935621,0.0,0.0,0.03212514712024385,0.0,0.0,0.0,0.0,0.0,0.0
5.250000238418569,0.47899216413497925,1.2651448249816895,0.06256750971078873,1.3247228241750548,0.6101564213179265,0.32294426288962763,0.47899216413497925,1.2651448249816895,-0.8891114983992995,1.3247228241750548,0.6101564213179265,0.2917790957503756,-0.28220418007803083,-0.0498844473052511,0.1368445286291493,0.493384450674057,7.958939552307129,-0.8025887608528147,0.0,1.3405340909957886,-5.999351620674133,7.1024035811424255,0.0,0.0,0.0,0.0,0.0,0.9516790081100882,0.0,0.0,0.03116516713925205,0.0,0.0,0.0,0.0,0.0,0.0
5.300000238418569,0.5469107031822205,1.3255516290664673,0.07602452486753464,1.2284698673900742,0.8290899704763662,0.6201186931761298,0.5469107031822205,1.3255516290664673,-0.8771892826602259,1.2284698673900742,0.8290899704763662,0.5898876146992816,-0.2926008341862989,0.2091919763031096,0.09658764206748582,0.37964752316474915,0.27699548006057734,-0.44320547580719,0.0,5.911129474639893,5.954550504684448,23.08592289686203,0.0,0.0,0.0,0.0,0.0,0.9532138075277605,0.0,0.0,0.030231078476848125,0.0,0.0,0.0,0.0,0.0,0.0
5.350000238418569,0.5832897424697876,1.3589484691619873,0.07955129444599152,1.1913617555438796,0.9365532356977944,0.6962108822742492,0.5832897424697876,1.3589484691619873,-0.8751512437902509,1.1913617555438796,0.9365532356977944,0.6668885556288828,-0.2823824288279262,0.2601009892853119,0.07704600839812414,-0.4606891870498657,6.766942024230957,-0.1351610124111184,0.0,5.534230828285217,-5.954561233520508,0.7135162353515625,0.0,0.0,0.0,0.0,0.0,0.9547025382362424,0.0,0.0,0.029322326645366364,0.0,0.0,0.0,0.0,0.0,0.0
5.400000238418569,0.6615406274795532,1.4371408224105835,0.09002277255058289,1.28903040414114,1.1059645669226656,0.8905282432961802,0.6615406274795532,1.4371408224105835,-0.8661236807396838,1.28903040414114,1.1059645669226656,0.8620898824625703,-0.31676104111389236,0.4356888703732271,0.07593346632136111,-0.0026098245289176702,0.12770976126193997,-0.33657750487327576,0.0,5.993233680725098,4.3423261642456055,1.1176485419273376,0.0,0.0,0.0,0.0,0.0,0.9561464532902667,0.0,0.0,0.028438360833609844,0.0,0.0,0.0,0.0,0.0,0.0
5.450000238418569,0.6960484385490417,1.4724270105361938,0.08769706636667252,1.3528766039712454,1.2060909150814896,0.7600769583663904,0.6960484385490417,1.4724270105361938,-0.869849711941106,1.3528766039712454,1.2060909150814896,0.7324983238953457,-0.3172005020319393,0.4551140915119758,0.06350882699548599,-0.2925437092781067,3.4986631870269775,-0.24441100656986278,0.0,5.568001985549927,-5.985194206237793,0.009111583232879639,0.0,0.0,0.0,0.0,0.0,0.9575467783077786,0.0,0.0,0.027578634471044715,0.0,0.0,0.0,0.0,0.0,0.0
5.500000238418568,0.7707057595252991,1.546299934387207,0.061906203627586365,1.520674385687672,1.3906567442510718,0.6547224949239254,0.7707057595252991,1.546299934387207,-0.8969985080674409,1.520674385687672,1.3906567442510718,0.6279798891818282,-0.34033926598582553,0.5810139212214747,0.058382582916957304,-1.543143630027771,3.1497743129730225,-0.25474292039871255,0.0,5.796619534492493,-4.555320739746094,0.028346717357635498,0.0,0.0,0.0,0.0,0.0,0.9589047116950272,0.0,0.0,0.026742605742097223,0.0,0.0,0.0,0.0,0.0,0.0
5.550000238418568,0.7937441468238831,1.5638617277145386,0.06947613507509232,0.23637426405715006,0.15214876069753322,0.9812704097948878,0.7937441468238831,1.5638617277145386,-0.8907452898210975,0.23637426405715006,0.15214876069753322,0.9553406717412886,-0.4400674312944819,0.7307630699084804,0.10231512550440236,0.2798193395137787,2.508998394012451,-0.17853787541389496,0.0,5.578390717506409,1.1532028913497925,0.03420156240463257,0.0,0.0,0.0,0.0,0.0,0.9602214248961898,0.0,0.0,0.025929738053599247,0.0,0.0,0.0,0.0,0.0,0.0
5.600000238418568,0.8393857479095459,1.5886709690093994,0.08680093288421631,0.6246339232533709,0.43266923953330355,0.7626510263803467,0.8393857479095459,1.5886709690093994,-0.8746971297810388,0.6246339232533709,0.43266923953330355,0.7375115259220811,-0.4374150075934642,0.8243864570643349,0.09062886662341896,0.3762145936489105,1.9092463254928589,-0.061680626124143836,0.0,5.9957345724105835,-5.807860493659973,0.244858980178833,0.0,0.0,0.0,0.0,0.0,0.9614980626652551,0.0,0.0,0.025139500458265487,0.0,0.0,0.0,0.0,0.0,0.0
5.650000238418568,0.8629868626594543,1.6002671718597412,0.08374481648206711,0.3529652103316175,0.14905611136030414,0.8392602545491229,0.8629868626594543,1.6002671718597412,-0.8789909268759736,0.3529652103316175,0.14905611136030414,0.814888886512191,-0.42169533608137044,0.9027601459833781,0.07719223778018769,-0.46762728691101074,2.041131019592285,1.1622498035430906,0.0,5.966825723648071,-5.747978925704956,0.15615451335906982,0.0,0.0,0.0,0.0,0.0,0.9627357433580407,0.0,0.0,0.02437136803693189,0.0,0.0,0.0,0.0,0.0,0.0
