time,pos_x,pos_y,pos_z,vel_x,vel_y,vel_z,pos_xo,pos_yo,pos_zo,vel_xo,vel_yo,vel_zo,roll,pitch,yaw,roll_vel,pitch_vel,yaw_vel,thrust_z,force_x,force_y,force_z,torque_x,torque_y,torque_z,pos_xd,pos_yd,pos_zd,vel_xd,vel_yd,vel_zd,roll_d,pitch_d,yaw_d,roll_vel_d,pitch_vel_d,yaw_vel_d,pos_xr,pos_yr,pos_zr,vel_xr,vel_yr,vel_zr
0.050003576278686526,-0.01634899526834488,-0.05193886533379555,0.18275143206119537,-0.004697642228915936,-0.0002677302762965061,0.0025075687076136334,-0.01634899526834488,-0.05193886533379555,0.18275143206119537,-0.004697642228915936,-0.0002677302762965061,0.0025075687068642338,0.05940425642363767,0.01498038867955298,0.030797585535813354,-0.0034877301659435034,-0.0006194460438564424,-0.003281302284449339,0.0,1.4893177701117409e-13,-6.41452051941051e-15,12.949199999997331,0.0,0.0,0.0,0.0,0.0,8.93354462516127e-19,0.0,0.0,7.493998716058342e-13,0.0,0.0,0.0,0.0,0.0,0.0,0.0,0.0,0.0,0.0,0.0,0.0
0.10000357627868653,-0.016304224729537964,-0.05186408758163452,0.18291787803173065,-0.004847833351423477,-0.001096739582225047,0.003600910504379136,-0.016304224729537964,-0.05186408758163452,0.18291545893906597,-0.004847833351423477,-0.001096739582225047,0.003456230897805956,0.05670894417981298,0.01864864926443799,0.029251042905899638,-0.0075600226409733295,-0.0013160799862816954,-0.01989072747528553,0.0,-1.1484147545844374,-0.1643233832951515,16.841641586129374,0.0,0.0,0.0,0.0,0.0,2.419092664686486e-06,0.0,0.0,0.0001446796065731796,0.0,0.0,0.0,0.0,0.0,0.0,0.0,0.0,2.418575286865234e-06,0.0,0.0,0.0001446590423583
0.15000357627868655,-0.016432030126452446,-0.05185963585972786,0.18526385724544525,-0.00025872485468461675,-0.003388835886869203,0.11776762080831638,-0.016432030126452446,-0.05185963585972786,0.1852446883318396,-0.00025872485468461675,-0.003388835886869203,0.11719619984138237,0.05801799332224489,0.004329287882396837,0.02641637850495826,0.07506682723760605,-0.126959428191185,0.017171591520309462,0.0,-2.151532551045504,-0.41671214408767465,20.715085334394818,0.0,0.0,0.0,0.0,0.0,1.916891360565771e-05,0.0,0.0,0.0005714209669340092,0.0,0.0,0.0,0.0,0.0,0.0,0.0,0.0,1.9166870117187512e-05,0.0,0.0,0.0005713806152343
0.20000357627868653,-0.016185550019145012,-0.05101356655359268,0.19887082278728485,0.034309120006934486,0.04540755292591677,0.42388940073105197,-0.016185550019145012,-0.05101356655359268,0.19880674031705592,0.034309120006934486,0.04540755292591677,0.42261995697387017,0.07521767792818057,0.004556384865606944,0.03145800058142889,0.10646205395460129,-0.2005765438079834,-0.00845418125391004,0.0,-0.03683127523354246,0.1386007641550382,11.966102953441712,0.0,0.0,0.0,0.0,0.0,6.408247022892439e-05,0.0,0.0,0.0012694437571817753,0.0,0.0,0.0,0.0,0.0,0.0,0.0,0.0,6.407793045043952e-05,0.0,0.0,0.0012693843841552
0.2500035762786865,-0.013726325705647469,-0.05008435994386673,0.2188359647989273,0.08018943781257291,0.03863675933197738,0.40437324581586576,-0.013726325705647469,-0.05008435994386673,0.21868550761199176,0.08018943781257291,0.03863675933197738,0.4021451408340978,0.07521989121961647,-0.0013682570830031437,0.030419092190129504,0.07057473063468933,0.19207395613193512,-0.043386761099100134,0.0,0.7535464739637707,0.1676980797974168,7.3148987856056875,0.0,0.0,0.0,0.0,0.0,0.0001504571869355297,0.0,0.0,0.002228104981767927,0.0,0.0,0.0,0.0,0.0,0.0,0.0,0.0,0.00015044921875,0.0,0.0,0.00222802734375
0.3000035762786865,-0.007980049587786198,-0.04838564991950989,0.23105987906455994,0.11382788161583766,0.049805166573302515,0.2424623823906865,-0.007980049587786198,-0.04838564991950989,0.23076881729298332,0.11382788161583766,0.049805166573302515,0.239025483416441,0.07295993310880267,0.019171375041156846,0.024670396189758748,-0.023482540622353554,0.5079628229141235,-0.05881677940487868,0.0,0.44524039944364696,0.1937260829995295,7.80256756311068,0.0,0.0,0.0,0.0,0.0,0.0002910617715766283,0.0,0.0,0.0034368989742454745,0.0,0.0,0.0,0.0,0.0,0.0,0.0,0.0,0.0002910494804382,0.0,0.0,0.003436803817749
0.3500035762786865,-0.000311315554426983,-0.04605621099472046,0.23097796738147736,0.13743668485765065,0.06397560901894037,-0.061946803558998384,-0.000311315554426983,-0.04605621099472046,0.2304798242995688,0.13743668485765065,0.06397560901894037,-0.06683226095626738,0.07389582089180058,0.04968190140457818,0.023388448924298366,-0.12718303501605988,0.532660961151123,-0.017437305301427907,0.0,-0.21122908489195058,-0.005426890271303164,10.233009461299607,0.0,0.0,0.0,0.0,0.0,0.0004981430819085646,0.0,0.0,0.004885457397268994,0.0,0.0,0.0,0.0,0.0,0.0,0.0,0.0,0.0004981256103515,0.0,0.0,0.0048853454589843
0.4000035762786865,0.00643065245822072,-0.043832454830408096,0.22122235596179962,0.13162188449352538,0.06551716223157511,-0.17717118767558396,0.00643065245822072,-0.043832454830408096,0.22043892296975168,0.13162188449352538,0.06551716223157511,-0.18373473691817857,0.06764555364265101,0.06344423251212028,0.022924737652131988,-0.11371317505836487,0.1142759770154953,-0.03657568618655206,0.0,-1.0079782020857209,-0.23028398971973613,13.720858681950043,0.0,0.0,0.0,0.0,0.0,0.0007834329920479508,0.0,0.0,0.00656354924259462,0.0,0.0,0.0,0.0,0.0,0.0,0.0,0.0,0.0007834095191955,0.0,0.0,0.0065634212493896
0.4500035762786865,0.011863521300256252,-0.04225663095712662,0.2081131786108017,0.1259855330363215,0.059007552007338475,-0.20967187411111898,0.011863521300256252,-0.04225663095712662,0.20695502335187496,0.1259855330363215,0.059007552007338475,-0.21813295494219903,0.06463814392875111,0.047075038870966424,0.02247778832023073,0.08543030172586441,-0.4228971004486084,-0.011830742470920034,0.0,-0.8151754236008304,-0.1251545755453793,13.46374549776268,0.0,0.0,0.0,0.0,0.0,0.0011581552589267448,0.0,0.0,0.008461080831080051,0.0,0.0,0.0,0.0,0.0,0.0,0.0,0.0,0.001158125,0.0,0.0,0.0084609375
0.5000035762786865,0.018087182193994522,-0.0408831350505352,0.1951618641614914,0.14551518624709187,0.0609286272194097,-0.20546184484404204,0.018087182193994522,-0.0408831350505352,0.19352883177274408,0.14551518624709187,0.0609286272194097,-0.2160299406567266,0.06964598409366074,0.03082485201810581,0.022548613956116625,0.09201933443546295,-0.42614322900772095,-0.009484462440013833,0.0,-0.8146484746542242,-0.1349439582542282,13.72925502868236,0.0,0.0,0.0,0.0,0.0,0.0016330323887473284,0.0,0.0,0.010568095812684553,0.0,0.0,0.0,0.0,0.0,0.0,0.0,0.0,0.0016329945945739,0.0,0.0,0.0105679378509521
0.5500035762786866,0.02581721916794777,-0.03856121376156807,0.18368731439113617,0.1652854907122767,0.08376242042312519,-0.1543314830686981,0.02581721916794777,-0.03856121376156807,0.1814690218876986,0.1652854907122767,0.08376242042312519,-0.16720625823516705,0.07758121688898267,0.009623561149760818,0.024327402378897744,-0.4349059462547302,-0.4821528494358063,-0.07682850211858744,0.0,-1.0778925374760793,-0.20223825415579463,14.407546132789228,0.0,0.0,0.0,0.0,0.0,0.0022182925034375865,0.0,0.0,0.01287477516646895,0.0,0.0,0.0,0.0,0.0,0.0,0.0,0.0,0.0022182464599609,0.0,0.0,0.0128746032714843
0.6000035762786866,0.03577197715640068,-0.034731779247522354,0.18577906489372253,0.20741405361857926,0.07296186133150735,0.12071861659486595,0.03577197715640068,-0.034731779247522354,0.18285538868661655,0.20741405361857926,0.07296186133150735,0.10534717939427032,0.05923791848139981,0.016948699067526274,0.019144177101314774,0.14242655038833618,0.2745344340801239,0.04864224418997761,0.0,-0.971039555370159,-0.2213829593326809,13.38736517185833,0.0,0.0,0.0,0.0,0.0,0.002923676207105984,0.0,0.0,0.015371437200595623,0.0,0.0,0.0,0.0,0.0,0.0,0.0,0.0,0.0029236212348938,0.0,0.0,0.0153712520599365
0.6500035762786867,0.04249098524451256,-0.033265408128499985,0.19264070689678192,0.16337458959214407,0.06037409080292668,0.18899345087054173,0.04249098524451256,-0.033265408128499985,0.18888226344428527,0.16337458959214407,0.06037409080292668,0.1709449133182132,0.06715085685474653,0.01434968411698545,0.01579517820993548,0.15801088511943817,-0.3154088258743286,-0.04297893866896625,0.0,-0.9943511232116837,-0.1703230724317988,11.981433628182646,0.0,0.0,0.0,0.0,0.0,0.0037584434524966424,0.0,0.0,0.018048537552328523,0.0,0.0,0.0,0.0,0.0,0.0,0.0,0.0,0.00375837890625,0.0,0.0,0.01804833984375
0.7000035762786867,0.04899013042449951,-0.03120408020913601,0.1982155442237854,0.1656488162646919,0.06696921109541092,0.15759515999467227,0.04899013042449951,-0.03120408020913601,0.19348416381634098,0.1656488162646919,0.06696921109541092,0.1366984908066391,0.07713489605680568,-4.128661452673654e-05,0.01712471233425461,0.13238511979579926,-0.36545494198799133,-0.03596284985542293,0.0,-0.8688763656532335,-0.14784075721534762,11.765915807544493,0.0,0.0,0.0,0.0,0.0,0.004731380407444421,0.0,0.0,0.020896669188033165,0.0,0.0,0.0,0.0,0.0,0.0,0.0,0.0,0.0047313056755066,0.0,0.0,0.0208964595794678
0.7500035762786867,0.059055227786302567,-0.02796228788793087,0.20232288539409637,0.18439460889015116,0.06780182838454,0.05933289810671186,0.059055227786302567,-0.02796228788793087,0.19647207907276637,0.18439460889015116,0.06780182838454,0.03542633570353523,0.08687819323290125,-0.020947590155713236,0.017440891509667544,0.19888193905353546,-0.2888964116573334,-0.007334418594837153,0.0,-0.9668460230980622,-0.18840206922707195,12.082045702891529,0.0,0.0,0.0,0.0,0.0,0.005850806321329996,0.0,0.0,0.023906562403176623,0.0,0.0,0.0,0.0,0.0,0.0,0.0,0.0,0.0058507208251953,0.0,0.0,0.0239063415527344
0.8000035762786868,0.0676555261015892,-0.02566508762538433,0.2017434537410736,0.19029706482831402,0.0670078807514783,0.0022853625579544457,0.0676555261015892,-0.02566508762538433,0.19461887334953867,0.19029706482831402,0.0670078807514783,-0.024783722264373084,0.09064646330132708,-0.03726895539077546,0.016561392820431564,0.13222461938858032,-0.2693490982055664,-0.02850556373596188,0.0,-1.1576866249707463,-0.2140053120351969,12.655787082836218,0.0,0.0,0.0,0.0,0.0,0.007124580391534932,0.0,0.0,0.02706908482232753,0.0,0.0,0.0,0.0,0.0,0.0,0.0,0.0,0.0071244835853576,0.0,0.0,0.0270688533782959
0.8500035762786868,0.0763973593711853,-0.022960538044571877,0.1993144452571869,0.19344719839056537,0.07490924947234462,-0.04811170849196716,0.0763973593711853,-0.022960538044571877,0.19075433662729013,0.19344719839056537,0.07490924947234462,-0.07848694989112324,0.09334569908174961,-0.054104453691953935,0.014048091404227137,0.006477048620581627,-0.21802565455436707,-0.005250724963843796,0.0,-1.2415781530881644,-0.22180890485799787,12.91311626692005,0.0,0.0,0.0,0.0,0.0,0.008560108629896767,0.0,0.0,0.030375241399156084,0.0,0.0,0.0,0.0,0.0,0.0,0.0,0.0,0.00856,0.0,0.0,0.030375
0.9000035762786869,0.08527582883834839,-0.020188020542263985,0.19569317996501923,0.19155965950650766,0.075408933575507,-0.059897559952864284,0.08527582883834839,-0.020188020542263985,0.18552882923585515,0.19155965950650766,0.075408933575507,-0.09371373436929833,0.09682920336831202,-0.06601326796959572,0.013741519274192981,-0.002630753442645073,-0.18766504526138306,-0.012846654281020142,0.0,-1.264040467432852,-0.24858114214076793,12.962479079944217,0.0,0.0,0.0,0.0,0.0,0.010164350729164088,0.0,0.0,0.033816174416434044,0.0,0.0,0.0,0.0,0.0,0.0,0.0,0.0,0.0101642297935486,0.0,0.0,0.0338159236907959
0.9500035762786869,0.09440278261899948,-0.016733979806303978,0.19154098629951477,0.19754274734191551,0.0842302316241232,-0.07584949328423367,0.09440278261899948,-0.016733979806303978,0.17959715937006315,0.19754274734191551,0.0842302316241232,-0.11323265677026842,0.08847628139934605,-0.060540041740184236,0.01930389383210418,-0.27504369616508484,0.19291682541370392,-0.04346328228712084,0.0,-1.293218196300828,-0.2595064359821605,13.012252168596484,0.0,0.0,0.0,0.0,0.0,0.011943826929451607,0.0,0.0,0.037383163486034744,0.0,0.0,0.0,0.0,0.0,0.0,0.0,0.0,0.0119436932373047,0.0,0.0,0.0373829040527344
1.000003576278687,0.10500025749206543,-0.011924151331186295,0.18858014047145844,0.21735514561996583,0.10371389220701169,-0.06464001094407873,0.10500025749206543,-0.011924151331186295,0.1746755155867632,0.21735514561996583,0.10371389220701169,-0.10570763649301179,0.0734884111009646,-0.03845056852919049,0.011628410877174034,-0.35938775539398193,0.44766396284103394,-0.12265883386135107,0.0,-1.3623953302335672,-0.29811393485780224,13.12561609860578,0.0,0.0,0.0,0.0,0.0,0.013904624884695247,0.0,0.0,0.04106762554893306,0.0,0.0,0.0,0.0,0.0,0.0,0.0,0.0,0.0139044780158996,0.0,0.0,0.0410673580169678
1.050003576278687,0.11360911279916763,-0.00911699328571558,0.18808479607105255,0.1428573218302369,0.08240312377687824,0.0772424628386113,0.11360911279916763,-0.00911699328571558,0.17203238954194533,0.1428573218302369,0.08240312377687824,0.032381347963405846,0.07482765361313515,-0.024957469413761757,0.017237580658639118,0.1425568014383316,0.2983778119087219,0.1507182717323303,0.0,-3.4068583351837045,-0.8684833684216224,20.81415340539282,0.0,0.0,0.0,0.0,0.0,0.016052406529107208,0.0,0.0,0.04486111487520546,0.0,0.0,0.0,0.0,0.0,0.0,0.0,0.0,0.01605224609375,0.0,0.0,0.04486083984375
1.100003576278687,0.11921483278274536,-0.0062399376183748245,0.199350506067276,0.13107815258382824,0.1441894646347101,0.27890366932182775,0.11921483278274536,-0.0062399376183748245,0.18095809112364494,0.13107815258382824,0.1441894646347101,0.23014834625779781,0.0779890012761828,-0.03786108231732843,0.016663223862614984,0.1080363318324089,-0.238586887717247,0.04621682688593867,0.0,-0.25947784492477577,-0.06536463509792095,8.762064410998036,0.0,0.0,0.0,0.0,0.0,0.01839241494363105,0.0,0.0,0.04875532306402993,0.0,0.0,0.0,0.0,0.0,0.0,0.0,0.0,0.0183922405815124,0.0,0.0,0.0487550411224364
1.150003576278687,0.12544703483581543,-0.003478005062788725,0.2097756713628769,0.14562737293257466,0.11486051440885436,0.17459386371160251,0.12544703483581543,-0.003478005062788725,0.1888461901404801,0.14562737293257466,0.11486051440885436,0.12185178466791646,0.07892526154718693,-0.041685405756411775,0.018360532710246957,0.16044273972511292,-0.003395737614482643,-0.013871043920516968,0.0,-0.2575330306577206,-0.2995452258478828,8.033998447185475,0.0,0.0,0.0,0.0,0.0,0.020929481222396785,0.0,0.0,0.052742079043686045,0.0,0.0,0.0,0.0,0.0,0.0,0.0,0.0,0.0209292926025389,0.0,0.0,0.0527417907714842
1.2000035762786871,0.13243842124938965,-0.0012652808800339699,0.21047532558441162,0.1449133652826322,0.11085256923140342,0.05046822403197465,0.13243842124938965,-0.0012652808800339699,0.18680729424523568,0.1449133652826322,0.11085256923140342,-0.006345125039580325,0.09328665996868146,-0.03719412435455194,0.016734327463762355,0.20228886604309082,0.0668470710515976,-0.02673339098691941,0.0,-0.8707235862032843,-0.31767860260570246,10.430354568129422,0.0,0.0,0.0,0.0,0.0,0.02366803133917593,0.0,0.0,0.056813349071554976,0.0,0.0,0.0,0.0,0.0,0.0,0.0,0.0,0.0236678281593321,0.0,0.0,0.0568130550384519
1.2500035762786872,0.13915486633777618,0.0011767210671678185,0.2024959921836853,0.10986090823734546,0.10893206340093592,-0.1643526161736119,0.13915486633777618,0.0011767210671678185,0.1758838991698487,0.10986090823734546,0.10893206340093592,-0.2253138529077313,0.09899968802867676,-0.04518679202876408,0.021680787975151716,0.0751151591539383,-0.10289286077022552,-0.020737130194902406,0.0,-1.448313313485554,-0.48205172329705004,12.976009299535862,0.0,0.0,0.0,0.0,0.0,0.026612093013836605,0.0,0.0,0.060961236734119385,0.0,0.0,0.0,0.0,0.0,0.0,0.0,0.0,0.0266118749999997,0.0,0.0,0.0609609374999996
1.3000035762786872,0.14447011053562164,0.003852808615192771,0.1916089653968811,0.09390878715622422,0.11281475405063557,-0.18157410096081364,0.14447011053562164,0.003852808615192771,0.16184366281808252,0.09390878715622422,0.11281475405063557,-0.2467520839077772,0.09961324527001159,-0.044726904328348915,0.020755898843598075,0.006125985644757748,-0.19097405672073364,0.0024213714059442516,0.0,-1.6092632025751001,-0.5202101401089975,14.76527764240158,0.0,0.0,0.0,0.0,0.0,0.029765302578798593,0.0,0.0,0.06517798294696356,0.0,0.0,0.0,0.0,0.0,0.0,0.0,0.0,0.0297650694847103,0.0,0.0,0.0651776790618892
1.3500035762786873,0.1540852040052414,0.011456361040472984,0.18597425520420074,0.17483373633626426,0.1899848136952629,-0.02380612236300843,0.1540852040052414,0.011456361040472984,0.1528433433587123,0.17483373633626426,0.1899848136952629,-0.09326208831778172,0.07377536443771637,-0.02215393926117093,0.016216086123839624,-0.5043540000915527,0.4734421670436859,-0.06289826333522802,0.0,-1.5316399194016066,-0.5119819932649481,14.63409814911464,0.0,0.0,0.0,0.0,0.0,0.03313091184548845,0.0,0.0,0.0694559659547733,0.0,0.0,0.0,0.0,0.0,0.0,0.0,0.0,0.033130663452148,0.0,0.0,0.0694556579589839
1.4000035762786873,0.1609974056482315,0.015608007088303566,0.18617147207260132,0.1255433354403483,0.12807030776067088,0.06464755049501356,0.1609974056482315,0.015608007088303566,0.1494596771018068,0.1255433354403483,0.12807030776067088,-0.009140150836322428,0.07250814126489002,-0.016803807189642583,0.017654341214824676,0.10088977962732315,-0.02316253818571567,0.04956766590476036,0.0,-1.7533464086952009,-0.7664258255837153,13.81740933301181,0.0,0.0,0.0,0.0,0.0,0.03671179497079453,0.0,0.0,0.07378770133133598,0.0,0.0,0.0,0.0,0.0,0.0,0.0,0.0,0.0367115310859675,0.0,0.0,0.0737873897552484
1.4500035762786874,0.1653788983821869,0.018351895734667778,0.18945088982582092,0.09562244608661974,0.10412604257989176,0.12792897027943145,0.1653788983821869,0.018351895734667778,0.1489404345022988,0.09562244608661974,0.10412604257989176,0.04976312829989085,0.08186234393851777,-0.0335870881455973,0.018825120815234797,0.3460468351840973,-0.3968943953514099,-0.019989345222711515,0.0,-1.4708484506578665,-0.5688639781783463,12.975391387359803,0.0,0.0,0.0,0.0,0.0,0.04051045532352213,0.0,0.0,0.0781658419795406,0.0,0.0,0.0,0.0,0.0,0.0,0.0,0.0,0.0405101757812493,0.0,0.0,0.0781655273437493
1.5000035762786874,0.16925281286239624,0.020239681005477905,0.19336585700511932,0.09006665328051605,0.10320526956695587,0.12363424919044155,0.16925281286239624,0.020239681005477905,0.14883682465427078,0.09006665328051605,0.10320526956695587,0.04105107105906393,0.09959386435416961,-0.055259079692095536,0.01785117215348997,0.382711261510849,-0.4335925579071045,-0.026063028723001428,0.0,-1.3504433060914558,-0.4959486414351193,12.654755870930925,0.0,0.0,0.0,0.0,0.0,0.04452903235084853,0.0,0.0,0.08258317813137762,0.0,0.0,0.0,0.0,0.0,0.0,0.0,0.0,0.044528737010955,0.0,0.0,0.0825828609466545
1.5500035762786875,0.17327700555324554,0.02253885194659233,0.19632282853126526,0.08671149179462725,0.10157232540329679,0.08870044948409866,0.17327700555324554,0.02253885194659233,0.14755352008648723,0.08671149179462725,0.10157232540329679,0.0016678121361594772,0.1205762644002335,-0.07487267590828228,0.02375502704000354,0.2564190626144409,-0.2821294963359833,0.01102247647941116,0.0,-1.3844058867884101,-0.5037022327455065,12.774318176683872,0.0,0.0,0.0,0.0,0.0,0.04876930844477804,0.0,0.0,0.08703263734793919,0.0,0.0,0.0,0.0,0.0,0.0,0.0,0.0,0.0487689971923819,0.0,0.0,0.0870323181152334
1.6000035762786875,0.17707768082618713,0.02535863034427166,0.1978481411933899,0.07781674841366835,0.10428716531551259,0.06792256783165225,0.17707768082618713,0.02535863034427166,0.14461542538479275,0.07781674841366835,0.10428716531551259,-0.0235847166877666,0.12654455539762166,-0.0816624588300936,0.024370417061524208,0.08235346525907516,-0.20731966197490692,0.015529049560427692,0.0,-1.4593099324895027,-0.5242995998991363,13.124875625590432,0.0,0.0,0.0,0.0,0.0,0.05323271580859714,0.0,0.0,0.09150728451941885,0.0,0.0,0.0,0.0,0.0,0.0,0.0,0.0,0.0532323885536183,0.0,0.0,0.0915069637298574
1.6500035762786875,0.18022941052913666,0.028439823538064957,0.19882351160049438,0.05521383316060285,0.106201212686246,0.0506587534118488,0.18022941052913666,0.028439823538064957,0.14090316827716484,0.05521383316060285,0.106201212686246,-0.04534156845326306,0.1261938511802838,-0.09527416462349958,0.02260035484750844,-0.10654784739017487,-0.1253097951412201,0.0013777266722172653,0.0,-1.4965379778041505,-0.5549949736167672,13.382929194781564,0.0,0.0,0.0,0.0,0.0,0.05792034332332954,0.0,0.0,0.09600032186511186,0.0,0.0,0.0,0.0,0.0,0.0,0.0,0.0,0.0579199999999988,0.0,0.0,0.0959999999999989
1.7000035762786876,0.18231546878814697,0.03129279986023903,0.1995086818933487,0.03762679124366032,0.09641096570617701,0.05093663975308509,0.18231546878814697,0.03129279986023903,0.13667573847915748,0.03762679124366032,0.09641096570617701,-0.049568449180329856,0.1203712251798219,-0.09437265356454239,0.025154959247948305,-0.04935512691736221,-0.03284411132335663,-0.0019009732641279656,0.0,-1.4496130670421967,-0.5719837821626486,13.500117210280749,0.0,0.0,0.0,0.0,0.0,0.06283294341419123,0.0,0.0,0.10050508893341495,0.0,0.0,0.0,0.0,0.0,0.0,0.0,0.0,0.0628325839805589,0.0,0.0,0.1005047664642322
1.7500035762786876,0.18399465084075928,0.03357557952404022,0.2007276713848114,0.016546870554758977,0.06893499341663663,0.06354176836418308,0.18399465084075928,0.03357557952404022,0.13275673246776581,0.016546870554758977,0.06893499341663663,-0.0414732942376434,0.11946905140667985,-0.09320438224415284,0.025536006068242578,0.04551650583744049,0.12677794694900513,0.01529219932854174,0.0,-1.3516644353794598,-0.5371920512505659,13.303553031884054,0.0,0.0,0.0,0.0,0.0,0.06797093891704557,0.0,0.0,0.10501506260182648,0.0,0.0,0.0,0.0,0.0,0.0,0.0,0.0,0.0679705633544907,0.0,0.0,0.1050147399902331
1.8000035762786877,0.18532057106494904,0.035235993564128876,0.20190632343292236,0.005751819376071441,0.05952209025496927,0.05558127146733564,0.18532057106494904,0.035235993564128876,0.12857189348806394,0.005751819376071441,0.05952209025496927,-0.05394258560961065,0.11349592353365923,-0.0809636928482016,0.02503996242866524,0.011742830276489258,0.18109753727912903,-0.002251198049634717,0.0,-1.2423621323132414,-0.4497134010081361,13.077384889184174,0.0,0.0,0.0,0.0,0.0,0.07333442994485842,0.0,0.0,0.10952385707694628,0.0,0.0,0.0,0.0,0.0,0.0,0.0,0.0,0.0733340382575972,0.0,0.0,0.1095235347747788
1.8500035762786877,0.18579190969467163,0.036756936460733414,0.2038477659225464,-0.01689166221030561,0.05849509258020511,0.10673133751990621,0.18579190969467163,0.036756936460733414,0.12492456516839329,-0.01689166221030561,0.05849509258020511,-0.0072938863745696525,0.11593560097851974,-0.0752877436972561,0.024952803744233698,-0.04918519780039787,0.17086385190486908,0.01126839406788347,0.0,-3.6937187804096245,-1.071932874456715,22.931816875270666,0.0,0.0,0.0,0.0,0.0,0.0789232007541531,0.0,0.0,0.11402522389447586,0.0,0.0,0.0,0.0,0.0,0.0,0.0,0.0,0.0789227929687481,0.0,0.0,0.1140249023437485
1.9000035762786878,0.184666708111763,0.037699177861213684,0.21806339919567108,-0.04851939127072839,0.025530151553025668,0.22743860516199232,0.184666708111763,0.037699177861213684,0.13332667258420547,-0.04851939127072839,0.025530151553025668,0.10892555324277413,0.11484365908175853,-0.06965686314732977,0.026042173635357102,-0.01298524159938097,0.10947082191705704,0.0019831710960715875,0.0,0.07557918860305744,-0.11422272864806288,8.188589388139619,0.0,0.0,0.0,0.0,0.0,0.08473672661146561,0.0,0.0,0.1185130519192182,0.0,0.0,0.0,0.0,0.0,0.0,0.0,0.0,0.0847363027763346,0.0,0.0,0.1185127315521224
1.9500035762786878,0.1844179779291153,0.03787151724100113,0.23216412961483002,-0.012305443575104475,-0.014100233468647274,0.023875719001968474,0.1844179779291153,0.03787151724100113,0.14138994895503043,-0.012305443575104475,-0.014100233468647274,-0.09910564834310942,0.11814069016583062,-0.050448654078023125,0.02124630604299238,-0.05058945715427399,0.4614727199077606,-0.023351345211267527,0.0,0.15293981675194646,-0.04826932108771616,7.768955235231178,0.0,0.0,0.0,0.0,0.0,0.0907741806597996,0.0,0.0,0.12298136734507789,0.0,0.0,0.0,0.0,0.0,0.0,0.0,0.0,0.0907737408447242,0.0,0.0,0.1229810485839827
2.000003576278688,0.18539713323116302,0.0382130965590477,0.23497331142425537,-0.01946035188394466,-0.021459937903256184,-0.15063806313392855,0.18539713323116302,0.0382130965590477,0.13793887063917387,-0.01946035188394466,-0.021459937903256184,-0.2780623968289896,0.11158922950182415,-0.03187660865676101,0.020816691852986402,-0.15681520104408264,0.531158983707428,-0.026990136131644315,0.0,-0.6407567311389162,-0.05424722238654486,10.933974850053634,0.0,0.0,0.0,0.0,0.0,0.09703444078508151,0.0,0.0,0.12742433369506106,0.0,0.0,0.0,0.0,0.0,0.0,0.0,0.0,0.0970339850807164,0.0,0.0,0.1274240169525129
2.0500035762786877,0.18522371351718903,0.03810865059494972,0.22977904975414276,-0.0491701292931029,-0.03522864652476475,-0.29228157219257705,0.18522371351718903,0.03810865059494972,0.12626295327152715,-0.0491701292931029,-0.03522864652476475,-0.42411782401385245,0.10343602219382575,-0.022682258038165592,0.014500156624722926,-0.14404745399951935,0.16272872686386108,0.0008143341401591698,0.0,-1.3354932205956234,-0.25518638448025044,14.220937896780688,0.0,0.0,0.0,0.0,0.0,0.10351609648261562,0.0,0.0,0.13183625182127537,0.0,0.0,0.0,0.0,0.0,0.0,0.0,0.0,0.1035156249999972,0.0,0.0,0.1318359374999982
2.1000035762786875,0.18363022804260254,0.03787073493003845,0.22299537062644958,-0.05819522331833642,-0.03586511996602949,-0.28297542062164516,0.18363022804260254,0.03787073493003845,0.11277791490291048,-0.05819522331833642,-0.03586511996602949,-0.41918698052657527,0.09516381972781307,-0.014639798704762619,0.020713485261535602,-0.10142605751752853,-0.14760680496692657,-0.011574266478419287,0.0,-1.5097607003988207,-0.2561102542607924,15.936162724013576,0.0,0.0,0.0,0.0,0.0,0.11021745572353911,0.0,0.0,0.1362115599049301,0.0,0.0,0.0,0.0,0.0,0.0,0.0,0.0,0.1102169685935944,0.0,0.0,0.1362112483978252
2.1500035762786873,0.1815105676651001,0.03710629418492317,0.22091588377952576,-0.07245645609659741,-0.05457541776018667,-0.1315309162207092,0.1815105676651001,0.03710629418492317,0.10377933195824858,-0.07245645609659741,-0.05457541776018667,-0.27207574967704534,0.09113065385566665,-0.022547022506653747,0.022024732856518625,-0.04303635284304619,-0.2694700062274933,0.04403735697269443,0.0,-1.6788010957254724,-0.2727771994584245,16.626395564924806,0.0,0.0,0.0,0.0,0.0,0.11713655182127718,0.0,0.0,0.14054483345633614,0.0,0.0,0.0,0.0,0.0,0.0,0.0,0.0,0.1171360491943327,0.0,0.0,0.1405445251464824
2.200003576278687,0.17944300174713135,0.03579685837030411,0.2260248214006424,-0.06892176387194189,-0.0596369338512226,-0.04817225556323762,0.17944300174713135,0.03579685837030411,0.10175367110264426,-0.06892176387194189,-0.0596369338512226,-0.19300304087814338,0.08990827369528365,-0.028816785813196688,0.02753034257767606,-0.02699999511241913,-0.29109129309654236,0.05046552047133449,0.0,-1.3665910898829425,-0.1891500409994491,15.342231819331007,0.0,0.0,0.0,0.0,0.0,0.12427115029799814,0.0,0.0,0.14483078531490576,0.0,0.0,0.0,0.0,0.0,0.0,0.0,0.0,0.1242706323432888,0.0,0.0,0.1448304805755595
2.250003576278687,0.1784776896238327,0.034723687916994095,0.235408216714859,-0.036552918090287004,-0.065841167231878,0.07718656199642587,0.1784776896238327,0.034723687916994095,0.1037894609637906,-0.036552918090287004,-0.065841167231878,-0.07187770365272717,0.09035496473702498,-0.0486653337624956,0.024204236374997024,-0.021106239408254623,-0.10938277095556259,0.011180587112903609,0.0,-1.2832904813042254,-0.15002818522615277,14.73077741210571,0.0,0.0,0.0,0.0,0.0,0.1316187557510684,0.0,0.0,0.14906426564915304,0.0,0.0,0.0,0.0,0.0,0.0,0.0,0.0,0.1316182226562463,0.0,0.0,0.1490639648437479
2.300003576278687,0.17756839096546173,0.03375304862856865,0.24824777245521545,-0.028438839834791164,-0.058940296235466094,0.10936393197213454,0.17756839096546173,0.03375304862856865,0.10907115373570783,-0.028438839834791164,-0.058940296235466094,-0.04387632998455887,0.08603368975342995,-0.055106804921064345,0.02400926484079413,-0.007387181743979454,-0.0932997465133667,-0.04400484263896941,0.0,-1.091838962195113,-0.0525980758015297,13.027316168131247,0.0,0.0,0.0,0.0,0.0,0.13917661871950762,0.0,0.0,0.1532402619566934,0.0,0.0,0.0,0.0,0.0,0.0,0.0,0.0,0.1391760706901511,0.0,0.0,0.1532399654388405
2.3500035762786866,0.1768072098493576,0.03273550420999527,0.26059025526046753,-0.038141053817196235,-0.0613737551705647,0.08700502222524047,0.1768072098493576,0.03273550420999527,0.11364851271002363,-0.038141053817196235,-0.0613737551705647,-0.07034887683900344,0.088477664773698,-0.05776652020811612,0.02259486691360202,-0.03402310237288475,-0.01449721585959196,0.012156144715845587,0.0,-1.0224623830923152,-0.05072908231507492,12.454349810870873,0.0,0.0,0.0,0.0,0.0,0.1469417425504439,0.0,0.0,0.1573538990642439,0.0,0.0,0.0,0.0,0.0,0.0,0.0,0.0,0.146941179809566,0.0,0.0,0.1573536071777322
2.4000035762786864,0.1759849488735199,0.03185492008924484,0.27071937918663025,-0.04211391485864972,-0.061775144830551534,0.041410442414571834,0.1759849488735199,0.03185492008924484,0.11580848892106171,-0.04211391485864972,-0.061775144830551534,-0.1199899967130515,0.08604970390725875,-0.055081886186893136,0.020714420678013212,-0.059824757277965546,0.05471435561776161,-0.0048957434482872556,0.0,-1.2410975215906301,-0.11170635733143847,13.489260800210637,0.0,0.0,0.0,0.0,0.0,0.15491089026556853,0.0,0.0,0.16140043912762334,0.0,0.0,0.0,0.0,0.0,0.0,0.0,0.0,0.1549103130531265,0.0,0.0,0.1614001522064186
2.4500035762786863,0.17459683120250702,0.031107008457183838,0.27885937690734863,-0.059688706121297695,-0.06675677297174931,0.018852243852898715,0.17459683120250702,0.031107008457183838,0.11577878547975728,-0.059688706121297695,-0.06675677297174931,-0.14652303777885298,0.08839331460848854,-0.053248605962163964,0.01978112753764716,-0.02181342989206314,-0.011643854901194574,-0.01283565443009138,0.0,-1.5209665418051077,-0.17689967384055472,14.75300813148353,0.0,0.0,0.0,0.0,0.0,0.16308059142759135,0.0,0.0,0.1653752816317517,0.0,0.0,0.0,0.0,0.0,0.0,0.0,0.0,0.1630799999999951,0.0,0.0,0.1653749999999977
2.500003576278686,0.17200197279453278,0.03047163598239422,0.28761380910873413,-0.07736305463404446,-0.06320689387221491,0.04621355537461187,0.17200197279453278,0.03047163598239422,0.1161666601020383,-0.07736305463404446,-0.06320689387221491,-0.123060408016039,0.08108716306935326,-0.06023525648982497,0.020315877775983537,0.02906705066561699,-0.104119211435318,0.011689636856317532,0.0,-1.4565472908848962,-0.15414844095298708,14.758453731119571,0.0,0.0,0.0,0.0,0.0,0.17144714900669583,0.0,0.0,0.16927396339065087,0.0,0.0,0.0,0.0,0.0,0.0,0.0,0.0,0.1714465436363169,0.0,0.0,0.1692736873626685
2.550003576278686,0.16816239058971405,0.029929548501968384,0.29799801111221313,-0.10035920592376593,-0.06057620912144757,0.08828084329897286,0.16816239058971405,0.029929548501968384,0.11799136486521913,-0.10035920592376593,-0.06057620912144757,-0.08481131524847134,0.07864663801692995,-0.06830862206920507,0.019323511136939864,-0.0007506492547690868,-0.0678403228521347,0.02794455364346505,0.0,-1.1440222469408379,-0.10303714412133208,13.67593316438908,0.0,0.0,0.0,0.0,0.0,0.180006646246994,0.0,0.0,0.1730921585474442,0.0,0.0,0.0,0.0,0.0,0.0,0.0,0.0,0.1800060272216743,0.0,0.0,0.173091888427732
2.6000035762786857,0.1640355885028839,0.030281366780400276,0.3078993856906891,-0.10358235181922862,-0.049305363316992055,0.08225646752448547,0.1640355885028839,0.030281366780400276,0.11914443215770754,-0.10358235181922862,-0.049305363316992055,-0.09456921104987094,0.08347286535652731,-0.0640786002242697,0.020221074763793645,-0.004281577188521624,0.03480924665927887,0.015325497835874554,0.0,-0.9209677875956214,-0.082445847387596,12.976373978325555,0.0,0.0,0.0,0.0,0.0,0.18875495353298155,0.0,0.0,0.1768256785743564,0.0,0.0,0.0,0.0,0.0,0.0,0.0,0.0,0.1887543211555424,0.0,0.0,0.1768254146575903
2.6500035762786855,0.15976651012897491,0.031021028757095337,0.3153953552246094,-0.11598902582406988,-0.04064183711563545,0.027115900730999076,0.15976651012897491,0.031021028757095337,0.11770761996861634,-0.11598902582406988,-0.04064183711563545,-0.15335457154171508,0.08470778122952805,-0.05867153435836325,0.019648096411330584,0.0030736359767615795,0.16574037075042725,-0.012642662972211859,0.0,-1.0310887264798874,-0.15193974739399035,13.475899137276524,0.0,0.0,0.0,0.0,0.0,0.19768773525599304,0.0,0.0,0.18047047227271415,0.0,0.0,0.0,0.0,0.0,0.0,0.0,0.0,0.197687089843744,0.0,0.0,0.1804702148437476
2.7000035762786854,0.1555362492799759,0.03181575611233711,0.32092851400375366,-0.11964985892801927,-0.03987361750300057,0.011081105114774533,0.1555362492799759,0.03181575611233711,0.11412805732309678,-0.11964985892801927,-0.03987361750300057,-0.17294152065817067,0.08493141238081892,-0.05389901500213945,0.020483519035709108,0.017439844086766243,0.15287669003009796,-0.011775036342442055,0.0,-1.2021310040728543,-0.2337429254477413,14.478454806163963,0.0,0.0,0.0,0.0,0.0,0.20680045668065689,0.0,0.0,0.1840226257729452,0.0,0.0,0.0,0.0,0.0,0.0,0.0,0.0,0.2067997985649046,0.0,0.0,0.184022375106809
2.750003576278685,0.15039479732513428,0.03294461593031883,0.3263337314128876,-0.1384671340818921,-0.023825913665030937,0.031953260394586507,0.15039479732513428,0.03294461593031883,0.11024534060153723,-0.1384671340818921,-0.023825913665030937,-0.1555251021399929,0.08242440159083264,-0.044961735983496176,0.01789580518688627,-0.010174582712352276,0.06627211719751358,-0.005117358639836319,0.0,-1.2254803803706213,-0.25110929594192016,14.712373104766634,0.0,0.0,0.0,0.0,0.0,0.21608839081135034,0.0,0.0,0.18747836253457942,0.0,0.0,0.0,0.0,0.0,0.0,0.0,0.0,0.2160877203369074,0.0,0.0,0.1874781188964819
2.800003576278685,0.14443936944007874,0.034062471240758896,0.33358344435691833,-0.1440174328444308,-0.024872316981455783,0.05366907795078694,0.14443936944007874,0.034062471240758896,0.10803681909826357,-0.1440174328444308,-0.024872316981455783,-0.1371649653954608,0.08683286843882287,-0.03485932427494376,0.024608157886571114,0.06567864865064621,-0.010056572034955021,0.023009518161416054,0.0,-2.6588441822033606,-0.6929229155151184,20.67482718814665,0.0,0.0,0.0,0.0,0.0,0.22554662525865476,0.0,0.0,0.19083404334624773,0.0,0.0,0.0,0.0,0.0,0.0,0.0,0.0,0.2255459427833487,0.0,0.0,0.1908338069915747
2.850003576278685,0.1377396136522293,0.03597695752978325,0.34854474663734436,-0.08421362883755716,-0.03806307519194896,0.26944940925800775,0.1377396136522293,0.03597695752978325,0.11337467753153385,-0.08421362883755716,-0.03806307519194896,0.07536324293232477,0.09217787917897624,-0.04428565467099865,0.02315601529676936,0.059496473520994186,0.02260877937078476,-0.004552385769784453,0.0,0.21061822598898572,0.025816995494420958,9.394010177989085,0.0,0.0,0.0,0.0,0.0,0.2351700691058105,0.0,0.0,0.19408616632568298,0.0,0.0,0.0,0.0,0.0,0.0,0.0,0.0,0.2351693749999927,0.0,0.0,0.1940859374999976
2.9000035762786847,0.13285578787326813,0.037789784371852875,0.3620971143245697,-0.0690871184623334,-0.03512937263005281,0.1836599148232441,0.13285578787326813,0.037789784371852875,0.11714365454939729,-0.0690871184623334,-0.03512937263005281,-0.013571452096475117,0.08748986908753364,-0.03271558402356867,0.01633256536140948,0.025150369852781296,0.4256024956703186,-0.025032082572579436,0.0,-0.018958198868765652,0.029294264890429522,8.804497583799003,0.0,0.0,0.0,0.0,0.0,0.2449534597751724,0.0,0.0,0.1972313669197192,0.0,0.0,0.0,0.0,0.0,0.0,0.0,0.0,0.2449527544212265,0.0,0.0,0.1972311458587622
2.9500035762786845,0.12940366566181183,0.040026720613241196,0.36569732427597046,-0.06960835078055491,-0.022922906314137566,-0.06949251901804392,0.12940366566181183,0.040026720613241196,0.11080595438130642,-0.06960835078055491,-0.022922906314137566,-0.26975893692233643,0.08885554211150382,-0.01069027595277472,0.01424935374906422,-0.053283028304576874,0.4017329812049866,-0.039503343403339435,0.0,-0.8741368153390101,-0.1877270709069964,12.24493589234596,0.0,0.0,0.0,0.0,0.0,0.25489136989466404,0.0,0.0,0.2002664179042925,0.0,0.0,0.0,0.0,0.0,0.0,0.0,0.0,0.2548906536865155,0.0,0.0,0.200266204833982
3.0000035762786843,0.12444447726011276,0.0427154004573822,0.36272263526916504,-0.09048049039339671,-0.013529453868176186,-0.1388494060676993,0.12444447726011276,0.0427154004573822,0.09774442110493115,-0.09048049039339671,-0.013529453868176186,-0.34203763545213944,0.08672660742729876,0.0026604533770204775,0.013282799700101933,-0.029648302122950554,0.02301248349249363,-0.0013942830264568357,0.0,-1.566899384982456,-0.3968777042299762,15.727657647187165,0.0,0.0,0.0,0.0,0.0,0.2649782141642339,0.0,0.0,0.20318822938444014,0.0,0.0,0.0,0.0,0.0,0.0,0.0,0.0,0.2649774875068581,0.0,0.0,0.2031880245208718
3.050003576278684,0.11821328848600388,0.04539388790726662,0.3603605628013611,-0.11065353833804004,0.0034129266314870854,-0.03439411986866513,0.11821328848600388,0.04539388790726662,0.08515230657905187,-0.11065353833804004,0.0034129266314870854,-0.24038796866296608,0.08241878960534166,-0.009881807986167779,0.012780217037818176,0.025592762976884842,-0.3002707362174988,0.02855003438889984,0.0,-2.074551614215122,-0.5854404614356927,18.354993648397066,0.0,0.0,0.0,0.0,0.0,0.2752082562223092,0.0,0.0,0.20599384879430094,0.0,0.0,0.0,0.0,0.0,0.0,0.0,0.0,0.2752075195312414,0.0,0.0,0.2059936523437477
3.100003576278684,0.11154772341251373,0.04841332510113716,0.3651689887046814,-0.0854580702980683,0.00015919463043823962,0.054073224370585614,0.11154772341251373,0.04841332510113716,0.07959337319242893,-0.0854580702980683,0.00015919463043823962,-0.1546072365265301,0.08697656517570307,-0.02680635517814345,0.014679604095551468,0.0901142880320549,-0.34504544734954834,0.0261988397687674,0.0,-1.5534938378245466,-0.5410533120343395,16.463438314686158,0.0,0.0,0.0,0.0,0.0,0.28557561551225247,0.0,0.0,0.20868046089711573,0.0,0.0,0.0,0.0,0.0,0.0,0.0,0.0,0.2855748692130953,0.0,0.0,0.2086802730560281
3.1500035762786838,0.10571633279323578,0.05173066630959511,0.3755607008934021,-0.06559680361952057,0.026005381363661,0.2024327763670674,0.10571633279323578,0.05173066630959511,0.07948642674458695,-0.06559680361952057,0.026005381363661,-0.008812611418158756,0.09681980038275251,-0.03774274518753451,0.016379348414476524,0.10386162996292114,-0.22368445992469788,0.009230248630046872,0.0,-0.7986563501736634,-0.3377080391822565,12.933527024250989,0.0,0.0,0.0,0.0,0.0,0.29607427414881515,0.0,0.0,0.21124538778522617,0.0,0.0,0.0,0.0,0.0,0.0,0.0,0.0,0.2960735186767485,0.0,0.0,0.2112452087402321
3.2000035762786836,0.10079773515462875,0.0553717166185379,0.38500654697418213,-0.061957524357860214,0.027331335246366464,0.17993301723306612,0.10079773515462875,0.0553717166185379,0.07830846318958873,-0.061957524357860214,0.027331335246366464,-0.03375307164701022,0.100004674834556,-0.04355682063194566,0.01680475940058912,0.09275878220796585,-0.05300096049904824,-0.030423527583479874,0.0,-0.5947426386713046,-0.3767432123675457,11.393197320136602,0.0,0.0,0.0,0.0,0.0,0.3066980837845934,0.0,0.0,0.21368608888007634,0.0,0.0,0.0,0.0,0.0,0.0,0.0,0.0,0.3066973195838831,0.0,0.0,0.2136859188079811
3.2500035762786834,0.09667325019836426,0.0589006170630455,0.38960859179496765,-0.06049535833262982,0.02870056399272484,0.029872888205680417,0.09667325019836426,0.0589006170630455,0.07216781931848426,-0.06049535833262982,0.02870056399272484,-0.18612727272653057,0.10309617606574761,-0.042194138772069234,0.015456386458121862,0.10199242830276489,0.09284000098705292,-0.02120087854564191,0.0,-1.0904255200572437,-0.519346120777203,13.395821048182068,0.0,0.0,0.0,0.0,0.0,0.3174407724764834,0.0,0.0,0.21600016093221097,0.0,0.0,0.0,0.0,0.0,0.0,0.0,0.0,0.31743999999999,0.0,0.0,0.2159999999999979
3.3000035762786832,0.09225576370954514,0.062120579183101654,0.39065077900886536,-0.068090132859455,0.030001755708690275,0.0021451889812777085,0.09225576370954514,0.062120579183101654,0.06235482745672938,-0.068090132859455,0.030001755708690275,-0.2160401490399996,0.10978631138519246,-0.03818710910879064,0.014000490887303485,0.08590394258499146,0.04369433969259262,-0.005634262692183261,0.0,-1.6902613772196677,-0.6810329820895328,16.217008248237697,0.0,0.0,0.0,0.0,0.0,0.328295951552136,0.0,0.0,0.21818533802127732,0.0,0.0,0.0,0.0,0.0,0.0,0.0,0.0,0.3282951712608235,0.0,0.0,0.2181851863861064
3.350003576278683,0.0868908017873764,0.06576316058635712,0.3937566578388214,-0.07598572799839068,0.04145233892916054,0.08940262483673055,0.0868908017873764,0.06576316058635712,0.05449953536240959,-0.07598572799839068,0.04145233892916054,-0.13083686671929257,0.11153555337630117,-0.042165919841455235,0.0148424113072263,0.0528908409178257,-0.08264973014593124,0.006419341079890738,0.0,-1.5959913883547376,-0.681905370160366,16.137855435483555,0.0,0.0,0.0,0.0,0.0,0.3392571224764118,0.0,0.0,0.2202394915560231,0.0,0.0,0.0,0.0,0.0,0.0,0.0,0.0,0.3392563348388565,0.0,0.0,0.2202393493652325
3.400003576278683,0.08122769743204117,0.06939270347356796,0.3999720811843872,-0.09374071708424464,0.044118524659111105,0.14448879149998897,0.08122769743204117,0.06939270347356796,0.049654397466550815,-0.09374071708424464,0.044118524659111105,-0.07767183877431003,0.1142718300347485,-0.04162645557397138,0.017350832731047205,0.036444470286369324,-0.08609673380851746,-0.0021271500736474887,0.0,-1.0763062616123382,-0.6149765859470473,14.037581812374953,0.0,0.0,0.0,0.0,0.0,0.3503176837178364,0.0,0.0,0.222160630274299,0.0,0.0,0.0,0.0,0.0,0.0,0.0,0.0,0.3503168892097363,0.0,0.0,0.2221604976654033
3.4500035762786827,0.07561855018138885,0.07300952076911926,0.40689122676849365,-0.08297470757235582,0.042138200678595285,0.1345303059970389,0.07561855018138885,0.07300952076911926,0.04542028915343804,-0.08297470757235582,0.042138200678595285,-0.08941659424601689,0.11363327604372131,-0.04817480562589971,0.016814642808068214,0.06293585896492004,0.06027574837207794,-0.0062907440587878305,0.0,-0.7493303488793384,-0.5761568922650866,12.826659566680869,0.0,0.0,0.0,0.0,0.0,0.3614709376150556,0.0,0.0,0.2239469002430558,0.0,0.0,0.0,0.0,0.0,0.0,0.0,0.0,0.3614701367187387,0.0,0.0,0.2239467773437483
3.5000035762786825,0.07043972611427307,0.07618292421102524,0.41130322217941284,-0.08278482145265618,0.03783224453962085,0.08998777255983609,0.07043972611427307,0.07618292421102524,0.0385931249361226,-0.08278482145265618,0.03783224453962085,-0.13560881229851057,0.11684558660352629,-0.04041658947671767,0.015837898210088852,0.069905124604702,0.14220131933689117,-0.018706412985920923,0.0,-0.967411784147971,-0.6334033600865603,13.602365540063454,0.0,0.0,0.0,0.0,0.0,0.37271009724329024,0.0,0.0,0.22559658485834666,0.0,0.0,0.0,0.0,0.0,0.0,0.0,0.0,0.3727092904472236,0.0,0.0,0.2255964717864974
3.5500035762786823,0.06513002514839172,0.0790596753358841,0.41313818097114563,-0.09425692548077522,0.03084240072888687,0.0560553141139858,0.06513002514839172,0.0790596753358841,0.029109887690354497,-0.09425692548077522,0.03084240072888687,-0.1710527907313405,0.12336152868529515,-0.03401667843244649,0.014689455010761243,0.04859768971800804,0.08784076571464539,0.009425904601812352,0.0,-1.325485363424716,-0.7260851342133592,15.217534574585372,0.0,0.0,0.0,0.0,0.0,0.38402829328079113,0.0,0.0,0.22710810484532631,0.0,0.0,0.0,0.0,0.0,0.0,0.0,0.0,0.3840274810790895,0.0,0.0,0.2271080017089828
3.600003576278682,0.05928768217563629,0.08144670724868774,0.4159814119338989,-0.10208435061857123,0.02591107075174736,0.08272992385047352,0.05928768217563629,0.08144670724868774,0.020562831058604458,-0.10208435061857123,0.02591107075174736,-0.14575009440777736,0.12510376724260652,-0.03346887641617968,0.012534063067205281,-0.001610881881788373,-0.016815980896353718,0.01615032181143761,0.0,-1.3751052270407658,-0.7432744718753048,15.777903153430502,0.0,0.0,0.0,0.0,0.0,0.39541858087529447,0.0,0.0,0.22848001825825087,0.0,0.0,0.0,0.0,0.0,0.0,0.0,0.0,0.3954177637672301,0.0,0.0,0.2284799251556383
3.650003576278682,0.053095635026693344,0.0835815891623497,0.4213528037071228,-0.1065731969718634,0.025916861404369003,0.15772880355417565,0.053095635026693344,0.0835815891623497,0.014478857196645434,-0.1065731969718634,0.025916861404369003,-0.07198221692630208,0.12593568596049698,-0.035221749895819165,0.014695631047024094,-0.0004911548458039761,-0.05172831565141678,0.018931770697236068,0.0,-1.089575325094591,-0.6770882668210533,14.789693279015292,0.0,0.0,0.0,0.0,0.0,0.40687394651047737,0.0,0.0,0.22971102048047773,0.0,0.0,0.0,0.0,0.0,0.0,0.0,0.0,0.4068731249999874,0.0,0.0,0.2297109374999986
3.700003576278682,0.046887945383787155,0.08519122004508972,0.42802536487579346,-0.10417068637098688,0.019662998580903146,0.1767119086131644,0.046887945383787155,0.08519122004508972,0.009638050003382415,-0.10417068637098688,0.019662998580903146,-0.054088035611302376,0.11685606252238845,-0.03626753475850686,0.015264148148636636,-0.03792682662606239,-0.026077875867485997,0.025973288342356685,0.0,-1.3882094682688577,-0.7805695907181655,15.895800362105815,0.0,0.0,0.0,0.0,0.0,0.41838731487241104,0.0,0.0,0.23079994422446679,0.0,0.0,0.0,0.0,0.0,0.0,0.0,0.0,0.4183864894676078,0.0,0.0,0.2307998714447011
3.7500035762786816,0.04070446267724037,0.0867246687412262,0.43699124455451965,-0.09872357646642488,0.016255397976338074,0.21718383589813148,0.04070446267724037,0.0867246687412262,0.007039688838501035,-0.09872357646642488,0.016255397976338074,-0.014561923633646612,0.12696366005524773,-0.03371213195637246,0.015622360587215667,-0.022804656997323036,0.06482523679733276,-0.023194774985313422,0.0,-0.3086240212746232,-0.4838925796157345,11.53417218168639,0.0,0.0,0.0,0.0,0.0,0.4299515557160186,0.0,0.0,0.2317457595317781,0.0,0.0,0.0,0.0,0.0,0.0,0.0,0.0,0.4299507269286979,0.0,0.0,0.2317456970214833
3.8000035762786815,0.035628508776426315,0.0879504457116127,0.44231319427490234,-0.0900276919969449,0.010581288662609122,0.14645958765330705,0.035628508776426315,0.0879504457116127,0.000753703543374451,-0.0900276919969449,0.010581288662609122,-0.08608798611976756,0.12018547422277948,-0.02856598027937185,0.013810955659209867,-0.02507699467241764,0.19755539298057556,-0.029416767880320573,0.0,-0.5181816991841279,-0.5428409104461598,12.234495475238353,0.0,0.0,0.0,0.0,0.0,0.4415594907315279,0.0,0.0,0.2325475737730746,0.0,0.0,0.0,0.0,0.0,0.0,0.0,0.0,0.4415586590766772,0.0,0.0,0.2325475215911857
3.8500035762786813,0.030926449224352837,0.0883307009935379,0.4429347813129425,-0.09509547594457254,-1.8147074320679135e-05,0.04322036751453754,0.030926449224352837,0.0883307009935379,-0.01026911909798539,-0.09509547594457254,-1.8147074320679135e-05,-0.18998426413358263,0.12306264288050439,-0.017801024509627617,0.012445226376488705,0.002991410903632641,0.14771291613578796,-0.004362246952950973,0.0,-1.3686856857281486,-0.7485685695869715,15.744383036487912,0.0,0.0,0.0,0.0,0.0,0.4532039004109279,0.0,0.0,0.23320463164812016,0.0,0.0,0.0,0.0,0.0,0.0,0.0,0.0,0.4532030664062363,0.0,0.0,0.2332045898437493
3.900003576278681,0.025523586198687553,0.08831850439310074,0.44404488801956177,-0.10524337030981175,-0.006371766220866505,0.0729566145200958,0.025523586198687553,0.08831850439310074,-0.020832642894860975,-0.10524337030981175,-0.006371766220866505,-0.1607597006656842,0.12242357056580211,-0.016154412342956448,0.010808270856685454,0.04408254846930504,-0.02526109479367733,0.0017326727975159914,0.0,-1.6671575461884358,-0.8030218335030748,17.427986629469046,0.0,0.0,0.0,0.0,0.0,0.46487753091442274,0.0,0.0,0.23371631518578,0.0,0.0,0.0,0.0,0.0,0.0,0.0,0.0,0.4648766950797894,0.0,0.0,0.2337162837982173
3.950003576278681,0.019729547202587128,0.08786827325820923,0.4503725469112396,-0.08783554428234902,-0.010844523326131453,0.21079808187183305,0.019729547202587128,0.08786827325820923,-0.026200554025648526,-0.08783554428234902,-0.010844523326131453,-0.023284061872188594,0.12182542613636871,-0.022832000891274795,0.010947882536655129,-0.009065283462405205,-0.10394025593996048,0.013352790847420705,0.0,-1.1528840540683785,-0.6629678902197977,15.587121387377747,0.0,0.0,0.0,0.0,0.0,0.47657310093688815,0.0,0.0,0.23408214374402164,0.0,0.0,0.0,0.0,0.0,0.0,0.0,0.0,0.4765722637939311,0.0,0.0,0.234082122802734
4.000003576278681,0.014402147382497787,0.08725102990865707,0.4599998891353607,-0.09823617973275846,-0.01811867123150013,0.2589915342765105,0.014402147382497787,0.08725102990865707,-0.028283419438964397,-0.09823617973275846,-0.01811867123150013,0.02468976026659722,0.12153276960897452,-0.026359066693232514,0.014575667079157029,-0.03199252858757973,-0.05845756456255913,0.0009514933917671514,0.0,-0.6308629973188415,-0.5107009074374022,12.894204806257688,0.0,0.0,0.0,0.0,0.0,0.4882833085743251,0.0,0.0,0.23430177400991328,0.0,0.0,0.0,0.0,0.0,0.0,0.0,0.0,0.4882824706458902,0.0,0.0,0.2343017635345457
4.050003576278681,0.010011241771280766,0.08612769842147827,0.4684407711029053,-0.0771462458829039,-0.02349168721644749,0.2001464091171745,0.010011241771280766,0.08612769842147827,-0.03156006708741077,-0.0771462458829039,-0.02349168721644749,-0.03422859088245089,0.12120849568677494,-0.02485955627272185,0.010590830131075535,-0.01946914941072464,0.07087879627943039,-0.0055883163586258975,0.0,-0.5770487757680727,-0.4904980591804846,12.660150371103885,0.0,0.0,0.0,0.0,0.0,0.500000838190316,0.0,0.0,0.23437499999962538,0.0,0.0,0.0,0.0,0.0,0.0,0.0,0.0,0.4999999999999852,0.0,0.0,0.234375
4.100003576278681,0.00632229121401906,0.08461831510066986,0.4733189046382904,-0.0744911219560551,-0.03184640973119069,0.14269553468493973,0.00632229121401906,0.08461831510066986,-0.03839946264418803,-0.0744911219560551,-0.03184640973119069,-0.09160621837348976,0.11875039598111181,-0.021686034491329664,0.010013621126709893,-0.010634122416377068,0.09289246797561646,-0.011314786970615399,0.0,-1.0965195684542248,-0.5924226292050344,14.650326805046685,0.0,0.0,0.0,0.0,0.0,0.5117183672824784,0.0,0.0,0.23430175305842948,0.0,0.0,0.0,0.0,0.0,0.0,0.0,0.0,0.5117175293540807,0.0,0.0,0.234301763534546
4.150003576278681,0.0023320461623370647,0.0827130600810051,0.47712257504463196,-0.081861836416431,-0.03961202234402864,0.14455292248888474,0.0023320461623370647,0.0827130600810051,-0.04630599830429072,-0.081861836416431,-0.03961202234402864,-0.08952917937181443,0.1167900534494426,-0.01828401687209613,0.007755611580969379,-0.05923805385828018,-0.057742130011320114,-0.004358331672847264,0.0,-1.478360793484213,-0.6676636258514741,16.38873960388233,0.0,0.0,0.0,0.0,0.0,0.5234285733489227,0.0,0.0,0.23408210186069917,0.0,0.0,0.0,0.0,0.0,0.0,0.0,0.0,0.5234277362060393,0.0,0.0,0.2340821228027347
4.2000035762786805,-0.0019393461989238858,0.08044128119945526,0.4838211238384247,-0.0878712307055803,-0.04932775553323067,0.1976592607141974,-0.0019393461989238858,0.08044128119945526,-0.0513030169162787,-0.0878712307055803,-0.04932775553323067,-0.036056991695711665,0.1096201397200498,-0.025230467162681514,0.010382205977792047,-0.045625098049640656,-0.12993110716342926,0.0028062670025974673,0.0,-1.2717646601541812,-0.5937237952753617,15.758552157566545,0.0,0.0,0.0,0.0,0.0,0.5351241407547034,0.0,0.0,0.23371625240990906,0.0,0.0,0.0,0.0,0.0,0.0,0.0,0.0,0.535123304920181,0.0,0.0,0.2337162837982183
4.25000357627868,-0.005977767053991556,0.07821615785360336,0.493162602186203,-0.07006805701949187,-0.047636511861377996,0.2591861255108169,-0.005977767053991556,0.07821615785360336,-0.053635165412075136,-0.07006805701949187,-0.047636511861377996,0.025981577472180717,0.11107758835671477,-0.02954143503814155,0.012843867404254361,-0.04736215993762016,-0.06472820788621902,0.009730192832648763,0.0,-0.8101760660154536,-0.4441295862246936,13.853008681330444,0.0,0.0,0.0,0.0,0.0,0.5467977675982781,0.0,0.0,0.23320454803863616,0.0,0.0,0.0,0.0,0.0,0.0,0.0,0.0,0.5467969335937344,0.0,0.0,0.2332045898437509
4.30000357627868,-0.00909328367561102,0.0757981389760971,0.5020291209220886,-0.0608213805015859,-0.05067221954828681,0.24355588444137968,-0.00909328367561102,0.0757981389760971,-0.05641305165587096,-0.0608213805015859,-0.05067221954828681,0.011008415032821767,0.11039607897556403,-0.029526855508247518,0.010361288543172975,-0.03039608895778656,0.02320377714931965,0.004930980037897823,0.0,-0.739207903053563,-0.41780442561842335,13.12833467814627,0.0,0.0,0.0,0.0,0.0,0.5584421725779596,0.0,0.0,0.23254746940855792,0.0,0.0,0.0,0.0,0.0,0.0,0.0,0.0,0.5584413409232933,0.0,0.0,0.2325475215911875
4.35000357627868,-0.01196375023573637,0.0729268491268158,0.5082661509513855,-0.05838379750394985,-0.060805174097620485,0.17352023316859844,-0.01196375023573637,0.0729268491268158,-0.06178395090698707,-0.05838379750394985,-0.060805174097620485,-0.05822540134185561,0.10975870069534421,-0.026671663563079484,0.010138562982504595,-0.025942640379071236,0.0589459165930748,0.0011113011278211999,0.0,-1.0536708173542915,-0.48130747814503855,14.316920908264366,0.0,0.0,0.0,0.0,0.0,0.5700501018583726,0.0,0.0,0.23174563451045405,0.0,0.0,0.0,0.0,0.0,0.0,0.0,0.0,0.570049273071273,0.0,0.0,0.2317456970214855
4.40000357627868,-0.014833823777735233,0.0697789415717125,0.5133222341537476,-0.06004511967991781,-0.0624776673089516,0.16501179236504218,-0.014833823777735233,0.0697789415717125,-0.06829210178316103,-0.06004511967991781,-0.0624776673089516,-0.06578800629916307,0.1068123993862331,-0.022842771897992442,0.009354303433864786,-0.02173903025686741,-0.0013794874539598807,0.011973557062447071,0.0,-1.3714889010353084,-0.5243806132681439,15.794915674923311,0.0,0.0,0.0,0.0,0.0,0.5816143359369086,0.0,0.0,0.23079979866420525,0.0,0.0,0.0,0.0,0.0,0.0,0.0,0.0,0.5816135105323627,0.0,0.0,0.2307998714447034
4.45000357627868,-0.017040584236383438,0.0673108845949173,0.517750084400177,-0.0533838394682756,-0.06625856997579725,0.2185723642881123,-0.017040584236383438,0.0673108845949173,-0.07537761211000282,-0.0533838394682756,-0.06625856997579725,-0.01113849023068278,0.11013735714538786,-0.026045048945722904,0.012723407671133558,0.02406465820968151,-0.0724324956536293,0.017097506672143947,0.0,-1.3082526973823898,-0.49757222094740033,15.64466618070804,0.0,0.0,0.0,0.0,0.0,0.5931276965101798,0.0,0.0,0.22971085451879508,0.0,0.0,0.0,0.0,0.0,0.0,0.0,0.0,0.5931268749999838,0.0,0.0,0.2297109375000015
4.500003576278679,-0.02109326235949993,0.06262226402759552,0.5286166667938232,-0.05626933439843499,-0.07038510041040734,0.25096526083291126,-0.02109326235949993,0.06262226402759552,-0.07596638654665289,-0.05626933439843499,-0.07038510041040734,0.022485428780603722,0.10302461839640786,-0.03344466333851415,0.012827118702684714,-0.01549558900296688,-0.09648893028497696,-0.008894378319382655,0.0,-1.0612691711348137,-0.41114753848611957,14.428665645837329,0.0,0.0,0.0,0.0,0.0,0.6045830533404761,0.0,0.0,0.22847983205230754,0.0,0.0,0.0,0.0,0.0,0.0,0.0,0.0,0.6045822362327409,0.0,0.0,0.2284799251556414
4.550003576278679,-0.02391771785914898,0.058920543640851974,0.53755122423172,-0.05291696453421206,-0.07636093511695198,0.23940004119981395,-0.02391771785914898,0.058920543640851974,-0.07842210689049867,-0.05291696453421206,-0.07636093511695198,0.012292142627885694,0.10025890715803865,-0.036112773521916885,0.010263081709860344,-0.022110028192400932,-0.017927693203091625,-0.035075053572654724,0.0,-0.8895195025287317,-0.347026848907294,13.663291804502688,0.0,0.0,0.0,0.0,0.0,0.6159733311222186,0.0,0.0,0.22710789857192826,0.0,0.0,0.0,0.0,0.0,0.0,0.0,0.0,0.6159725189208816,0.0,0.0,0.2271080017089864
4.600003576278679,-0.02610739879310131,0.05498959869146347,0.5448176860809326,-0.04551088187115366,-0.0814556916227958,0.21183040073183163,-0.02610739879310131,0.05498959869146347,-0.08247383026748234,-0.04551088187115366,-0.0814556916227958,-0.013765957982112997,0.1005086018411605,-0.03381634224122054,0.009443452854894119,-0.02859334647655487,0.06627044826745987,0.0026821529027074493,0.0,-1.0644341701519173,-0.363832046008618,14.345909699830766,0.0,0.0,0.0,0.0,0.0,0.627291516348415,0.0,0.0,0.22559635871394462,0.0,0.0,0.0,0.0,0.0,0.0,0.0,0.0,0.627290709552748,0.0,0.0,0.2255964717865014
4.650003576278679,-0.02841554954648018,0.05116482824087143,0.5512244701385498,-0.050862949788133445,-0.0823390001924606,0.19542133039394533,-0.02841554954648018,0.05116482824087143,-0.08730619403856543,-0.050862949788133445,-0.0823390001924606,-0.02852532404980035,0.10060624714376765,-0.027687934114170254,0.008675637824817173,-0.050868164747953415,-0.002393651288002728,0.010878299362957478,0.0,-1.3209134278165646,-0.3997933645181627,15.372433501065315,0.0,0.0,0.0,0.0,0.0,0.6385306641771152,0.0,0.0,0.22394665444374567,0.0,0.0,0.0,0.0,0.0,0.0,0.0,0.0,0.6385298632812328,0.0,0.0,0.2239467773437529
4.700003576278679,-0.030977889895439148,0.04736674576997757,0.5585514307022095,-0.05665061916334297,-0.08649573610929405,0.2177677592786017,-0.030977889895439148,0.04736674576997757,-0.09113247459565721,-0.05665061916334297,-0.08649573610929405,-0.004392605777219893,0.09572273415885757,-0.033811315498780026,0.009574975710401112,-0.0425240658223629,-0.02816059999167919,0.012274594977498058,0.0,-1.5659733269031086,-0.45941174077285346,16.543448544425658,0.0,0.0,0.0,0.0,0.0,0.6496839052978667,0.0,0.0,0.2221603650558216,0.0,0.0,0.0,0.0,0.0,0.0,0.0,0.0,0.6496831107902354,0.0,0.0,0.2221604976654082
4.7500035762786785,-0.03373755142092705,0.043429210782051086,0.5689967274665833,-0.045817128603846284,-0.08493822628056891,0.28971377319515845,-0.03373755142092705,0.043429210782051086,-0.0917477253315846,-0.045817128603846284,-0.08493822628056891,0.06947456602139346,0.09674845626561934,-0.036578428613384784,0.011939300872530367,-0.017507214099168777,-0.056239765137434006,-0.02351569384336471,0.0,-0.8650648221889785,-0.2505458406634949,13.70686688004738,0.0,0.0,0.0,0.0,0.0,0.6607444527981678,0.0,0.0,0.220239207173765,0.0,0.0,0.0,0.0,0.0,0.0,0.0,0.0,0.6607436651611158,0.0,0.0,0.2202393493652374
4.800003576278678,-0.03618411347270012,0.039586391299963,0.5790524482727051,-0.04291993055167644,-0.08265457781046677,0.2746005095258564,-0.03618411347270012,0.039586391299963,-0.09265316075722019,-0.04291993055167644,-0.08265457781046677,0.05641547477558706,0.09555490534500244,-0.03280999861206002,0.011232409522274445,-0.049704018980264664,0.027371866628527638,-0.02126860246062279,0.0,-0.7777553174058954,-0.21948484384415257,12.95911664876973,0.0,0.0,0.0,0.0,0.0,0.6717056090299253,0.0,0.0,0.21818503475026935,0.0,0.0,0.0,0.0,0.0,0.0,0.0,0.0,0.6717048287391487,0.0,0.0,0.2181851863861117
4.850003576278678,-0.03852390870451927,0.035871587693691254,0.586455762386322,-0.04466920759437153,-0.08150988122399122,0.20118967005793872,-0.03852390870451927,0.035871587693691254,-0.0961050100895845,-0.04466920759437153,-0.08150988122399122,-0.01481016900919116,0.09219626894550581,-0.0425826986092428,0.00655618308814887,-0.020025061443448067,0.05749302729964256,-0.015122038312256343,0.0,-1.1863213117102842,-0.3237094460519724,14.601161980256256,0.0,0.0,0.0,0.0,0.0,0.6825607724759065,0.0,0.0,0.21599983906712988,0.0,0.0,0.0,0.0,0.0,0.0,0.0,0.0,0.6825599999999824,0.0,0.0,0.2160000000000038
4.900003576278678,-0.04093823581933975,0.032231755554676056,0.5928671360015869,-0.05596674496089693,-0.08225208367181244,0.19740628779224398,-0.04093823581933975,0.032231755554676056,-0.10043630861461195,-0.05596674496089693,-0.08225208367181244,-0.01627946094299884,0.09342450300662675,-0.03307825363819017,0.009959938794928291,0.020443785935640335,-0.023362012580037117,0.008721023797988895,0.0,-1.5351677319695876,-0.40925297896689566,16.277696590501655,0.0,0.0,0.0,0.0,0.0,0.6933034446161989,0.0,0.0,0.21368574873524282,0.0,0.0,0.0,0.0,0.0,0.0,0.0,0.0,0.6933026804160896,0.0,0.0,0.213685918807987
4.950003576278678,-0.043355926871299744,0.028843296691775322,0.601433277130127,-0.05453607422614739,-0.074752017036337,0.2718990836722301,-0.043355926871299744,0.028843296691775322,-0.10249395966453123,-0.05453607422614739,-0.074752017036337,0.06065405397762297,0.07354849296170185,-0.030554336343626254,-0.0007712910377262183,0.015024129301309586,-0.09194116294384003,-0.0018084277398884184,0.0,-1.381302546398761,-0.36497346667388086,15.876210480413757,0.0,0.0,0.0,0.0,0.0,0.7039272367946582,0.0,0.0,0.21124502969460712,0.0,0.0,0.0,0.0,0.0,0.0,0.0,0.0,0.7039264813232243,0.0,0.0,0.2112452087402385
5.000003576278678,-0.04647718369960785,0.02571500651538372,0.6133058071136475,-0.05500554587378876,-0.0686550074530507,0.31557271497004546,-0.04647718369960785,0.02571500651538372,-0.10112006997172329,-0.05500554587378876,-0.0686550074530507,0.10689262975572278,0.07578060808660503,-0.03381090748490845,0.00011704665567968675,0.013203825801610947,-0.05413219332695007,-0.003114801133051508,0.0,-1.018417361965708,-0.28561587999492855,14.15546392137054,0.0,0.0,0.0,0.0,0.0,0.7144258770853708,0.0,0.0,0.20868008521432269,0.0,0.0,0.0,0.0,0.0,0.0,0.0,0.0,0.7144251307868786,0.0,0.0,0.2086802730560347
