time,pos_x,pos_y,pos_z,vel_x,vel_y,vel_z,pos_xo,pos_yo,pos_zo,vel_xo,vel_yo,vel_zo,roll,pitch,yaw,roll_vel,pitch_vel,yaw_vel,thrust_z,force_x,force_y,force_z,torque_x,torque_y,torque_z,pos_xd,pos_yd,pos_zd,vel_xd,vel_yd,vel_zd,roll_d,pitch_d,yaw_d,roll_vel_d,pitch_vel_d,yaw_vel_d,pos_xr,pos_yr,pos_zr,vel_xr,vel_yr,vel_zr
0.050001907348632815,0.005503372754901648,-0.0438159741461277,0.18163388967514038,0.0,0.0,0.0,0.005503372754901648,-0.0438159741461277,0.18163388967514038,0.0,0.0,-2.131627190840885e-13,0.046735740956890925,-0.004455792078359888,-0.010167320852321637,-0.0038967872969806194,9.55581635935233e-05,0.0008188524516299367,0.0,9.888050570321818e-14,-3.798103908070588e-15,12.949199999999331,0.0,0.0,0.0,0.0,0.0,1.3552522309307866e-19,0.0,0.0,2.131627190840885e-13,0.0,0.0,0.0,0.0,0.0,0.0,0.0,0.0,0.0,0.0,0.0,0.0
0.10000190734863282,0.005518821068108082,-0.043828461319208145,0.18152157962322235,-0.014924818304143696,-0.0008730046360881196,0.0010073769244573153,0.005518821068108082,-0.043828461319208145,0.1815191607720098,-0.014924818304143696,-0.0008730046360881196,0.0008627069146972668,0.05010306827658306,-0.005932007743388645,-0.010474188046764255,0.003063472453504801,0.00020647888595704006,0.0014022097457200289,0.0,-1.63294376559135,-0.13988543611296722,17.26159158120515,0.0,0.0,0.0,0.0,0.0,2.418851212551165e-06,0.0,0.0,0.00014467000976004855,0.0,0.0,0.0,0.0,0.0,0.0,0.0,0.0,2.418575286865234e-06,0.0,0.0,0.0001446590423583
0.15000190734863283,0.005490264389663935,-0.04393377900123596,0.18177703022956848,-0.0159394233988807,-0.0022396243610187357,0.008128684585196467,0.005490264389663935,-0.04393377900123596,0.18175786226960874,-0.0159394233988807,-0.0022396243610187357,0.007557282449228323,0.0345870945098814,-0.002187591134875433,-0.010646002091333706,0.014889353886246681,-0.021502764895558357,0.0006969722453504827,0.0,-1.777333145121202,-0.17185725963333065,17.70563168724867,0.0,0.0,0.0,0.0,0.0,1.9167959959746495e-05,0.0,0.0,0.0005714021359681434,0.0,0.0,0.0,0.0,0.0,0.0,0.0,0.0,1.9166870117187512e-05,0.0,0.0,0.0005713806152343
0.20000190734863282,0.0055062235333025455,-0.04388362541794777,0.183283731341362,-0.01817397351190774,-0.0019346913544982228,0.009814794743780313,0.0055062235333025455,-0.04388362541794777,0.1832196509897228,-0.01817397351190774,-0.0019346913544982228,0.008545378694176833,0.03327784336937656,-0.01934431236792067,-0.014604077007314142,0.04463830962777138,-0.08979193121194838,0.06641788780689241,0.0,-0.7963955969578912,0.022358717050029987,14.506417069592452,0.0,0.0,0.0,0.0,0.0,6.408035163920758e-05,0.0,0.0,0.0012694160496034808,0.0,0.0,0.0,0.0,0.0,0.0,0.0,0.0,6.407793045043952e-05,0.0,0.0,0.0012693843841552
0.2500019073486328,0.006152561400085688,-0.04323883727192879,0.1881140172481537,0.022254643833438573,0.008260027255778908,0.10523420674487488,0.006152561400085688,-0.04323883727192879,0.1879635637797393,0.022254643833438573,0.008260027255778908,0.10300613799434123,0.042017003080166315,-0.016706604654192603,-0.00769038580429271,0.10082905739545822,0.0544450655579567,0.05617405474185943,0.0,0.2565191544943973,0.22429318092246223,11.092794148476056,0.0,0.0,0.0,0.0,0.0,0.0001504534684143965,0.0,0.0,0.0022280687505336553,0.0,0.0,0.0,0.0,0.0,0.0,0.0,0.0,0.00015044921875,0.0,0.0,0.00222802734375
0.3000019073486328,0.009369081817567348,-0.0423365980386734,0.19325076043605804,0.053050973819646165,0.017078047522923835,0.07378807475585315,0.009369081817567348,-0.0423365980386734,0.19295970440038834,0.053050973819646165,0.017078047522923835,0.07035122018812533,0.042052583567472546,-0.006852913475821509,-0.005442853613390586,0.06880610436201096,0.2999627888202667,0.046061597764492,0.0,0.5696628102427843,0.26877562375051806,9.282270544698335,0.0,0.0,0.0,0.0,0.0,0.00029105603566969434,0.0,0.0,0.003436854567727826,0.0,0.0,0.0,0.0,0.0,0.0,0.0,0.0,0.0002910494804382,0.0,0.0,0.003436803817749
0.3500019073486328,0.01544833555817604,-0.04067819193005562,0.19206765294075012,0.11257994669675127,0.037148013835867695,-0.12354350388160808,0.01544833555817604,-0.04067819193005562,0.19156951801228464,0.11257994669675127,0.037148013835867695,-0.1284289090408648,0.053353342785595004,0.017777357611265643,-0.005683912469304442,-0.01746990531682968,0.5872849822044373,0.02672607824206345,0.0,0.19394036883488924,0.19238596028953525,10.021359855130564,0.0,0.0,0.0,0.0,0.0,0.000498134928465479,0.0,0.0,0.0048854051592567135,0.0,0.0,0.0,0.0,0.0,0.0,0.0,0.0,0.0004981256103515,0.0,0.0,0.0048853454589843
0.4000019073486328,0.020806968212127686,-0.03697111830115318,0.1842402070760727,0.12048602760814867,0.04328202923282849,-0.20378334910758,0.020806968212127686,-0.03697111830115318,0.1834567850380795,0.12048602760814867,0.04328202923282849,-0.2103468386198726,0.03176096930605388,0.02459615031529072,-0.006638234205865956,-0.7133319973945618,-0.8455114364624023,-0.0036924774758516706,0.0,-0.6941772295644193,0.013349446978350443,12.569323248597433,0.0,0.0,0.0,0.0,0.0,0.0007834220379932036,0.0,0.0,0.006563489512292601,0.0,0.0,0.0,0.0,0.0,0.0,0.0,0.0,0.0007834095191955,0.0,0.0,0.0065634212493896
0.45000190734863277,0.01687171682715416,-0.03645474836230278,0.1840382218360901,0.00516375781844272,-0.0191392453704736,0.03047754892186713,0.01687171682715416,-0.03645474836230278,0.1828800806980596,0.00516375781844272,-0.0191392453704736,0.022016534978757794,0.040249057615797224,-0.02930303250699584,-0.002353518786207598,0.17375676333904266,-0.0272170566022396,0.0841425433754921,0.0,-1.1048726750205597,-0.0848580452637347,14.195891434353605,0.0,0.0,0.0,0.0,0.0,0.0011581411380304748,0.0,0.0,0.008461013943109335,0.0,0.0,0.0,0.0,0.0,0.0,0.0,0.0,0.001158125,0.0,0.0,0.0084609375
0.5000019073486328,0.02038508839905262,-0.036304038017988205,0.18720035254955292,0.05887670354404689,0.017263727635129546,0.05044725596967716,0.02038508839905262,-0.036304038017988205,0.1855673377981568,0.05887670354404689,0.017263727635129546,0.039879233872594844,0.05481023542883978,-0.014699217599763337,0.007119894405304805,0.2085416465997696,0.09025743603706361,0.09737411141395567,0.0,-0.6090060947975356,0.10390462499363713,13.577936771237335,0.0,0.0,0.0,0.0,0.0,0.0016330147513961293,0.0,0.0,0.010568022097082321,0.0,0.0,0.0,0.0,0.0,0.0,0.0,0.0,0.0016329945945739,0.0,0.0,0.0105679378509521
0.5500019073486329,0.02455226704478264,-0.03472345694899559,0.19260859489440918,0.07733916321711341,0.03293797040982812,0.1016661592281832,0.02455226704478264,-0.03472345694899559,0.19039032387800386,0.07733916321711341,0.03293797040982812,0.08879146427949466,0.05555928866548854,-0.005520349632599508,0.006782479646323836,0.007863972336053848,0.11446448415517807,0.04122361540794371,0.0,-0.8078647145022693,-0.013488976257653183,13.47423711880717,0.0,0.0,0.0,0.0,0.0,0.0022182710164053154,0.0,0.0,0.012874694948688536,0.0,0.0,0.0,0.0,0.0,0.0,0.0,0.0,0.0022182464599609,0.0,0.0,0.0128746032714843
0.6000019073486329,0.029652060940861702,-0.03269078582525253,0.19875182211399078,0.09019112221342242,0.0376308027060596,0.11303329106657965,0.029652060940861702,-0.03269078582525253,0.1958281715606662,0.09019112221342242,0.0376308027060596,0.09766194026507315,0.059912853961650914,-0.0025166390417630247,0.010300460918266197,-0.023897355422377586,0.05260296538472176,0.05974765866994857,0.0,-0.6983129297409261,-0.0353725021513793,12.640984705069883,0.0,0.0,0.0,0.0,0.0,0.0029236505533245683,0.0,0.0,0.015371350801506508,0.0,0.0,0.0,0.0,0.0,0.0,0.0,0.0,0.0029236212348938,0.0,0.0,0.0153712520599365
0.650001907348633,0.035304948687553406,-0.030515005812048912,0.20412467420101166,0.11179380882937369,0.04337564799344488,0.08171228882191857,0.035304948687553406,-0.030515005812048912,0.20036626087018478,0.11179380882937369,0.04337564799344488,0.06366384353370223,0.058707524179071324,-0.0011602866361597464,0.011870375033880443,-0.012426991946995258,0.04651395604014396,-0.03179502487182618,0.0,-0.7370568126300117,-0.051436260514431946,12.3343658221983,0.0,0.0,0.0,0.0,0.0,0.0037584133308268867,0.0,0.0,0.01804844528821634,0.0,0.0,0.0,0.0,0.0,0.0,0.0,0.0,0.00375837890625,0.0,0.0,0.01804833984375
0.700001907348633,0.042074911296367645,-0.028170686215162277,0.20692802965641022,0.12367951038770256,0.04284083369454823,0.05047720022024589,0.042074911296367645,-0.028170686215162277,0.2021966841239634,0.12367951038770256,0.04284083369454823,0.029580628849646216,0.060528779264415355,0.002437906028663228,0.011388009162342172,-0.021923720836639404,-0.014203961938619614,-0.005135328508913515,0.0,-0.8835269088702312,-0.08154669375070471,12.29143558941533,0.0,0.0,0.0,0.0,0.0,0.004731345532446817,0.0,0.0,0.020896571370599675,0.0,0.0,0.0,0.0,0.0,0.0,0.0,0.0,0.0047313056755066,0.0,0.0,0.0208964595794678
0.750001907348633,0.04939040541648865,-0.025834865868091583,0.20724721252918243,0.14498063245067416,0.049668637655385185,-0.024156949435779174,0.04939040541648865,-0.025834865868091583,0.2013964461061469,0.14498063245067416,0.049668637655385185,-0.04806340877531892,0.05522464302141694,-0.0022474303902493276,0.008693351656390291,0.00872910674661398,-0.11102498322725296,-0.005099478177726255,0.0,-0.9358440837535393,-0.0812664951848333,12.188579920134694,0.0,0.0,0.0,0.0,0.0,0.005850766423035524,0.0,0.0,0.02390645933953975,0.0,0.0,0.0,0.0,0.0,0.0,0.0,0.0,0.0058507208251953,0.0,0.0,0.0239063415527344
0.8000019073486331,0.05763085559010506,-0.02351975254714489,0.204513818025589,0.15761507386959506,0.051597369942358765,-0.0648596639040557,0.05763085559010506,-0.02351975254714489,0.19738928281037313,0.15761507386959506,0.051597369942358765,-0.09192864071907704,0.06263966084003414,-0.005462670483259657,0.011426995442166188,0.04599824547767639,-0.15937979519367218,0.005680379457771798,0.0,-1.148226880638472,-0.1256942028082576,12.736845271734595,0.0,0.0,0.0,0.0,0.0,0.0071245352152158724,0.0,0.0,0.027068976815021337,0.0,0.0,0.0,0.0,0.0,0.0,0.0,0.0,0.0071244835853576,0.0,0.0,0.0270688533782959
0.8500019073486331,0.0663362592458725,-0.021288186311721802,0.19991664588451385,0.17639553895185625,0.052997244724522996,-0.10968195697516324,0.0663362592458725,-0.021288186311721802,0.19135658794867635,0.17639553895185625,0.052997244724522996,-0.14005708572129402,0.06339829830791022,-0.01847427850766392,0.008769437277066139,0.07411928474903107,-0.18544378876686096,-0.02603838779032228,0.0,-1.288320662647708,-0.1499524256146642,13.063380136125774,0.0,0.0,0.0,0.0,0.0,0.008560057935837511,0.0,0.0,0.03037512874613079,0.0,0.0,0.0,0.0,0.0,0.0,0.0,0.0,0.00856,0.0,0.0,0.030375
0.9000019073486332,0.0757715031504631,-0.019127389416098595,0.19365082681179047,0.18701424251305018,0.05455821688079966,-0.12224553583215635,0.0757715031504631,-0.019127389416098595,0.18348653251935854,0.18701424251305018,0.05455821688079966,-0.15606159324321234,0.07023650256781488,-0.02443265196478972,0.013534894204294545,0.058287765830755234,-0.19601953029632568,-0.018575761467218375,0.0,-1.4224827651736365,-0.16682258530320646,13.267219318199412,0.0,0.0,0.0,0.0,0.0,0.010164294292431939,0.0,0.0,0.033816057411056005,0.0,0.0,0.0,0.0,0.0,0.0,0.0,0.0,0.0101642297935486,0.0,0.0,0.0338159236907959
0.9500019073486332,0.0858498364686966,-0.0167609341442585,0.18733984231948853,0.21194065513791296,0.0631615215976328,-0.12399371976097877,0.0858498364686966,-0.0167609341442585,0.17539607777982094,0.21194065513791296,0.0631615215976328,-0.16137676217806524,0.06236551601195872,-0.03346617843013622,0.009845646374431638,-0.10663706809282303,-0.007530185859650379,-0.03973093256354332,0.0,-1.5378432244111686,-0.18838437003742525,13.383402549019866,0.0,0.0,0.0,0.0,0.0,0.011943764539667593,0.0,0.0,0.03738304241708647,0.0,0.0,0.0,0.0,0.0,0.0,0.0,0.0,0.0119436932373047,0.0,0.0,0.0373829040527344
1.0000019073486333,0.09874466806650162,-0.01132552046328783,0.18295079469680786,0.2597529665757677,0.1070818997274244,-0.1003234104340817,0.09874466806650162,-0.01132552046328783,0.16904623835100294,0.2597529665757677,0.1070818997274244,-0.14139091113469493,0.044172331140401866,-0.019450112155757093,0.0028269926124178113,-0.6213107109069824,0.4078621566295624,-0.13383178412914282,0.0,-1.7005104168477638,-0.2333269213755162,13.457539433180637,0.0,0.0,0.0,0.0,0.0,0.013904556345804914,0.0,0.0,0.04106750070061321,0.0,0.0,0.0,0.0,0.0,0.0,0.0,0.0,0.0139044780158996,0.0,0.0,0.0410673580169678
1.0500019073486333,0.10975665599107742,-0.007177609950304031,0.18330295383930206,0.1964944208090272,0.056166453499314435,0.049660870687432065,0.10975665599107742,-0.007177609950304031,0.1672506221801506,0.1964944208090272,0.056166453499314435,0.004799884160303254,0.047123979828587625,-0.007183006649179369,0.00464806864614431,0.20460858941078186,-0.12023644149303436,-0.025755552574992166,0.0,-2.0118393831632684,-0.4127128682927132,13.693108907066918,0.0,0.0,0.0,0.0,0.0,0.01605233165915145,0.0,0.0,0.04486098652712881,0.0,0.0,0.0,0.0,0.0,0.0,0.0,0.0,0.01605224609375,0.0,0.0,0.04486083984375
1.1000019073486333,0.11824931204319,-0.004946178290992975,0.18608543276786804,0.17422879856003284,0.05919973767019178,0.07942203205584886,0.11824931204319,-0.004946178290992975,0.16769309919335113,0.17422879856003284,0.05919973767019178,0.030666840564621406,0.04922213876999404,-0.028723435088160443,0.005211371134028475,0.2849297523498535,-0.445211797952652,-0.0005224477499722889,0.0,-1.5746771234803707,-0.23047795086147546,12.367692073350403,0.0,0.0,0.0,0.0,0.0,0.018392333574516903,0.0,0.0,0.04875519149122745,0.0,0.0,0.0,0.0,0.0,0.0,0.0,0.0,0.0183922405815124,0.0,0.0,0.0487550411224364
1.1500019073486334,0.12627875804901123,-0.0027639137115329504,0.1890074461698532,0.1880706728346591,0.06700368194600384,0.04190609154988409,0.12627875804901123,-0.0027639137115329504,0.16807805297018497,0.1880706728346591,0.06700368194600384,-0.010835852966720745,0.06525725578680897,-0.046014294402551226,0.006569454675179998,0.25361618399620056,-0.3795345425605774,0.024543404579162643,0.0,-1.4994441263898042,-0.2442812635773971,12.295208988030884,0.0,0.0,0.0,0.0,0.0,0.020929393199668234,0.0,0.0,0.052741944516604834,0.0,0.0,0.0,0.0,0.0,0.0,0.0,0.0,0.0209292926025389,0.0,0.0,0.0527417907714842
1.2000019073486334,0.1351935714483261,0.00029206203180365264,0.18962348997592926,0.19282697873082716,0.07620933610889842,0.017293280524816428,0.1351935714483261,0.00029206203180365264,0.16595555345414453,0.19282697873082716,0.07620933610889842,-0.03951993133124181,0.07444296938585282,-0.06053652607051152,0.011566832623117307,-0.08847307413816452,-0.12476018816232681,0.008030148223042504,0.0,-1.7707488957436177,-0.30850445579640806,12.737943254852636,0.0,0.0,0.0,0.0,0.0,0.023667936521784717,0.0,0.0,0.05681321185605824,0.0,0.0,0.0,0.0,0.0,0.0,0.0,0.0,0.0236678281593321,0.0,0.0,0.0568130550384519
1.2500019073486335,0.1450958102941513,0.004836049862205982,0.18991437554359436,0.19650507559289054,0.10181486908149537,3.293170176925385e-05,0.1450958102941513,0.004836049862205982,0.16330238426968133,0.19650507559289054,0.10181486908149537,-0.06092816538971728,0.05908808774607932,-0.06173299930190623,0.00887519888736854,-0.051997967064380646,-0.1353529691696167,-0.03242039307951926,0.0,-1.8973123283620408,-0.3608006282864513,13.09819809804591,0.0,0.0,0.0,0.0,0.0,0.026611991273913036,0.0,0.0,0.06096109709148653,0.0,0.0,0.0,0.0,0.0,0.0,0.0,0.0,0.0266118749999997,0.0,0.0,0.0609609374999996
1.3000019073486335,0.1538163721561432,0.009048506617546082,0.18995334208011627,0.1875185258425294,0.09655088514743189,0.0005226369463675241,0.1538163721561432,0.009048506617546082,0.16018814827869393,0.1875185258425294,0.09655088514743189,-0.0646552041875226,0.06369382915222133,-0.0693307493150237,0.005087119765273762,-0.03199439495801926,-0.1291256695985794,-0.010894706472754463,0.0,-2.058355102898917,-0.4741220071092328,13.247054659693008,0.0,0.0,0.0,0.0,0.0,0.029765193801422347,0.0,0.0,0.06517784113389012,0.0,0.0,0.0,0.0,0.0,0.0,0.0,0.0,0.0297650694847103,0.0,0.0,0.0651776790618892
1.3500019073486336,0.1617281287908554,0.012983255088329315,0.1906868815422058,0.17038109947428765,0.08898313970915776,0.02296959772971735,0.1617281287908554,0.012983255088329315,0.1575560856137464,0.17038109947428765,0.08898313970915776,-0.0464862244936536,0.06303985795858003,-0.07782862932371337,0.0035895715588889487,0.10563555359840393,-0.11754437536001205,-0.024279981851577745,0.0,-2.032383727566904,-0.46693218774911954,13.230832189992453,0.0,0.0,0.0,0.0,0.0,0.0331307959284594,0.0,0.0,0.06945582222337095,0.0,0.0,0.0,0.0,0.0,0.0,0.0,0.0,0.033130663452148,0.0,0.0,0.0694556579589839
1.4000019073486336,0.16905538737773895,0.01647331379354,0.19222652912139893,0.15972366318723405,0.08834906507204367,0.03636736515327298,0.16905538737773895,0.01647331379354,0.1555148572969954,0.15972366318723405,0.08834906507204367,-0.037420190775859584,0.06872154072966952,-0.0853405889285681,0.00450952125205184,0.17339853942394257,-0.15383368730545044,0.005224820692092199,0.0,-2.003221130876189,-0.4577839762322688,13.069373831568967,0.0,0.0,0.0,0.0,0.0,0.03671167182440352,0.0,0.0,0.07378755592913257,0.0,0.0,0.0,0.0,0.0,0.0,0.0,0.0,0.0367115310859675,0.0,0.0,0.0737873897552484
1.4500019073486337,0.17532354593276978,0.019369276240468025,0.19378748536109924,0.1386565532555624,0.08799736856606925,0.03856626924534433,0.17532354593276978,0.019369276240468025,0.15327716049077744,0.1386565532555624,0.08799736856606925,-0.039599425904135746,0.07957541847799376,-0.09149907673105151,0.00886296364038408,0.10631658136844635,-0.12420516461133957,-0.008103216998279079,0.0,-2.0788738114757193,-0.4856947390955843,13.389889088726012,0.0,0.0,0.0,0.0,0.0,0.04051032487032181,0.0,0.0,0.07816569514948007,0.0,0.0,0.0,0.0,0.0,0.0,0.0,0.0,0.0405101757812493,0.0,0.0,0.0781655273437493
1.5000019073486337,0.1800510287284851,0.022215861827135086,0.19556324183940887,0.12740140874135672,0.08968206620804522,0.04692286357647145,0.1800510287284851,0.022215861827135086,0.15103434731398474,0.12740140874135672,0.08968206620804522,-0.035660166535348675,0.09134940171108896,-0.0982500862270097,0.011124551641993108,0.0899013876914978,-0.15673725306987762,0.04480886459350588,0.0,-1.984118952165507,-0.4834268136081936,13.061308208520916,0.0,0.0,0.0,0.0,0.0,0.044528894525424134,0.0,0.0,0.08258303011182012,0.0,0.0,0.0,0.0,0.0,0.0,0.0,0.0,0.044528737010955,0.0,0.0,0.0825828609466545
1.5500019073486337,0.18523335456848145,0.025746235623955727,0.19748684763908386,0.1003864397512316,0.08028416260314857,0.04726741192404934,0.18523335456848145,0.025746235623955727,0.14871768444556563,0.1003864397512316,0.08028416260314857,-0.03976507644861162,0.09528463591499392,-0.10749146076698546,0.014796091374515541,0.12260030210018158,-0.09195853024721146,0.04448571801185609,0.0,-2.0026390139219075,-0.5065835740618674,13.225337634443544,0.0,0.0,0.0,0.0,0.0,0.04876916319351824,0.0,0.0,0.08703248837266096,0.0,0.0,0.0,0.0,0.0,0.0,0.0,0.0,0.0487689971923819,0.0,0.0,0.0870323181152334
1.6000019073486338,0.18853682279586792,0.028080565854907036,0.19902412593364716,0.08761084615262989,0.07754379172840821,0.04778727455981848,0.18853682279586792,0.028080565854907036,0.14579156284418238,0.08761084615262989,0.07754379172840821,-0.04371986025779379,0.0991568562077556,-0.10691876051025018,0.016234951784414697,0.09898367524147034,-0.03830748796463012,0.04748200252652169,0.0,-2.0022421872763196,-0.5012256236671564,13.354543832675088,0.0,0.0,0.0,0.0,0.0,0.05323256308946479,0.0,0.0,0.09150713481761227,0.0,0.0,0.0,0.0,0.0,0.0,0.0,0.0,0.0532323885536183,0.0,0.0,0.0915069637298574
1.6500019073486338,0.19227845966815948,0.03082275204360485,0.20083530247211456,0.06550087957769331,0.06639005279439315,0.05222075767728316,0.19227845966815948,0.03082275204360485,0.14291511936648202,0.06550087957769331,0.06639005279439315,-0.04377941398410241,0.0943215470568104,-0.11521592204018472,0.018775920131398394,0.07302919030189514,-0.016932127997279164,0.03193541243672371,0.0,-1.9944323408606959,-0.5046010090057722,13.434148849460593,0.0,0.0,0.0,0.0,0.0,0.05792018310563255,0.0,0.0,0.09600017166138557,0.0,0.0,0.0,0.0,0.0,0.0,0.0,0.0,0.0579199999999988,0.0,0.0,0.0959999999999989
1.7000019073486339,0.19421520829200745,0.032460037618875504,0.20220425724983215,0.0481249155544249,0.06126957954772982,0.05388824454773792,0.19421520829200745,0.032460037618875504,0.13937148157147883,0.0481249155544249,0.06126957954772982,-0.046616693900055704,0.10866529562106875,-0.10929805992493424,0.020999730719204024,0.0011623918544501066,-0.02386829815804958,0.040639664977788925,0.0,-1.9604334930938425,-0.4829130268751988,13.405673979978486,0.0,0.0,0.0,0.0,0.0,0.06283277567835333,0.0,0.0,0.10050493844779362,0.0,0.0,0.0,0.0,0.0,0.0,0.0,0.0,0.0628325839805589,0.0,0.0,0.1005047664642322
1.750001907348634,0.19529522955417633,0.0342940092086792,0.20368817448616028,0.018134176041864264,0.05099982629137139,0.05931744392751602,0.19529522955417633,0.0342940092086792,0.13571741083178313,0.018134176041864264,0.05099982629137139,-0.04569746812223492,0.10600544051793381,-0.10775138213966695,0.02305139754657226,-0.06311310827732086,0.06066285818815232,0.046513434499502175,0.0,-1.8816178032351663,-0.466437881937945,13.307137188503855,0.0,0.0,0.0,0.0,0.0,0.06797076365437714,0.0,0.0,0.10501491204975094,0.0,0.0,0.0,0.0,0.0,0.0,0.0,0.0,0.0679705633544907,0.0,0.0,0.1050147399902331
1.800001907348634,0.19572721421718597,0.03563830256462097,0.20521317422389984,0.0013647261308668735,0.0449770679939071,0.06122872809517073,0.19572721421718597,0.03563830256462097,0.13187892706657262,0.0013647261308668735,0.0449770679939071,-0.04829497857410288,0.0990088809270353,-0.10558065313352749,0.022170018518884227,-0.054157957434654236,0.05639539286494255,0.01613026857376098,0.0,-1.9919874370165418,-0.4808458952418617,13.995314868811201,0.0,0.0,0.0,0.0,0.0,0.07333424715732724,0.0,0.0,0.10952370666927361,0.0,0.0,0.0,0.0,0.0,0.0,0.0,0.0,0.0733340382575972,0.0,0.0,0.1095235347747788
1.850001907348634,0.19492724537849426,0.036875974386930466,0.2078438103199005,-0.02562620652398786,0.028019560843263815,0.11151716441640205,0.19492724537849426,0.036875974386930466,0.12892079986574523,-0.02562620652398786,0.028019560843263815,-0.0025079094210770647,0.09835848254694568,-0.10311861361636332,0.025528740763524738,0.020996050909161568,0.06864802539348602,0.01354315970093011,0.0,-2.348922345071109,-0.5481096099347397,15.41824182496218,0.0,0.0,0.0,0.0,0.0,0.07892301045415527,0.0,0.0,0.11402507383747912,0.0,0.0,0.0,0.0,0.0,0.0,0.0,0.0,0.0789227929687481,0.0,0.0,0.1140249023437485
1.900001907348634,0.1930110603570938,0.03706458583474159,0.21326225996017456,-0.04381353102944805,0.028599248788586953,0.15977284212909024,0.1930110603570938,0.03706458583474159,0.1285257311385783,-0.04381353102944805,0.028599248788586953,0.04125993971450352,0.10234449666538703,-0.09966527139915993,0.026714466588955155,-0.0662045031785965,0.07836611568927765,0.023165103048086156,0.0,-1.3011900816960835,-0.3127785741311558,11.944504629017896,0.0,0.0,0.0,0.0,0.0,0.08473652882159627,0.0,0.0,0.11851290241458672,0.0,0.0,0.0,0.0,0.0,0.0,0.0,0.0,0.0847363027763346,0.0,0.0,0.1185127315521224
1.950001907348634,0.19076845049858093,0.037163473665714264,0.21798330545425415,-0.057141576690198176,0.017298640811385078,0.11297433475179929,0.19076845049858093,0.037163473665714264,0.12720933004163043,-0.057141576690198176,0.017298640811385078,-0.010006883838117833,0.09521788566578016,-0.09215415798294568,0.024377583091826693,-0.05549563467502594,0.22947585582733154,-0.01277466583997014,0.0,-0.957720353214945,-0.2653633104330052,11.07904397433476,0.0,0.0,0.0,0.0,0.0,0.09077397541262373,0.0,0.0,0.12298121858991712,0.0,0.0,0.0,0.0,0.0,0.0,0.0,0.0,0.0907737408447242,0.0,0.0,0.1229810485839827
2.000001907348634,0.1888830065727234,0.03675083443522453,0.21809975802898407,-0.06589542292488522,0.006429731185945989,0.029937396330826708,0.1888830065727234,0.03675083443522453,0.1210655299060793,-0.06589542292488522,0.006429731185945989,-0.09748678955106585,0.09233223420735337,-0.07610343708980771,0.023675907459546508,-0.019282998517155647,0.3104836940765381,-0.009221768006682434,0.0,-1.500583953426746,-0.34137974083980754,13.09954433668777,0.0,0.0,0.0,0.0,0.0,0.09703422812290477,0.0,0.0,0.12742418588189255,0.0,0.0,0.0,0.0,0.0,0.0,0.0,0.0,0.0970339850807164,0.0,0.0,0.1274240169525129
2.050001907348634,0.18654564023017883,0.035936713218688965,0.2147601991891861,-0.09317176942816267,-0.005852553477980911,-0.029355795749366653,0.18654564023017883,0.035936713218688965,0.11124432273193091,-0.09317176942816267,-0.005852553477980911,-0.16119190088740354,0.09172747644797585,-0.06689226577915752,0.021795226583818383,-0.07097060978412628,0.21592867374420166,0.00850230269134042,0.0,-1.7392590234651202,-0.3514109051267933,14.17895050483313,0.0,0.0,0.0,0.0,0.0,0.10351587645725518,0.0,0.0,0.1318361051380369,0.0,0.0,0.0,0.0,0.0,0.0,0.0,0.0,0.1035156249999972,0.0,0.0,0.1318359374999982
2.100001907348634,0.18317586183547974,0.03463508188724518,0.21173103153705597,-0.10576703479617716,-0.011786372430686781,-0.01289485427743449,0.18317586183547974,0.03463508188724518,0.10151380314096153,-0.10576703479617716,-0.011786372430686781,-0.14910626881241001,0.0855706064051116,-0.0616217289867258,0.021589623630369204,-0.04382956400513649,0.04139061272144318,0.038433205336332314,0.0,-1.8609338298075921,-0.34869804497265905,15.143611916423305,0.0,0.0,0.0,0.0,0.0,0.11021722839609444,0.0,0.0,0.1362114145349755,0.0,0.0,0.0,0.0,0.0,0.0,0.0,0.0,0.1102169685935944,0.0,0.0,0.1362112483978252
2.1500019073486336,0.17913639545440674,0.033067937940359116,0.21188734471797943,-0.11436411856770001,-0.0202844680438676,0.08457341950157116,0.17913639545440674,0.033067937940359116,0.09475102745607863,-0.11436411856770001,-0.0202844680438676,-0.05597127007686434,0.08073992001672181,-0.0628982092191599,0.022935009480892887,-0.004785389639437199,-0.011817339807748793,0.02078559622168541,0.0,-1.5530657151243632,-0.27699823927420997,14.23360901278355,0.0,0.0,0.0,0.0,0.0,0.1171363172619008,0.0,0.0,0.1405446895784355,0.0,0.0,0.0,0.0,0.0,0.0,0.0,0.0,0.1171360491943327,0.0,0.0,0.1405445251464824
2.2000019073486334,0.1751794070005417,0.031111665070056915,0.21453741192817688,-0.11827682566772686,-0.020885537913212293,0.10505991727685736,0.1751794070005417,0.031111665070056915,0.0902665033425104,-0.11827682566772686,-0.020885537913212293,-0.03977072582638792,0.08255449937776094,-0.06476470996570427,0.02327961076303353,-0.034723859280347824,0.004728893749415873,-0.014865977689623833,0.0,-1.3315288631713702,-0.22149028343999466,13.614588584470846,0.0,0.0,0.0,0.0,0.0,0.12427090858566647,0.0,0.0,0.14483064310324528,0.0,0.0,0.0,0.0,0.0,0.0,0.0,0.0,0.1242706323432888,0.0,0.0,0.1448304805755595
2.2500019073486333,0.17133267223834991,0.0292549766600132,0.2176700383424759,-0.10980249698666426,-0.022111110820037066,0.10884592107567263,0.17133267223834991,0.0292549766600132,0.08605153136912325,-0.10980249698666426,-0.022111110820037066,-0.04021820419766227,0.08363113630779306,-0.06637034761497684,0.02260893416462295,-0.07000308483839035,0.08037533611059189,0.02218078076839446,0.0,-1.2652233611647428,-0.20666056822821693,13.408765736737585,0.0,0.0,0.0,0.0,0.0,0.13161850697335264,0.0,0.0,0.1490641252733349,0.0,0.0,0.0,0.0,0.0,0.0,0.0,0.0,0.1316182226562463,0.0,0.0,0.1490639648437479
2.300001907348633,0.1685144156217575,0.028135176748037338,0.22029517590999603,-0.10953589810508463,-0.019128289857126852,0.1008345440845908,0.1685144156217575,0.028135176748037338,0.08111881293765155,-0.10953589810508463,-0.019128289857126852,-0.05240557949714536,0.08148272804273615,-0.06414414163219995,0.022994225757239306,-0.10445988178253174,0.0917767807841301,-0.019945211708545695,0.0,-1.3225731898416448,-0.20494965647259544,13.514493050828229,0.0,0.0,0.0,0.0,0.0,0.13917636297234448,0.0,0.0,0.15324012358173617,0.0,0.0,0.0,0.0,0.0,0.0,0.0,0.0,0.1391760706901511,0.0,0.0,0.1532399654388405
2.350001907348633,0.16466107964515686,0.02607603184878826,0.22288432717323303,-0.11588884136355394,-0.03207081809903083,0.08861473333945194,0.16466107964515686,0.02607603184878826,0.07594284723532665,-0.11588884136355394,-0.03207081809903083,-0.06873902951113028,0.06935554713560643,-0.054426556112574076,0.017567966256201828,-0.023500902578234673,0.055024441331624985,-0.01897325180470944,0.0,-1.314444285290588,-0.20832775017481325,13.437153137633832,0.0,0.0,0.0,0.0,0.0,0.14694147993790638,0.0,0.0,0.15735376285058222,0.0,0.0,0.0,0.0,0.0,0.0,0.0,0.0,0.146941179809566,0.0,0.0,0.1573536071777322
2.4000019073486327,0.1614678055047989,0.02394315041601658,0.2248481661081314,-0.11699151929059759,-0.03046847871145525,0.08013328722185684,0.1614678055047989,0.02394315041601658,0.06993754520849468,-0.11699151929059759,-0.03046847871145525,-0.08126701800925099,0.07258507959936589,-0.0575670327124822,0.017839088849028073,-0.022639168426394463,0.057283151894807816,-0.02729849517345429,0.0,-1.209410900743507,-0.14598150489626419,13.30432940296646,0.0,0.0,0.0,0.0,0.0,0.15491062089963673,0.0,0.0,0.16140030523110782,0.0,0.0,0.0,0.0,0.0,0.0,0.0,0.0,0.1549103130531265,0.0,0.0,0.1614001522064186
2.4500019073486325,0.15868578851222992,0.022055242210626602,0.22540400922298431,-0.10683386241474414,-0.03963528814444548,0.055278798260411634,0.15868578851222992,0.022055242210626602,0.06232369379506089,-0.10683386241474414,-0.03963528814444548,-0.11009635194323775,0.0667806508032851,-0.05207659748776816,0.01664511110298328,-0.008517534472048283,0.06984567642211914,-0.03408611565828324,0.0,-1.2435080496083866,-0.1526700555592726,13.534877443939193,0.0,0.0,0.0,0.0,0.0,0.16308031542792342,0.0,0.0,0.16537515020364937,0.0,0.0,0.0,0.0,0.0,0.0,0.0,0.0,0.1630799999999951,0.0,0.0,0.1653749999999977
2.5000019073486324,0.15607309341430664,0.020330902189016342,0.2257544845342636,-0.10973790691139712,-0.0315293702859834,0.050443187187192526,0.15607309341430664,0.020330902189016342,0.05430761803386508,-0.10973790691139712,-0.0315293702859834,-0.11883064739045225,0.06677127601874,-0.04157545383614725,0.013874209999363174,-0.07006374001502991,0.029899610206484795,-0.002517863875254992,0.0,-1.3502341378402494,-0.13277680832753075,13.949915265650304,0.0,0.0,0.0,0.0,0.0,0.17144686650039853,0.0,0.0,0.16927383457764478,0.0,0.0,0.0,0.0,0.0,0.0,0.0,0.0,0.1714465436363169,0.0,0.0,0.1692736873626685
2.550001907348632,0.15397068858146667,0.019116077572107315,0.22606328129768372,-0.1042728247559346,-0.03160927730386733,0.060452358697957426,0.15397068858146667,0.019116077572107315,0.04605692392928995,-0.1042728247559346,-0.03160927730386733,-0.11263967379367609,0.06309585992472044,-0.0427843590777357,0.015107799625630136,-0.03669413924217224,0.0029140124097466477,0.00806049071252346,0.0,-1.3766869074650077,-0.1610823135436291,14.19585642439962,0.0,0.0,0.0,0.0,0.0,0.18000635736839377,0.0,0.0,0.17309203249163352,0.0,0.0,0.0,0.0,0.0,0.0,0.0,0.0,0.1800060272216743,0.0,0.0,0.173091888427732
2.600001907348632,0.1516229212284088,0.01761823520064354,0.22722741961479187,-0.10013254401319034,-0.02948519727558942,0.06966366111786047,0.1516229212284088,0.01761823520064354,0.038472761191396726,-0.10013254401319034,-0.02948519727558942,-0.10716189429539603,0.05999401549571948,-0.04456643259658044,0.013800706955371389,-0.04685395583510399,-0.03714636340737343,-0.027964755892753598,0.0,-1.4223202689383325,-0.16526902259142146,14.374336790013238,0.0,0.0,0.0,0.0,0.0,0.18875465842339514,0.0,0.0,0.1768255554132565,0.0,0.0,0.0,0.0,0.0,0.0,0.0,0.0,0.1887543211555424,0.0,0.0,0.1768254146575903
2.650001907348632,0.14947444200515747,0.01637125201523304,0.23005083203315735,-0.08983073593151532,-0.026518304781690916,0.10674471808421356,0.14947444200515747,0.01637125201523304,0.03236339796965901,-0.08983073593151532,-0.026518304781690916,-0.07372563405504294,0.0608321741825244,-0.045653614727475755,0.014038311556257455,-0.04409140720963478,-0.060765255242586136,0.00673173042014242,0.0,-1.4842122122643246,-0.1785068849617346,14.52262408690183,0.0,0.0,0.0,0.0,0.0,0.19768743406349834,0.0,0.0,0.1804703521392565,0.0,0.0,0.0,0.0,0.0,0.0,0.0,0.0,0.197687089843744,0.0,0.0,0.1804702148437476
2.7000019073486317,0.14745882153511047,0.015624974854290485,0.23396338522434235,-0.09199128646406622,-0.02413949780453731,0.12496033427038167,0.14745882153511047,0.015624974854290485,0.02716323566447859,-0.09199128646406622,-0.02413949780453731,-0.05906217452509588,0.05949595144807862,-0.04845187694853692,0.013029642142202036,0.05275312811136246,-0.11736663430929184,-0.010648742318153367,0.0,-1.4923428967332675,-0.1833575336738155,14.365120762528043,0.0,0.0,0.0,0.0,0.0,0.20680014955986376,0.0,0.0,0.18402250879547755,0.0,0.0,0.0,0.0,0.0,0.0,0.0,0.0,0.2067997985649046,0.0,0.0,0.184022375106809
2.7500019073486315,0.14591708779335022,0.014916985295712948,0.23833493888378143,-0.07147820195769601,-0.02291091769188686,0.16916603348967607,0.14591708779335022,0.014916985295712948,0.022246860960609904,-0.07147820195769601,-0.02291091769188686,-0.018312215347189353,0.06337097686794113,-0.051838915755614945,0.014350248857735615,-0.014154878444969654,-0.04401933029294014,-0.0023593236692249723,0.0,-1.472145866548777,-0.18686713923322507,14.131482178093544,0.0,0.0,0.0,0.0,0.0,0.21608807792317153,0.0,0.0,0.18747824883686542,0.0,0.0,0.0,0.0,0.0,0.0,0.0,0.0,0.2160877203369074,0.0,0.0,0.1874781188964819
2.8000019073486313,0.1443263292312622,0.014862224459648132,0.2456534206867218,-0.07207508942154053,-0.014955258111393314,0.17728045178597715,0.1443263292312622,0.014862224459648132,0.02010711391664527,-0.07207508942154053,-0.014955258111393314,-0.013553481261490197,0.0658747255620904,-0.057637406223296495,0.01565211168068359,0.006524614989757538,-0.07537943869829178,-0.04902175068855285,0.0,-1.5159390645376525,-0.1877371579980069,13.833499523174565,0.0,0.0,0.0,0.0,0.0,0.22554630677007653,0.0,0.0,0.19083393304746735,0.0,0.0,0.0,0.0,0.0,0.0,0.0,0.0,0.2255459427833487,0.0,0.0,0.1908338069915747
2.850001907348631,0.1432304084300995,0.014949397183954716,0.2520942986011505,-0.06204790603356564,-0.011948015627346488,0.17489383248688511,0.1432304084300995,0.014949397183954716,0.01692455341148691,-0.06204790603356564,-0.011948015627346488,-0.019192227053547173,0.0675631169626687,-0.057167799917756223,0.01617864343513631,-0.002476460998877883,-0.027129849418997765,0.002609129529446367,0.0,-1.5155584045428878,-0.21213398950210466,13.785302924505041,0.0,0.0,0.0,0.0,0.0,0.2351697451896636,0.0,0.0,0.1940860595404323,0.0,0.0,0.0,0.0,0.0,0.0,0.0,0.0,0.2351693749999927,0.0,0.0,0.1940859374999976
2.900001907348631,0.14212362468242645,0.015027988702058792,0.25739815831184387,-0.06595966426751218,-0.01633039818743085,0.17284153631441315,0.14212362468242645,0.015027988702058792,0.012445027701941225,-0.06595966426751218,-0.01633039818743085,-0.02438972744359738,0.0702494062167518,-0.06625808549601198,0.014035066645877947,0.0709991380572319,-0.043167974799871445,0.00908147264271975,0.0,-1.4511447134447388,-0.2026090220047671,13.57640367771123,0.0,0.0,0.0,0.0,0.0,0.24495313060990265,0.0,0.0,0.19723126375801053,0.0,0.0,0.0,0.0,0.0,0.0,0.0,0.0,0.2449527544212265,0.0,0.0,0.1972311458587622
2.9500019073486308,0.1411188691854477,0.015273986384272575,0.26292702555656433,-0.059591405732881145,-0.007569797313324073,0.14899267166693553,0.1411188691854477,0.015273986384272575,0.008035989892461015,-0.059591405732881145,-0.007569797313324073,-0.0512736468046186,0.0630005694768645,-0.06278289972731388,0.014062079908550018,-0.016045063734054565,0.020022023469209668,-0.021897474303841594,0.0,-1.4588745454973984,-0.1930319336247286,13.711830614438913,0.0,0.0,0.0,0.0,0.0,0.2548910356641033,0.0,0.0,0.20026631847155413,0.0,0.0,0.0,0.0,0.0,0.0,0.0,0.0,0.2548906536865155,0.0,0.0,0.200266204833982
3.0000019073486306,0.14008958637714386,0.015641232952475548,0.2675342261791229,-0.06161176819815384,-0.004085953190035683,0.1364221395696226,0.14008958637714386,0.015641232952475548,0.0025563511217518986,-0.06161176819815384,-0.004085953190035683,-0.06676599421189383,0.07062424244183951,-0.05980240878119858,0.01607907307482037,0.012826429679989815,-0.013426801189780235,-0.00456698704510927,0.0,-1.5652993024349537,-0.23505359884852928,14.067361237485178,0.0,0.0,0.0,0.0,0.0,0.264977875057371,0.0,0.0,0.20318813378151643,0.0,0.0,0.0,0.0,0.0,0.0,0.0,0.0,0.2649774875068581,0.0,0.0,0.2031880245208718
3.0500019073486304,0.13919369876384735,0.01610441692173481,0.2719595730304718,-0.061233257584924206,-0.0009114199757294748,0.13267660289001776,0.13919369876384735,0.01610441692173481,-0.0032483394025887846,-0.061233257584924206,-0.0009114199757294748,-0.07331715422743507,0.07016843450581423,-0.06011731158440092,0.01949507762788638,-0.02086496166884899,0.0017507908632978795,-0.0010859873145818712,0.0,-1.6330643880543205,-0.25999757294840686,14.342818889276412,0.0,0.0,0.0,0.0,0.0,0.2752079124330606,0.0,0.0,0.20599375711745282,0.0,0.0,0.0,0.0,0.0,0.0,0.0,0.0,0.2752075195312414,0.0,0.0,0.2059936523437477
3.1000019073486302,0.13785320520401,0.01668824627995491,0.27693185210227966,-0.06113307763963559,0.002603554255996152,0.1445084971331786,0.13785320520401,0.01668824627995491,-0.008643415136953159,-0.06113307763963559,0.002603554255996152,-0.06417187610484126,0.06819776006399891,-0.058673130416226016,0.0143963621482186,-1.6218982636928558e-06,-0.035024490207433694,0.033044438809156425,0.0,-1.6968139545343177,-0.28298213820924856,14.57731309677453,0.0,0.0,0.0,0.0,0.0,0.2855752672392328,0.0,0.0,0.20868037323801986,0.0,0.0,0.0,0.0,0.0,0.0,0.0,0.0,0.2855748692130953,0.0,0.0,0.2086802730560281
3.15000190734863,0.1366027593612671,0.017654653638601303,0.28245824575424194,-0.05994101227792036,0.012894795665010594,0.17181867496132733,0.1366027593612671,0.017654653638601303,-0.013615675840866481,-0.05994101227792036,0.012894795665010594,-0.03942662926964838,0.06484645254399224,-0.06204864125760956,0.01770360944079208,-0.048774924129247665,-0.05973919853568077,0.016403391957283027,0.0,-1.7278780457593303,-0.30261892892019904,14.638641667704373,0.0,0.0,0.0,0.0,0.0,0.2960739215951084,0.0,0.0,0.2112453042309757,0.0,0.0,0.0,0.0,0.0,0.0,0.0,0.0,0.2960735186767485,0.0,0.0,0.2112452087402321
3.20000190734863,0.13475868105888367,0.018729204311966896,0.2894757390022278,-0.06281843853409833,0.008023315395738233,0.19084046833963983,0.13475868105888367,0.018729204311966896,-0.017221988155296075,-0.06281843853409833,0.008023315395738233,-0.022845541173540374,0.06809848989681333,-0.06499107754974887,0.018382543157371423,0.03575078025460243,-0.06695354729890823,-0.04509330540895461,0.0,-1.7318163505786226,-0.33946636625974785,14.503736675926776,0.0,0.0,0.0,0.0,0.0,0.30669772715752386,0.0,0.0,0.2136860095131802,0.0,0.0,0.0,0.0,0.0,0.0,0.0,0.0,0.3066973195838831,0.0,0.0,0.2136859188079811
3.2500019073486297,0.1327567994594574,0.019405601546168327,0.2969995141029358,-0.06491716031404762,0.008066910225381363,0.2148335212859633,0.1327567994594574,0.019405601546168327,-0.020440897884450138,-0.06491716031404762,0.008066910225381363,-0.0011665645446311823,0.06269084659015212,-0.06701699122634253,0.016486854799058648,0.06603126227855682,-0.0839402824640274,0.02164100855588914,0.0,-1.739422228037969,-0.3317548163188952,14.391468649325697,0.0,0.0,0.0,0.0,0.0,0.31744041198738593,0.0,0.0,0.2160000858305945,0.0,0.0,0.0,0.0,0.0,0.0,0.0,0.0,0.31743999999999,0.0,0.0,0.2159999999999979
3.3000019073486295,0.1301630288362503,0.019977636635303497,0.3051648736000061,-0.07365303431585261,0.00789445777155927,0.21449707803330917,0.1301630288362503,0.019977636635303497,-0.023130713816120974,-0.07365303431585261,0.00789445777155927,-0.0036881892249727155,0.07323728672487606,-0.06755231463135214,0.019245999726638097,0.07224129885435104,-0.0656498447060585,0.04407052695751191,0.0,-1.619238946816304,-0.3133834153552282,13.884579654975074,0.0,0.0,0.0,0.0,0.0,0.3282955874161271,0.0,0.0,0.21818526725828188,0.0,0.0,0.0,0.0,0.0,0.0,0.0,0.0,0.3282951712608235,0.0,0.0,0.2181851863861064
3.3500019073486293,0.12727941572666168,0.02075282856822014,0.3131239116191864,-0.07597230455966983,0.01827845281463804,0.19584414583765702,0.12727941572666168,0.02075282856822014,-0.026132843292974384,-0.07597230455966983,0.01827845281463804,-0.024395279362749406,0.07349376323746526,-0.07283226321299185,0.021463931687268456,-0.0038064729887992144,-0.02665535174310207,0.03873685002326965,0.0,-1.5291749463250142,-0.3024701375363577,13.714085544170867,0.0,0.0,0.0,0.0,0.0,0.3392567549121608,0.0,0.0,0.22023942520040643,0.0,0.0,0.0,0.0,0.0,0.0,0.0,0.0,0.3392563348388565,0.0,0.0,0.2202393493652325
3.400001907348629,0.12397248297929764,0.02156107872724533,0.3198806345462799,-0.08174600761659491,0.01823393358345469,0.17556364495103657,0.12397248297929764,0.02156107872724533,-0.03043667840105546,-0.08174600761659491,0.01823393358345469,-0.04659692343919786,0.07058821097226531,-0.07570501339828972,0.02059729639141672,0.04062199220061302,0.051120869815349586,0.03239311277866363,0.0,-1.4973671750725013,-0.3308291931387564,13.744032720764826,0.0,0.0,0.0,0.0,0.0,0.35031731294733537,0.0,0.0,0.22216056839023443,0.0,0.0,0.0,0.0,0.0,0.0,0.0,0.0,0.3503168892097363,0.0,0.0,0.2221604976654033
3.450001907348629,0.12072688341140747,0.02195105515420437,0.32463130354881287,-0.09036295173502566,0.01738777736629105,0.13254757239115378,0.12072688341140747,0.02195105515420437,-0.03683926031457835,-0.09036295173502566,0.01738777736629105,-0.09139927049897956,0.07437048001109625,-0.07217364134186521,0.02082286080501561,0.02650359272956848,0.07865216583013535,-0.005643528886139402,0.0,-1.548342675227863,-0.3459962873058482,14.10447236354826,0.0,0.0,0.0,0.0,0.0,0.3614705638633912,0.0,0.0,0.22394684289013334,0.0,0.0,0.0,0.0,0.0,0.0,0.0,0.0,0.3614701367187387,0.0,0.0,0.2239467773437483
3.500001907348629,0.11701282858848572,0.022462092339992523,0.3289453387260437,-0.0914644759193824,0.020243729966814873,0.1261065324652497,0.11701282858848572,0.022462092339992523,-0.04376438201237004,-0.0914644759193824,0.020243729966814873,-0.09948999962632257,0.08391740230261657,-0.06214036115268584,0.025291182340058782,0.024650659412145615,0.07214809209108353,0.032668989151716225,0.0,-1.5924790616851214,-0.3559054160717311,14.521036989426037,0.0,0.0,0.0,0.0,0.0,0.37270972073841374,0.0,0.0,0.22559653209157227,0.0,0.0,0.0,0.0,0.0,0.0,0.0,0.0,0.3727092904472236,0.0,0.0,0.2255964717864974
3.5500019073486286,0.11284808069467545,0.023519614711403847,0.33201733231544495,-0.10908918513082706,0.013226828403840266,0.13202489421979335,0.11284808069467545,0.023519614711403847,-0.052010581937844635,-0.10908918513082706,0.013226828403840266,-0.09508316249532894,0.08303626416326004,-0.06116247717235268,0.022834651398834893,0.06301801651716232,0.024623094126582146,0.0016879308968782395,0.0,-1.6398097474054147,-0.3780517381327649,14.796420093818156,0.0,0.0,0.0,0.0,0.0,0.3840279142532896,0.0,0.0,0.2271080567151223,0.0,0.0,0.0,0.0,0.0,0.0,0.0,0.0,0.3840274810790895,0.0,0.0,0.2271080017089828
3.6000019073486285,0.1080654114484787,0.024344509467482567,0.33636975288391113,-0.10447847357435719,0.024260752655359222,0.1403921754897207,0.1080654114484787,0.024344509467482567,-0.05904844667425052,-0.10447847357435719,0.024260752655359222,-0.08808779932073452,0.07977814265741934,-0.0597982982184071,0.02304920761872431,0.021764975041151047,0.016602763906121254,0.00831744261085987,0.0,-1.62460772428543,-0.371067965188162,15.01148724834055,0.0,0.0,0.0,0.0,0.0,0.39541819955816165,0.0,0.0,0.2284799748104552,0.0,0.0,0.0,0.0,0.0,0.0,0.0,0.0,0.3954177637672301,0.0,0.0,0.2284799251556383
3.6500019073486283,0.10302676260471344,0.025373807176947594,0.34143614768981934,-0.11009626418313527,0.022737383224724555,0.17709958099384376,0.10302676260471344,0.025373807176947594,-0.06543741544906434,-0.11009626418313527,0.022737383224724555,-0.05261140076250165,0.08143337554871843,-0.0584514987747653,0.022276164435323764,-0.016212908551096916,0.016682863235473636,0.03341098129749298,0.0,-1.6618532265832564,-0.4156431788274631,15.101938367853673,0.0,0.0,0.0,0.0,0.0,0.4068735631388837,0.0,0.0,0.2297109817563454,0.0,0.0,0.0,0.0,0.0,0.0,0.0,0.0,0.4068731249999874,0.0,0.0,0.2297109374999986
3.700001907348628,0.09748665988445282,0.026324095204472542,0.3479466140270233,-0.1204721047298955,0.0166614972027782,0.19692764893289097,0.09748665988445282,0.026324095204472542,-0.07044031565645281,-0.1204721047298955,0.0166614972027782,-0.033872261327776765,0.0780425841419028,-0.06174223383740163,0.022753228353806776,-0.017790405079722404,-0.018881393596529957,0.036993853747844696,0.0,-1.6478310497285376,-0.42016515656957487,14.979158285747735,0.0,0.0,0.0,0.0,0.0,0.4183869296834761,0.0,0.0,0.23079991026066773,0.0,0.0,0.0,0.0,0.0,0.0,0.0,0.0,0.4183864894676078,0.0,0.0,0.2307998714447011
3.750001907348628,0.09156077355146408,0.027261855080723763,0.3556230962276459,-0.11948251114515267,0.017865516529355058,0.21762443840674423,0.09156077355146408,0.027261855080723763,-0.07432807272093411,-0.11948251114515267,0.017865516529355058,-0.014121291953655135,0.08212955741961325,-0.057946377876391786,0.02271918519596383,0.04974636062979698,-0.012416414916515349,0.00738466437906027,0.0,-1.5515465955217436,-0.395500726753946,14.670735307469325,0.0,0.0,0.0,0.0,0.0,0.42995116894858,0.0,0.0,0.23174573036039936,0.0,0.0,0.0,0.0,0.0,0.0,0.0,0.0,0.4299507269286979,0.0,0.0,0.2317456970214833
3.8000019073486277,0.08562356978654861,0.02778986282646656,0.36364877223968506,-0.1231018632382996,0.01680429582167102,0.22122086032145544,0.08562356978654861,0.02778986282646656,-0.07791033038622841,-0.1231018632382996,0.01680429582167102,-0.011326689100163462,0.0822247442339119,-0.05791499728554017,0.022284414704796696,0.008747689425945282,0.018690492957830426,-0.0292537733912468,0.0,-1.4078343459834568,-0.37799070507274657,14.190143392130635,0.0,0.0,0.0,0.0,0.0,0.44155910262591347,0.0,0.0,0.2325475494216189,0.0,0.0,0.0,0.0,0.0,0.0,0.0,0.0,0.4415586590766772,0.0,0.0,0.2325475215911857
3.8500019073486276,0.07964393496513367,0.02826211042702198,0.3715573251247406,-0.1267219673487401,0.023140092261846615,0.19819165464383307,0.07964393496513367,0.02826211042702198,-0.08164618608398516,-0.1267219673487401,0.023140092261846615,-0.035012957495673486,0.08446369813271382,-0.057879082005219296,0.023280150654504617,-0.056286755949258804,0.0842364951968193,0.005817524623125781,0.0,-1.2739368571030467,-0.35560287633496834,13.96540752810676,0.0,0.0,0.0,0.0,0.0,0.45320351120872576,0.0,0.0,0.23320461213950655,0.0,0.0,0.0,0.0,0.0,0.0,0.0,0.0,0.4532030664062363,0.0,0.0,0.2332045898437493
3.9000019073486274,0.0737396702170372,0.028947049751877785,0.37837275862693787,-0.12888684189142727,0.01614291338289801,0.17970959871715705,0.0737396702170372,0.028947049751877785,-0.08650438223131468,-0.12888684189142727,0.01614291338289801,-0.054006701821186776,0.08537350531494203,-0.05163430720300166,0.024451385692673355,0.00977195892482996,0.10145840048789978,-0.011191094294190419,0.0,-1.281505376428564,-0.3812047738943153,14.2385261856669,0.0,0.0,0.0,0.0,0.0,0.46487714085825255,0.0,0.0,0.23371630053834383,0.0,0.0,0.0,0.0,0.0,0.0,0.0,0.0,0.4648766950797894,0.0,0.0,0.2337162837982173
3.950001907348627,0.06783604621887207,0.0292472206056118,0.38451918959617615,-0.12682622125999202,0.01350695840641387,0.15491817279448206,0.06783604621887207,0.0292472206056118,-0.09205352067399553,-0.12682622125999202,0.01350695840641387,-0.07916396117703192,0.0823372473134758,-0.05051281916296979,0.023290485525791382,-0.0013013476273044944,0.10221507400274277,-0.00855134427547456,0.0,-1.3105535220814932,-0.3705889394439241,14.55685410973569,0.0,0.0,0.0,0.0,0.0,0.4765727102701717,0.0,0.0,0.23408213397151398,0.0,0.0,0.0,0.0,0.0,0.0,0.0,0.0,0.4765722637939311,0.0,0.0,0.234082122802734
4.0000019073486275,0.062031377106904984,0.029492318630218506,0.3897513151168823,-0.1274395183422989,0.008563232598361002,0.15122382142176405,0.062031377106904984,0.029492318630218506,-0.09853160242417464,-0.1274395183422989,0.008563232598361002,-0.08307794769973767,0.08650167777854234,-0.04231073436269295,0.02237377655737305,0.007988965138792992,0.07651247084140778,-0.010317655280232438,0.0,-1.3449982490336523,-0.3703235075815917,14.845467043504167,0.0,0.0,0.0,0.0,0.0,0.48828291754105696,0.0,0.0,0.23430176912150172,0.0,0.0,0.0,0.0,0.0,0.0,0.0,0.0,0.4882824706458902,0.0,0.0,0.2343017635345457
4.050001907348627,0.055876098573207855,0.029295654967427254,0.3959253430366516,-0.12834356952769205,0.009436351625059432,0.15998875004203075,0.055876098573207855,0.029295654967427254,-0.1040751039981831,-0.12834356952769205,0.009436351625059432,-0.07438624995786275,0.08602945841301413,-0.04762819405697538,0.01850313546234439,0.04767521843314171,-0.002507837954908611,-0.012735802680253983,0.0,-1.4579129746620691,-0.38223926465819313,15.302245262746949,0.0,0.0,0.0,0.0,0.0,0.5000004470348347,0.0,0.0,0.2343749999998935,0.0,0.0,0.0,0.0,0.0,0.0,0.0,0.0,0.4999999999999852,0.0,0.0,0.234375
4.100001907348627,0.05013327673077583,0.02903836779296398,0.4023746848106384,-0.1150349409963916,0.00950825467895706,0.17852739417405816,0.05013327673077583,0.02903836779296398,-0.109343291438599,-0.1150349409963916,0.00950825467895706,-0.05577436377331882,0.08777607761950801,-0.042047249363604156,0.02270428675144487,0.010501906275749207,0.002902742242440584,0.019582221284508705,0.0,-1.4747241439704208,-0.3928047178745717,15.420972995172995,0.0,0.0,0.0,0.0,0.0,0.5117179762492374,0.0,0.0,0.23430175794737698,0.0,0.0,0.0,0.0,0.0,0.0,0.0,0.0,0.5117175293540807,0.0,0.0,0.234301763534546
4.150001907348627,0.04415333643555641,0.028974076732993126,0.41087818145751953,-0.11731778672916623,0.0029066849180695046,0.2219137705974621,0.04415333643555641,0.028974076732993126,-0.1125500012247399,-0.11731778672916623,0.0029066849180695046,-0.012168341036280172,0.08996382134812642,-0.04217642955614176,0.021809851766072086,0.04717308655381203,-0.04092669859528542,-0.03903406485915183,0.0,-1.5013584312905488,-0.39276295069534684,15.270079252351174,0.0,0.0,0.0,0.0,0.0,0.5234281826822594,0.0,0.0,0.23408211163374226,0.0,0.0,0.0,0.0,0.0,0.0,0.0,0.0,0.5234277362060393,0.0,0.0,0.2340821228027347
4.200001907348627,0.038663968443870544,0.028383929282426834,0.420913428068161,-0.10640289332935915,0.0017604620473564126,0.2402717062080024,0.038663968443870544,0.028383929282426834,-0.11421032263045261,-0.10640289332935915,0.0017604620473564126,0.0065554391501227716,0.09262273156329348,-0.04084565884499147,0.0211125907376033,0.0006825770251452923,0.01642027124762535,0.009119882248342035,0.0,-1.441778702155597,-0.3677206647628864,14.930895037897617,0.0,0.0,0.0,0.0,0.0,0.5351237506986136,0.0,0.0,0.23371626705787962,0.0,0.0,0.0,0.0,0.0,0.0,0.0,0.0,0.535123304920181,0.0,0.0,0.2337162837982183
4.250001907348627,0.03336252644658089,0.028189770877361298,0.43214666843414307,-0.10321878314330156,0.011858167769323526,0.25601887840893106,0.03336252644658089,0.028189770877361298,-0.11465070996203997,-0.10321878314330156,0.011858167769323526,0.022814310861149156,0.08504838555449235,-0.0391261269635228,0.018501367329667673,-0.07154227793216705,-0.008361485786736013,-0.020303936675190926,0.0,-1.341603050465224,-0.3388524419428646,14.443841615473112,0.0,0.0,0.0,0.0,0.0,0.546797378396183,0.0,0.0,0.2332045675477819,0.0,0.0,0.0,0.0,0.0,0.0,0.0,0.0,0.5467969335937344,0.0,0.0,0.2332045898437509
4.300001907348626,0.02839278243482113,0.02808251790702343,0.4435705840587616,-0.10066640468507623,0.005117543795557748,0.24871866981324856,0.02839278243482113,0.02808251790702343,-0.11487120041371701,-0.10066640468507623,0.005117543795557748,0.01617117605270521,0.08570234630183338,-0.04277181689929499,0.018809925224343438,-0.03757777810096741,0.023122090846300125,-0.003054715460166338,0.0,-1.2233576924331617,-0.3475448154254752,14.116138168289943,0.0,0.0,0.0,0.0,0.0,0.5584417844724786,0.0,0.0,0.23254749376054334,0.0,0.0,0.0,0.0,0.0,0.0,0.0,0.0,0.5584413409232933,0.0,0.0,0.2325475215911875
4.350001907348626,0.023705370724201202,0.027473513036966324,0.45393240451812744,-0.09027601035016837,-0.003997124234998426,0.218315637808159,0.023705370724201202,0.027473513036966324,-0.11611731057296648,-0.09027601035016837,-0.003997124234998426,-0.013430025874200835,0.0755101468861965,-0.04052599176131455,0.018607678637184044,0.010892136953771114,0.05504800006747246,-0.010015735402703292,0.0,-1.2299142935969933,-0.327392909437088,14.26284149724202,0.0,0.0,0.0,0.0,0.0,0.5700497150910939,0.0,0.0,0.23174566368235983,0.0,0.0,0.0,0.0,0.0,0.0,0.0,0.0,0.570049273071273,0.0,0.0,0.2317456970214855
4.400001907348626,0.019461944699287415,0.026764383539557457,0.4636726677417755,-0.08778236949957276,-0.001061471910392335,0.20478613508608481,0.019461944699287415,0.026764383539557457,-0.1179412830063844,-0.08778236949957276,-0.001061471910392335,-0.02601369754244351,0.08236112220625635,-0.03806230667534116,0.01668231779698104,0.0071158455684781075,0.014352972619235509,-0.05228026211261749,0.0,-1.3768288960991275,-0.3192955695423717,14.800403623836228,0.0,0.0,0.0,0.0,0.0,0.5816139507481599,0.0,0.0,0.23079983262852832,0.0,0.0,0.0,0.0,0.0,0.0,0.0,0.0,0.5816135105323627,0.0,0.0,0.2307998714447034
4.450001907348626,0.015202442184090614,0.02608547732234001,0.4730990529060364,-0.0828884353552832,0.005769578186147638,0.20716234969156394,0.015202442184090614,0.02608547732234001,-0.12002826023276236,-0.0828884353552832,0.005769578186147638,-0.022548543551884126,0.0819908034585648,-0.036462217635761185,0.015563618886396569,-0.019696898758411407,0.009872743859887125,0.01303000748157501,0.0,-1.368269262171417,-0.32315525274889195,14.855603881054,0.0,0.0,0.0,0.0,0.0,0.5931273131387987,0.0,0.0,0.22971089324344807,0.0,0.0,0.0,0.0,0.0,0.0,0.0,0.0,0.5931268749999838,0.0,0.0,0.2297109375000015
4.500001907348626,0.011210006661713123,0.026090221479535103,0.48275652527809143,-0.07851333601548605,0.011105987477406307,0.2092203761309356,0.011210006661713123,0.026090221479535103,-0.12182614674548997,-0.07851333601548605,0.011105987477406307,-0.019259499369683436,0.07684760181004924,-0.03519235910672469,0.013391998367641378,-0.04129958152770996,-0.050311628729104996,-0.01814866438508033,0.0,-1.4395276410208095,-0.3559738175526836,15.084645328207111,0.0,0.0,0.0,0.0,0.0,0.6045826720235814,0.0,0.0,0.22847987550061905,0.0,0.0,0.0,0.0,0.0,0.0,0.0,0.0,0.6045822362327409,0.0,0.0,0.2284799251556414
4.5500019073486255,0.007091586943715811,0.02557167038321495,0.4932865798473358,-0.06552023062528094,0.006411567336927604,0.22657849497548027,0.007091586943715811,0.02557167038321495,-0.12268637224764523,-0.06552023062528094,0.006411567336927604,-0.0005294517271630106,0.09177078819989148,-0.03611022151354337,0.01964832515879955,0.026346808299422264,-0.03633444756269455,0.013485967181622987,0.0,-1.4745105786812491,-0.37846264297967896,15.14843543233509,0.0,0.0,0.0,0.0,0.0,0.615972952094981,0.0,0.0,0.22710794670264328,0.0,0.0,0.0,0.0,0.0,0.0,0.0,0.0,0.6159725189208816,0.0,0.0,0.2271080017089864
4.600001907348625,0.0035591169726103544,0.025409214198589325,0.504068911075592,-0.059586596297917904,0.004563099058767603,0.23921216184461652,0.0035591169726103544,0.025409214198589325,-0.12322222876823563,-0.059586596297917904,0.004563099058767603,0.013615750363391743,0.07894817265394138,-0.043160030138368555,0.012454961658270314,0.053913358598947525,-0.042913999408483505,0.009614099748432641,0.0,-1.5265129686930483,-0.3672044386696585,15.106408969394893,0.0,0.0,0.0,0.0,0.0,0.6272911398438277,0.0,0.0,0.22559641148122478,0.0,0.0,0.0,0.0,0.0,0.0,0.0,0.0,0.627290709552748,0.0,0.0,0.2255964717865014
4.650001907348625,-2.5261022528866306e-05,0.02533651515841484,0.5163425803184509,-0.06080616897712124,0.006053925542587703,0.2640093359522766,-2.5261022528866306e-05,0.02533651515841484,-0.12218771010731444,-0.06080616897712124,0.006053925542587703,0.04006262415510847,0.07370783731018848,-0.04362210596564786,0.01228717362346643,0.03196945786476135,-0.08019016683101654,-0.04103287681937217,0.0,-1.6152641256062301,-0.3757039157198746,15.121718709177971,0.0,0.0,0.0,0.0,0.0,0.6385302904257654,0.0,0.0,0.22394671179716813,0.0,0.0,0.0,0.0,0.0,0.0,0.0,0.0,0.6385298632812328,0.0,0.0,0.2239467773437529
4.700001907348625,-0.0036222171038389206,0.024973100051283836,0.5295059680938721,-0.05041295389997009,0.0028506299600391757,0.2810237826850499,-0.0036222171038389206,0.024973100051283836,-0.12017756643383315,-0.05041295389997009,0.0028506299600391757,0.05886335574467,0.08395148412773645,-0.04823027624307752,0.013196685866489588,0.04183531180024147,-0.04750845953822136,-0.0023251611273735705,0.0,-1.5251238718642648,-0.36525066571524833,14.731464594683327,0.0,0.0,0.0,0.0,0.0,0.6496835345277052,0.0,0.0,0.2221604269403799,0.0,0.0,0.0,0.0,0.0,0.0,0.0,0.0,0.6496831107902354,0.0,0.0,0.2221604976654082
4.750001907348625,-0.007100888527929783,0.024734871461987495,0.5433571338653564,-0.05114484389563012,0.0028681556432982396,0.2849283528792504,-0.007100888527929783,0.024734871461987495,-0.1173869513689243,-0.05114484389563012,0.0028681556432982396,0.06468907934938145,0.08356854437593864,-0.04953938814295844,0.013161384641049878,-0.01080486923456192,-0.04353594779968262,-0.022505082190036767,0.0,-1.4699762837718602,-0.33837617322915975,14.416687883405913,0.0,0.0,0.0,0.0,0.0,0.6607440852342807,0.0,0.0,0.22023927352986894,0.0,0.0,0.0,0.0,0.0,0.0,0.0,0.0,0.6607436651611158,0.0,0.0,0.2202393493652374
4.800001907348625,-0.010309849865734577,0.024572361260652542,0.5567148923873901,-0.04534181124512183,0.005529958682937447,0.2754140870102224,-0.010309849865734577,0.024572361260652542,-0.11499035250691414,-0.04534181124512183,0.005529958682937447,0.057228981496477815,0.08632531827038248,-0.04975408801836245,0.013180061770847296,-0.024967370554804802,0.0010141178499907236,-0.01665458455681801,0.0,-1.4990019108400903,-0.3457412839033233,14.623070905987225,0.0,0.0,0.0,0.0,0.0,0.6717052448943043,0.0,0.0,0.2181851055137446,0.0,0.0,0.0,0.0,0.0,0.0,0.0,0.0,0.6717048287391487,0.0,0.0,0.2181851863861117
4.8500019073486245,-0.014013034291565418,0.024164695292711258,0.5716988444328308,-0.04735048719093432,0.0020577743934733516,0.2678051261752669,-0.014013034291565418,0.024164695292711258,-0.1108615675543898,-0.04735048719093432,0.0020577743934733516,0.05180521200604882,0.0818302654366696,-0.050852254981364364,0.012962360513627758,0.005468739662319422,-0.009875120595097544,-0.013953728601336477,0.0,-1.5497662623424495,-0.3597645119914507,14.804180148225083,0.0,0.0,0.0,0.0,0.0,0.6825604119872206,0.0,0.0,0.2159999141692181,0.0,0.0,0.0,0.0,0.0,0.0,0.0,0.0,0.6825599999999824,0.0,0.0,0.2160000000000038
4.900001907348624,-0.017262041568756104,0.02364189736545086,0.5847951769828796,-0.047421840069555105,-0.008105834320943403,0.27144492855482183,-0.017262041568756104,0.02364189736545086,-0.10850791100668455,-0.047421840069555105,-0.008105834320943403,0.057759100452219214,0.08323248561257834,-0.051974217711723725,0.010546125513839044,-0.0006683263927698135,0.009854059666395189,0.0205629151314497,0.0,-1.4451459684917995,-0.32677687706313974,14.539577932288314,0.0,0.0,0.0,0.0,0.0,0.6933030879895642,0.0,0.0,0.21368582810260262,0.0,0.0,0.0,0.0,0.0,0.0,0.0,0.0,0.6933026804160896,0.0,0.0,0.213685918807987
4.950001907348624,-0.02051427960395813,0.02337541989982128,0.5977070927619934,-0.04086775729604385,-0.0001834743676802089,0.26262890255798577,-0.02051427960395813,0.02337541989982128,-0.10621979147941607,-0.04086775729604385,-0.0001834743676802089,0.05138378930867327,0.0782805300813112,-0.045946932361032644,0.009663091019062264,-0.05515710636973381,0.030868103727698326,-0.013294731266796592,0.0,-1.4198928525801386,-0.2893348222442287,14.48158738464955,0.0,0.0,0.0,0.0,0.0,0.7039268842414095,0.0,0.0,0.2112451132493125,0.0,0.0,0.0,0.0,0.0,0.0,0.0,0.0,0.7039264813232243,0.0,0.0,0.2112452087402385
5.000001907348624,-0.023503338918089867,0.02283342368900776,0.6100258827209473,-0.04183820201226419,-0.005245815103316917,0.25347631215994754,-0.023503338918089867,0.02283342368900776,-0.1043996460918849,-0.04183820201226419,-0.005245815103316917,0.04479613928608367,0.08140515421681016,-0.04750359398254478,0.011848063725125257,-0.04973597452044487,0.049766652286052704,0.012406269088387482,0.0,-1.5308539173507776,-0.330738869708627,14.74055697452573,0.0,0.0,0.0,0.0,0.0,0.7144255288128322,0.0,0.0,0.20868017287386387,0.0,0.0,0.0,0.0,0.0,0.0,0.0,0.0,0.7144251307868786,0.0,0.0,0.2086802730560347
