time,pos_x,pos_y,pos_z,vel_x,vel_y,vel_z,pos_xo,pos_yo,pos_zo,vel_xo,vel_yo,vel_zo,roll,pitch,yaw,roll_vel,pitch_vel,yaw_vel,thrust_z,force_x,force_y,force_z,torque_x,torque_y,torque_z,pos_xd,pos_yd,pos_zd,vel_xd,vel_yd,vel_zd,roll_d,pitch_d,yaw_d,roll_vel_d,pitch_vel_d,yaw_vel_d,pos_xr,pos_yr,pos_zr,vel_xr,vel_yr,vel_zr
0.005,-7.608046697836873e-10,7.68461548434592e-11,0.20500533864569026,-1.1320478280863378e-07,1.7173243346126803e-09,0.0009998982603748772,-7.608046697836873e-10,7.68461548434592e-11,0.005005338645690249,-1.1320478280863378e-07,1.7173243346126803e-09,0.0009998982603748772,-6.296722868322751e-10,-5.9642782943582385e-09,-1.5371400752498253e-10,1.1422877769337907e-07,1.1110095902980515e-07,1.1216237691463659e-10,0.0,0.0,0.0,0.0,0.0,0.0,0.0,0.0,0.0,0.2,0.0,0.0,0.0,0.0,0.0,0.0,0.0,0.0,0.0,0.0,0.0,0.2,0.0,0.0,0.0
0.01,-2.9244699743481915e-09,-1.658223531806855e-10,0.20501000484469525,1.9924251002574432e-08,-2.4418516839133898e-08,0.0009999021921971902,-7.608046697836873e-10,7.68461548434592e-11,0.005005338645690249,-1.1320478280863378e-07,1.7173243346126803e-09,0.0009998982603748772,5.423329762913232e-10,-5.504528958021036e-09,-1.4812155745737852e-10,1.1650161396828179e-07,9.83253784688767e-08,-2.465983956019335e-10,0.0,-2.1937159670663133,-0.5170066923483337,44.29313021501024,0.0,0.0,0.0,0.0,0.0,0.20000001559571778,0.0,0.0,9.3515771484375e-06,0.0,0.0,0.0,0.0,0.0,0.0,0.0,0.0,0.2000000155957177,0.0,0.0,9.3515771484375e-06
0.015,-2.8424224264962094e-09,-2.8797426424869187e-10,0.2050153376906921,1.1615082516678726e-08,-2.1474382616591258e-08,0.0009999143050925055,-7.608046697836873e-10,7.68461548434592e-11,0.005005338645690249,-1.1320478280863378e-07,1.7173243346126803e-09,0.0009998982603748772,1.1261138481899215e-09,-5.0935001267192964e-09,-1.4908314167846133e-10,1.029322631386281e-07,5.9236709183240616e-08,-5.371299006972936e-12,0.0,-2.1937159670663133,-0.5170066923483337,44.29313021501024,0.0,0.0,0.0,0.0,0.0,0.20000012453171875,0.0,0.0,3.7312734375000004e-05,0.0,0.0,0.0,0.0,0.0,0.0,0.0,0.0,0.2000001245317187,0.0,0.0,3.7312734375e-05
0.02,-2.8040184779712993e-09,2.119642884226674e-09,0.2050200039848539,5.854339521926386e-09,3.7299769711152836e-06,0.000999923908965881,-7.608046697836873e-10,7.68461548434592e-11,0.005005338645690249,-1.1320478280863378e-07,1.7173243346126803e-09,0.0009998982603748772,1.5679138515636743e-09,-4.89332155709259e-09,-1.4889285341692674e-10,8.963465551368142e-08,3.13370005691066e-08,-1.2357185018080016e-11,0.0,-2.1937159670663133,-0.5170066923483337,44.29313021501024,0.0,0.0,0.0,0.0,0.0,0.2000004195055127,0.0,0.0,8.37433740234375e-05,0.0,0.0,0.0,0.0,0.0,0.0,0.0,0.0,0.2000004195055127,0.0,0.0,8.37433740234375e-05
0.025,-2.81576385794655e-09,2.0341383874175684e-09,0.205025336956163,-8.579679988682168e-09,-1.4127189798501709e-08,0.000999939976819318,-7.608046697836873e-10,7.68461548434592e-11,0.005005338645690249,-1.1320478280863378e-07,1.7173243346126803e-09,0.0009998982603748772,1.9915559568880405e-09,-4.9356566145237315e-09,-1.8872384699177475e-10,7.076318337523833e-08,-3.916852770596835e-08,-6.441816334507413e-10,0.0,-2.1937159670663133,-0.5170066923483337,44.29313021501024,0.0,0.0,0.0,0.0,0.0,0.200000992515,0.0,0.0,0.00014850375,0.0,0.0,0.0,0.0,0.0,0.0,0.0,0.0,0.200000992515,0.0,0.0,0.00014850375
0.030000000000000002,-2.896212301901816e-09,1.9791585051425525e-09,0.20503000339984756,-2.0688156714429734e-08,-1.0343463588495836e-08,0.0009999609801403318,-7.608046697836873e-10,7.68461548434592e-11,0.005005338645690249,-1.1320478280863378e-07,1.7173243346126803e-09,0.0009998982603748772,2.2687413801595724e-09,-5.320193131704189e-09,-1.9463192590680646e-10,5.202051346544362e-08,-1.0037832441807393e-07,-1.8128509104574538e-09,0.0,-2.1937159670663133,-0.5170066923483337,44.29313021501024,0.0,0.0,0.0,0.0,0.0,0.2000019348602295,0.0,0.0,0.00023145446777343758,0.0,0.0,0.0,0.0,0.0,0.0,0.0,0.0,0.2000019348602295,0.0,0.0,0.0002314544677734
0.035,3.10988532594542e-09,-7.720733863107607e-09,0.20503533655690598,-2.3504363288695043e-08,-1.0664431860798581e-08,0.0009999723340150144,-7.608046697836873e-10,7.68461548434592e-11,0.005005338645690249,-1.1320478280863378e-07,1.7173243346126803e-09,0.0009998982603748772,2.5493640394626e-09,-5.785843535121807e-09,1.9977919227867842e-10,5.020449799506346e-08,-1.1573990944466206e-07,6.023787114362126e-07,0.0,-2.1937159670663133,-0.5170066923483337,44.29313021501024,0.0,0.0,0.0,0.0,0.0,0.20000333714515625,0.0,0.0,0.0003324564843750001,0.0,0.0,0.0,0.0,0.0,0.0,0.0,0.0,0.2000033371451562,0.0,0.0,0.000332456484375
0.04,-2.825052765145393e-06,-7.734201329470297e-09,0.20504207122674026,-0.0017227574523729868,-7.531811884140283e-09,0.002260240931012521,-7.608046697836873e-10,7.68461548434592e-11,0.005005338645690249,-1.1320478280863378e-07,1.7173243346126803e-09,0.0009998982603748772,2.57114659280178e-09,-1.3794284192662991e-05,1.5279140243519217e-10,1.2796759975459981e-08,-0.008402071581722785,-3.2892457384512503e-08,0.0,-2.1937159670663133,-0.5170066923483337,44.29313021501024,0.0,0.0,0.0,0.0,0.0,0.20000528927939942,0.0,0.0,0.0004513711083984375,0.0,0.0,0.0,0.0,0.0,0.0,0.0,0.0,0.2000052892793994,0.0,0.0,0.0004513711083984
0.045,-2.3983792284609444e-05,-2.907083864684893e-08,0.20506296797956772,-0.005926469978382677,-1.6689377381529986e-05,0.0054318117983015776,-7.608046697836873e-10,7.68461548434592e-11,0.005005338645690249,-1.1320478280863378e-07,1.7173243346126803e-09,0.0009998982603748772,1.5055464934107283e-08,-0.00011754683755070323,-7.724002610792284e-07,1.8282860978335175e-05,-0.02953216741383269,-0.0008632398919945135,0.0,-2.1937159670663133,-0.5170066923483337,44.29313021501024,0.0,0.0,0.0,0.0,0.0,0.20000788048,0.0,0.0,0.0005880600000000001,0.0,0.0,0.0,0.0,0.0,0.0,0.0,0.0,0.20000788048,0.0,0.0,0.00058806
0.049999999999999996,-6.917971381901317e-05,-6.34621496310794e-07,0.20510240475345778,-0.012808572708861298,-0.00037085870338447567,0.011083428179264094,-7.608046697836873e-10,7.68461548434592e-11,0.005005338645690249,-1.1320478280863378e-07,1.7173243346126803e-09,0.0009998982603748772,1.4207460123378916e-07,-0.00034929562558640837,-1.6445780883393225e-05,0.00018944102055999668,-0.06706505965113495,-0.006446657846109279,0.0,-2.1937159670663133,-0.5170066923483337,44.29313021501024,0.0,0.0,0.0,0.0,0.0,0.20001119927317873,0.0,0.0,0.0007423851708984376,0.0,0.0,0.0,0.0,0.0,0.0,0.0,0.0,0.2000111992731787,0.0,0.0,0.0007423851708984
0.05499999999999999,-0.00014438079279564036,-6.471477277008362e-06,0.20517681914116834,-0.01806669840506083,-0.0019789541980035174,0.02025006668717163,-0.00014438079279564036,-6.471477277008362e-06,0.0051614856450745705,-0.01806669840506083,-0.0019789541980035174,0.019335857702796628,1.0917023119660812e-05,-0.0008038788428991957,-9.272786477181188e-05,0.003938441934349596,-0.12451237724670196,-0.02227923496906995,0.0,-2.1937159670663133,-0.5170066923483337,44.29313021501024,0.0,0.0,0.0,0.0,0.0,0.20001533349609377,0.0,0.0,0.0009142089843749998,0.0,0.0,0.0,0.0,0.0,0.0,0.0,0.0,0.2000153334960937,0.0,0.0,0.0009142089843749
0.05999999999999999,-0.00025052844181123156,-2.33228541785116e-05,0.20532363127056025,-0.021250327899403624,-0.004120780169379,0.033368434791345054,-0.00014438079279564036,-6.471477277008362e-06,0.0051614856450745705,-0.01806669840506083,-0.0019789541980035174,0.019335857702796628,3.537980501010257e-05,-0.00172427803861169,-0.00023279254676098862,0.0065758252208237495,-0.20964243718476816,-0.02956670467202875,0.0,-1.5834196326168248,-0.7470394763499906,38.9742362921532,0.0,0.0,0.0,0.0,0.0,0.20002037029859865,0.0,0.0,0.0011033941552734373,0.0,0.0,0.0,0.0,0.0,0.0,0.0,0.0,0.2000203702985986,0.0,0.0,0.0011033941552734
0.06499999999999999,-0.0003533748095895811,-4.610099484226657e-05,0.20551192245815805,-0.022204166527565905,-0.0053021879410348575,0.04564083146852426,-0.00014438079279564036,-6.471477277008362e-06,0.0051614856450745705,-0.01806669840506083,-0.0019789541980035174,0.019335857702796628,0.00010271128327243235,-0.0028844462395776764,-0.00037926833581782585,0.023571389316048,-0.27503897522472115,-0.031640658235073706,0.0,-1.5834196326168248,-0.7470394763499906,38.9742362921532,0.0,0.0,0.0,0.0,0.0,0.200026396145,0.0,0.0,0.0013098037499999998,0.0,0.0,0.0,0.0,0.0,0.0,0.0,0.0,0.200026396145,0.0,0.0,0.0013098037499999
0.06999999999999999,-0.00047130350237082843,-7.357922814653118e-05,0.20580170562978123,-0.021946642285964595,-0.004696671832550412,0.06147132981832421,-0.00014438079279564036,-6.471477277008362e-06,0.0051614856450745705,-0.01806669840506083,-0.0019789541980035174,0.019335857702796628,0.0003765764406747671,-0.004478941872848916,-0.0005467560164689846,0.07294808800303344,-0.314861975209492,-0.031136765744399754,0.0,-1.5834196326168248,-0.7470394763499906,38.9742362921532,0.0,0.0,0.0,0.0,0.0,0.20003349681581545,0.0,0.0,0.0015333011865234373,0.0,0.0,0.0,0.0,0.0,0.0,0.0,0.0,0.2000334968158154,0.0,0.0,0.0015333011865234
0.075,-0.0005874820228237601,-9.670641685207767e-05,0.20617846514933197,-0.021899529084127716,-0.004097867010638249,0.07807876777558784,-0.00014438079279564036,-6.471477277008362e-06,0.0051614856450745705,-0.01806669840506083,-0.0019789541980035174,0.019335857702796628,0.0008789209883841873,-0.006183181558653717,-0.0007037420225188244,0.11395456800593849,-0.31313942646446546,-0.027164496926251773,0.0,-1.5834196326168248,-0.7470394763499906,38.9742362921532,0.0,0.0,0.0,0.0,0.0,0.20004175740953126,0.0,0.0,0.0017737502343749994,0.0,0.0,0.0,0.0,0.0,0.0,0.0,0.0,0.2000417574095312,0.0,0.0,0.0017737502343749
0.08,-0.0006907291988171047,-0.00011359073909128744,0.2065859753589816,-0.022311694497534278,-0.003562722509756413,0.09416646337182784,-0.00014438079279564036,-6.471477277008362e-06,0.0051614856450745705,-0.01806669840506083,-0.0019789541980035174,0.019335857702796628,0.0014989750301304529,-0.0075586950506126085,-0.0008298520380447754,0.139344379939462,-0.2825039803511523,-0.026892232003886577,0.0,-1.5834196326168248,-0.7470394763499906,38.9742362921532,0.0,0.0,0.0,0.0,0.0,0.20005126234436035,0.0,0.0,0.0020310150146484376,0.0,0.0,0.0,0.0,0.0,0.0,0.0,0.0,0.2000512623443603,0.0,0.0,0.0020310150146484
0.085,-0.0008127229795226734,-0.00013330056728491554,0.20714199224035895,-0.023351633148615956,-0.003285387472870351,0.11230532053231994,-0.00014438079279564036,-6.471477277008362e-06,0.0051614856450745705,-0.01806669840506083,-0.0019789541980035174,0.019335857702796628,0.0022683781508608908,-0.008920724105012408,-0.0009730865243818684,0.1567022075250007,-0.23342322379027655,-0.025593721863431115,0.0,-1.5834196326168248,-0.7470394763499906,38.9742362921532,0.0,0.0,0.0,0.0,0.0,0.20006209536,0.0,0.0,0.00230496,0.0,0.0,0.0,0.0,0.0,0.0,0.0,0.0,0.20006209536,0.0,0.0,0.00230496
0.09000000000000001,-0.0009242186879190842,-0.00014982245318006902,0.2077115551097603,-0.02438518196789229,-0.004061522185847752,0.1291130642210812,-0.00014438079279564036,-6.471477277008362e-06,0.0051614856450745705,-0.01806669840506083,-0.0019789541980035174,0.019335857702796628,0.0029554874044393858,-0.009884694749293224,-0.0010949375360251553,0.13042460271235737,-0.18457830030855366,-0.02525641651503859,0.0,-1.5834196326168248,-0.7470394763499906,38.9742362921532,0.0,0.0,0.0,0.0,0.0,0.20007433951938966,0.0,0.0,0.0025954500146484383,0.0,0.0,0.0,0.0,0.0,0.0,0.0,0.0,0.2000743395193896,0.0,0.0,0.0025954500146484
0.09500000000000001,-0.0010568795278421451,-0.00016918422860531443,0.2084577178843624,-0.025509959120726833,-0.0037964934467624957,0.1489064936235647,-0.00014438079279564036,-6.471477277008362e-06,0.0051614856450745705,-0.01806669840506083,-0.0019789541980035174,0.019335857702796628,0.003702772136322636,-0.010707095794777468,-0.0012230196824681535,0.13386107845213863,-0.12446533462422775,-0.023295206566876652,0.0,-1.5834196326168248,-0.7470394763499906,38.9742362921532,0.0,0.0,0.0,0.0,0.0,0.20008807721046876,0.0,0.0,0.002902350234375001,0.0,0.0,0.0,0.0,0.0,0.0,0.0,0.0,0.2000880772104687,0.0,0.0,0.002902350234375
0.10000000000000002,-0.0011798329639347988,-0.00019074348555898186,0.20919730916100376,-0.02672471232108508,-0.004587190558706999,0.16573507938171803,-0.00014438079279564036,-6.471477277008362e-06,0.0051614856450745705,-0.01806669840506083,-0.0019789541980035174,0.019335857702796628,0.004197901646619641,-0.011165516096448995,-0.001342268613310488,0.1037416430956302,-0.08703160319900473,-0.025108660401476975,0.0,-1.5834196326168248,-0.7470394763499906,38.9742362921532,0.0,0.0,0.0,0.0,0.0,0.20010339014793457,0.0,0.0,0.0032255261865234384,0.0,0.0,0.0,0.0,0.0,0.0,0.0,0.0,0.2001033901479345,0.0,0.0,0.0032255261865234
0.10500000000000002,-0.0013289704101883363,-0.0002169416771085382,0.21014705752062163,-0.028804650550244837,-0.00582378284712913,0.18710983875614665,-0.0013289704101883363,-0.0002169416771085382,0.010026698145621626,-0.028804650550244837,-0.00582378284712913,0.18354499500614666,0.004643466028682328,-0.011408763349674311,-0.001467527905063414,0.05094211492497776,-0.01969423855573917,-0.023990535459146332,0.0,-1.5834196326168248,-0.7470394763499906,38.9742362921532,0.0,0.0,0.0,0.0,0.0,0.200120359375,0.0,0.0,0.003564843750000001,0.0,0.0,0.0,0.0,0.0,0.0,0.0,0.0,0.200120359375,0.0,0.0,0.00356484375
0.11000000000000003,-0.0014655600824571545,-0.00024364032166825826,0.21106415358213512,-0.030071986377379206,-0.005652972891965195,0.20302762617008727,-0.0013289704101883363,-0.0002169416771085382,0.010026698145621626,-0.028804650550244837,-0.00582378284712913,0.18354499500614666,0.004866115060704964,-0.011426498980596288,-0.0015674272712796853,0.043186437128149464,0.027455816403803804,-0.0200032471309586,0.0,1.0308864496055568,-0.11177434724589404,22.899950455368515,0.0,0.0,0.0,0.0,0.0,0.20013906526515138,0.0,0.0,0.00392016915527344,0.0,0.0,0.0,0.0,0.0,0.0,0.0,0.0,0.2001390652651513,0.0,0.0,0.0039201691552734
0.11500000000000003,-0.0016325041020794568,-0.00027944178652236575,0.2121797788071281,-0.03190260979705695,-0.007223653825410474,0.21310677653722448,-0.0013289704101883363,-0.0002169416771085382,0.010026698145621626,-0.028804650550244837,-0.00582378284712913,0.18354499500614666,0.004899590387809927,-0.010994726893488916,-0.0016915651931396366,-0.01281232560728957,0.11424523237468016,-0.024950742624973644,0.0,1.0308864496055568,-0.11177434724589404,22.899950455368515,0.0,0.0,0.0,0.0,0.0,0.20015958752390625,0.0,0.0,0.004291368984375003,0.0,0.0,0.0,0.0,0.0,0.0,0.0,0.0,0.2001595875239062,0.0,0.0,0.004291368984375
0.12000000000000004,-0.0017871322023500697,-0.0003127720843054876,0.21319191563972223,-0.03395161848787881,-0.0073664848300401525,0.21924178875144376,-0.0013289704101883363,-0.0002169416771085382,0.010026698145621626,-0.028804650550244837,-0.00582378284712913,0.18354499500614666,0.004820759926217673,-0.010183905193011092,-0.0017924215261920751,-0.02912029416602794,0.21446406273706134,-0.021877216466601443,0.0,1.0308864496055568,-0.11177434724589404,22.899950455368515,0.0,0.0,0.0,0.0,0.0,0.2001820051905713,0.0,0.0,0.00467831017089844,0.0,0.0,0.0,0.0,0.0,0.0,0.0,0.0,0.2001820051905713,0.0,0.0,0.0046783101708984
0.12500000000000003,-0.0019707325488066787,-0.00035660574567150606,0.2143652378054192,-0.034849272752021966,-0.00847888250310332,0.22124319642201012,-0.0013289704101883363,-0.0002169416771085382,0.010026698145621626,-0.028804650550244837,-0.00582378284712913,0.18354499500614666,0.0045202134434645614,-0.008859659879631122,-0.0019041254028852317,-0.06448986951166247,0.28323940848970713,-0.021396428811620752,0.0,1.0308864496055568,-0.11177434724589404,22.899950455368515,0.0,0.0,0.0,0.0,0.0,0.20020639664,0.0,0.0,0.005080860000000003,0.0,0.0,0.0,0.0,0.0,0.0,0.0,0.0,0.20020639664,0.0,0.0,0.00508086
0.13000000000000003,-0.0021362014752885684,-0.00039505390581974183,0.21539613992048162,-0.035363616926839085,-0.00841151725940232,0.21973514777636946,-0.0013289704101883363,-0.0002169416771085382,0.010026698145621626,-0.028804650550244837,-0.00582378284712913,0.18354499500614666,0.004236178771081288,-0.007421751024412655,-0.0019945954873732048,-0.06590175138057852,0.3075181025386358,-0.021265648298336534,0.0,1.0308864496055568,-0.11177434724589404,22.899950455368515,0.0,0.0,0.0,0.0,0.0,0.2002328395843506,0.0,0.0,0.005498886108398441,0.0,0.0,0.0,0.0,0.0,0.0,0.0,0.0,0.2002328395843506,0.0,0.0,0.0054988861083984
0.13500000000000004,-0.0023251172046610874,-0.0004432618471557549,0.2165605359144459,-0.03546572338788047,-0.008953111822949951,0.2173638817136587,-0.0013289704101883363,-0.0002169416771085382,0.010026698145621626,-0.028804650550244837,-0.00582378284712913,0.18354499500614666,0.0038535787220600856,-0.005745503605210855,-0.0021037152847416403,-0.060622609127867474,0.32018407066105437,-0.020123397800225575,0.0,1.0308864496055568,-0.11177434724589404,22.899950455368515,0.0,0.0,0.0,0.0,0.0,0.20026141107484377,0.0,0.0,0.005932256484375003,0.0,0.0,0.0,0.0,0.0,0.0,0.0,0.0,0.2002614110748437,0.0,0.0,0.005932256484375
0.14000000000000004,-0.002490440609774961,-0.0004837435113859723,0.21756008704855392,-0.035080278509088306,-0.008919472025188335,0.21166956567820286,-0.0013289704101883363,-0.0002169416771085382,0.010026698145621626,-0.028804650550244837,-0.00582378284712913,0.18354499500614666,0.0036596710954637903,-0.004309137130059431,-0.00217718507680147,-0.04438901361004613,0.2923628871641647,-0.015316962531554238,0.0,1.0308864496055568,-0.11177434724589404,22.899950455368515,0.0,0.0,0.0,0.0,0.0,0.2002921875035205,0.0,0.0,0.006380839467773441,0.0,0.0,0.0,0.0,0.0,0.0,0.0,0.0,0.2002921875035205,0.0,0.0,0.0063808394677734
0.14500000000000005,-0.0026775953602609353,-0.0005322424919868446,0.21867301149430823,-0.035010660846337215,-0.008665488502216058,0.2059357988474032,-0.0013289704101883363,-0.0002169416771085382,0.010026698145621626,-0.028804650550244837,-0.00582378284712913,0.18354499500614666,0.003489304902984924,-0.002834330431816269,-0.0022500558481871272,-0.014249395249755522,0.26122126590615896,-0.013404855091988509,0.0,1.0308864496055568,-0.11177434724589404,22.899950455368515,0.0,0.0,0.0,0.0,0.0,0.200325244605,0.0,0.0,0.006844503750000003,0.0,0.0,0.0,0.0,0.0,0.0,0.0,0.0,0.200325244605,0.0,0.0,0.00684450375
0.15000000000000005,-0.002839881150467829,-0.0005710993806345536,0.2196124723379804,-0.03447530137649466,-0.008512326795174729,0.19792464573230864,-0.0013289704101883363,-0.0002169416771085382,0.010026698145621626,-0.028804650550244837,-0.00582378284712913,0.18354499500614666,0.0035103081990339098,-0.0017211590186937717,-0.00231072683847982,0.0028065832940793014,0.22134192930297647,-0.014285357788450094,0.0,1.0308864496055568,-0.11177434724589404,22.899950455368515,0.0,0.0,0.0,0.0,0.0,0.2003606574582373,0.0,0.0,0.007323118374023441,0.0,0.0,0.0,0.0,0.0,0.0,0.0,0.0,0.2003606574582373,0.0,0.0,0.0073231183740234
0.15500000000000005,-0.003023199188883677,-0.0006171907581624729,0.2206440859309035,-0.03420085107861488,-0.008332928996938157,0.1895071398067992,-0.003023199188883677,-0.0006171907581624729,0.020245585442622255,-0.03420085107861488,-0.008332928996938157,0.1816905870724242,0.0035972666582704893,-0.0006627759838423329,-0.0023830709486095205,0.031892280488665076,0.1800911514748332,-0.012582659705522843,0.0,1.0308864496055568,-0.11177434724589404,22.899950455368515,0.0,0.0,0.0,0.0,0.0,0.20039850048828126,0.0,0.0,0.007816552734375006,0.0,0.0,0.0,0.0,0.0,0.0,0.0,0.0,0.2003985004882812,0.0,0.0,0.007816552734375
0.16000000000000006,-0.0031822092710902896,-0.000654784738239277,0.22150165277034614,-0.03395589360046366,-0.008226197534044393,0.17949626018997558,-0.003023199188883677,-0.0006171907581624729,0.020245585442622255,-0.03420085107861488,-0.008332928996938157,0.1816905870724242,0.0038045992562463493,9.150427223722985e-05,-0.002435290398056946,0.040284008058219134,0.14702629631713843,-0.010675508995980817,0.0,1.4862153708581551,0.532412703382121,24.0926512321341,0.0,0.0,0.0,0.0,0.0,0.20043884746803223,0.0,0.0,0.008324676577148443,0.0,0.0,0.0,0.0,0.0,0.0,0.0,0.0,0.2004388474680322,0.0,0.0,0.0083246765771484
0.16500000000000006,-0.0033627153631824052,-0.0007013104189948276,0.22242895466768567,-0.033687410941611394,-0.008824909160711113,0.16938137320775648,-0.003023199188883677,-0.0006171907581624729,0.020245585442622255,-0.03420085107861488,-0.008332928996938157,0.1816905870724242,0.0039377652216445215,0.0008147004014595736,-0.002482461256850246,0.018882333451248266,0.13148745481673263,-0.008950106669307957,0.0,1.4862153708581551,0.532412703382121,24.0926512321341,0.0,0.0,0.0,0.0,0.0,0.20048177152000002,0.0,0.0,0.008847360000000007,0.0,0.0,0.0,0.0,0.0,0.0,0.0,0.0,0.20048177152,0.0,0.0,0.00884736
0.17000000000000007,-0.0035201740122494463,-0.0007420293794509692,0.22318929637052637,-0.033803398497878695,-0.008923972649275493,0.15824184119827472,-0.003023199188883677,-0.0006171907581624729,0.020245585442622255,-0.03420085107861488,-0.008332928996938157,0.1816905870724242,0.003977668928922708,0.0014383980343039844,-0.0025365194363865646,-0.007484604903205182,0.1331186302891094,-0.013380799033040675,0.0,1.4862153708581551,0.532412703382121,24.0926512321341,0.0,0.0,0.0,0.0,0.0,0.20052734511806153,0.0,0.0,0.009384473452148446,0.0,0.0,0.0,0.0,0.0,0.0,0.0,0.0,0.2005273451180615,0.0,0.0,0.0093844734521484
0.17500000000000007,-0.00370044507182017,-0.0007939452500205644,0.22399957362006037,-0.0336780006975221,-0.01008251702142476,0.14697947921520121,-0.003023199188883677,-0.0006171907581624729,0.020245585442622255,-0.03420085107861488,-0.008332928996938157,0.1816905870724242,0.003755365593143823,0.0021755840879304315,-0.0025956752087195477,-0.059926922205715785,0.14506029936947448,-0.010183011647304473,0.0,1.4862153708581551,0.532412703382121,24.0926512321341,0.0,0.0,0.0,0.0,0.0,0.20057564008921877,0.0,0.0,0.009935887734375008,0.0,0.0,0.0,0.0,0.0,0.0,0.0,0.0,0.2005756400892187,0.0,0.0,0.009935887734375
0.18000000000000008,-0.0038578714424088137,-0.000841076904871579,0.2246549917319243,-0.033828385237103124,-0.01029590641130941,0.13582865288538862,-0.003023199188883677,-0.0006171907581624729,0.020245585442622255,-0.03420085107861488,-0.008332928996938157,0.1816905870724242,0.0033876946222238524,0.0029097128911473595,-0.0026459240240690233,-0.09785804979036171,0.1671771263433258,-0.011255972895238432,0.0,1.4862153708581551,0.532412703382121,24.0926512321341,0.0,0.0,0.0,0.0,0.0,0.20062672761535646,0.0,0.0,0.010501473999023446,0.0,0.0,0.0,0.0,0.0,0.0,0.0,0.0,0.2006267276153564,0.0,0.0,0.0105014739990234
0.18500000000000008,-0.004038975583479894,-0.0008997082187758432,0.22534524009152304,-0.03393723093405105,-0.011162171315977304,0.1242400521278678,-0.003023199188883677,-0.0006171907581624729,0.020245585442622255,-0.03420085107861488,-0.008332928996938157,0.1816905870724242,0.002721068304638568,0.0038583711178185854,-0.0026878651872453353,-0.13422228430611255,0.18697455452008882,-0.007098580814887945,0.0,1.4862153708581551,0.532412703382121,24.0926512321341,0.0,0.0,0.0,0.0,0.0,0.20068067823500002,0.0,0.0,0.011081103750000008,0.0,0.0,0.0,0.0,0.0,0.0,0.0,0.0,0.200680678235,0.0,0.0,0.01108110375
0.19000000000000009,-0.004197196167490492,-0.0009506978043427924,0.22589612138344217,-0.033934401479377,-0.010931394150495445,0.11356962107651726,-0.003023199188883677,-0.0006171907581624729,0.020245585442622255,-0.03420085107861488,-0.008332928996938157,0.1816905870724242,0.0020516603530855923,0.004787465355950162,-0.002730438042839939,-0.15454812090354886,0.21007247160086873,-0.011019085255733637,0.0,1.4862153708581551,0.532412703382121,24.0926512321341,0.0,0.0,0.0,0.0,0.0,0.20073756184507324,0.0,0.0,0.011674648842773448,0.0,0.0,0.0,0.0,0.0,0.0,0.0,0.0,0.2007375618450732,0.0,0.0,0.0116746488427734
0.1950000000000001,-0.004379306407857519,-0.001011621262399977,0.2264663242755878,-0.034241494008256226,-0.011527165420876133,0.10161626593419665,-0.003023199188883677,-0.0006171907581624729,0.020245585442622255,-0.03420085107861488,-0.008332928996938157,0.1816905870724242,0.0011774691405148409,0.005948359139224543,-0.0027767958736417218,-0.1591279183109102,0.2216622852714731,-0.007245361615560297,0.0,1.4862153708581551,0.532412703382121,24.0926512321341,0.0,0.0,0.0,0.0,0.0,0.20079744770265626,0.0,0.0,0.012281981484375013,0.0,0.0,0.0,0.0,0.0,0.0,0.0,0.0,0.2007974477026562,0.0,0.0,0.012281981484375
0.2000000000000001,-0.004540052335929282,-0.0010641048643577425,0.22691324084962775,-0.034590382640419456,-0.01109132411477497,0.09157166361071861,-0.003023199188883677,-0.0006171907581624729,0.020245585442622255,-0.03420085107861488,-0.008332928996938157,0.1816905870724242,0.0004680150385773963,0.007024881195875964,-0.0028044476742439374,-0.15024031251386383,0.2366783297676939,-0.006066679004802094,0.0,1.4862153708581551,0.532412703382121,24.0926512321341,0.0,0.0,0.0,0.0,0.0,0.2008604044267432,0.0,0.0,0.01290297423339845,0.0,0.0,0.0,0.0,0.0,0.0,0.0,0.0,0.2008604044267432,0.0,0.0,0.0129029742333984
0.2050000000000001,-0.004726207863709108,-0.001123943087456043,0.22736602666075734,-0.03502274595316587,-0.011141429443880448,0.07974212224058447,-0.004726207863709108,-0.001123943087456043,0.02643952666075733,-0.03502274595316587,-0.011141429443880448,0.06620462224058446,-0.00028739008407410754,0.008295131714781917,-0.0028282037400486665,-0.12691724556217132,0.23523389051848578,-0.0037784753396188303,0.0,1.4862153708581551,0.532412703382121,24.0926512321341,0.0,0.0,0.0,0.0,0.0,0.2009265,0.0,0.0,0.013537500000000015,0.0,0.0,0.0,0.0,0.0,0.0,0.0,0.0,0.2009265,0.0,0.0,0.0135375
0.2100000000000001,-0.004889807942015277,-0.0011735421910015545,0.22771372172236296,-0.034982024476414804,-0.010267213274191594,0.07101329517955886,-0.004726207863709108,-0.001123943087456043,0.02643952666075733,-0.03502274595316587,-0.011141429443880448,0.06620462224058446,-0.0007796070140001413,0.009378128973759574,-0.0028463808587372423,-0.09191050332196025,0.2243395093094811,-0.004805421542957862,0.0,0.37035896197038387,0.10045047867488846,30.16456434597567,0.0,0.0,0.0,0.0,0.0,0.20099580177052248,0.0,0.0,0.014185432045898453,0.0,0.0,0.0,0.0,0.0,0.0,0.0,0.0,0.2009958017705224,0.0,0.0,0.0141854320458984
0.2150000000000001,-0.005075918032119698,-0.0012272916062859474,0.22806785095660465,-0.034688656326348925,-0.009958758785924499,0.0631331095719001,-0.004726207863709108,-0.001123943087456043,0.02643952666075733,-0.03502274595316587,-0.011141429443880448,0.06620462224058446,-0.0011424432792646409,0.010438739775285815,-0.0028713103660851316,-0.04359826751473924,0.17038957519315404,-0.003387339015390377,0.0,0.37035896197038387,0.10045047867488846,30.16456434597567,0.0,0.0,0.0,0.0,0.0,0.20106837645359377,0.0,0.0,0.014846643984375017,0.0,0.0,0.0,0.0,0.0,0.0,0.0,0.0,0.2010683764535937,0.0,0.0,0.014846643984375
0.2200000000000001,-0.005236023293070043,-0.0012717352448420429,0.2283493448531978,-0.034026530737295696,-0.009222057022225089,0.0582886343656159,-0.004726207863709108,-0.001123943087456043,0.02643952666075733,-0.03502274595316587,-0.011141429443880448,0.06620462224058446,-0.0011972760801468672,0.011060731485166531,-0.0028769662346837853,0.008657447991039671,0.10447284683964399,-0.00035555619573448985,0.0,0.37035896197038387,0.10045047867488846,30.16456434597567,0.0,0.0,0.0,0.0,0.0,0.2011442901334424,0.0,0.0,0.015521009780273452,0.0,0.0,0.0,0.0,0.0,0.0,0.0,0.0,0.2011442901334424,0.0,0.0,0.0155210097802734
0.22500000000000012,-0.00541514222376872,-0.001319222368096867,0.22864748393511314,-0.03307300919297198,-0.008735613485944819,0.054362128092841376,-0.004726207863709108,-0.001123943087456043,0.02643952666075733,-0.03502274595316587,-0.011141429443880448,0.06620462224058446,-0.001038499427502654,0.01136618750498995,-0.002873601645671887,0.045956849543085994,0.01602539980146124,0.0012326327585488544,0.0,0.37035896197038387,0.10045047867488846,30.16456434597567,0.0,0.0,0.0,0.0,0.0,0.20122360826500002,0.0,0.0,0.016208403750000013,0.0,0.0,0.0,0.0,0.0,0.0,0.0,0.0,0.201223608265,0.0,0.0,0.01620840375
0.23000000000000012,-0.005567437618045184,-0.001358913362299417,0.22889413621320073,-0.03255103747632413,-0.008393463951876694,0.0515448702006058,-0.004726207863709108,-0.001123943087456043,0.02643952666075733,-0.03502274595316587,-0.011141429443880448,0.06620462224058446,-0.0007355379062407826,0.011256306344474023,-0.002867997330240852,0.07524718907445099,-0.049844499606133276,0.0008061361338024685,0.0,0.37035896197038387,0.10045047867488846,30.16456434597567,0.0,0.0,0.0,0.0,0.0,0.2013063956756592,0.0,0.0,0.016908700561523455,0.0,0.0,0.0,0.0,0.0,0.0,0.0,0.0,0.2013063956756592,0.0,0.0,0.0169087005615234
0.23500000000000013,-0.005739539920323295,-0.0014033588711204242,0.2291622464243018,-0.031903939659585955,-0.00842585330437847,0.0492663524452454,-0.004726207863709108,-0.001123943087456043,0.02643952666075733,-0.03502274595316587,-0.011141429443880448,0.06620462224058446,-0.0003195955746787182,0.010790052008043246,-0.0028579142671524217,0.07849572594814574,-0.11319816168311027,0.0032349570131286376,0.0,0.37035896197038387,0.10045047867488846,30.16456434597567,0.0,0.0,0.0,0.0,0.0,0.20139271656703125,0.0,0.0,0.01762177523437502,0.0,0.0,0.0,0.0,0.0,0.0,0.0,0.0,0.2013927165670312,0.0,0.0,0.017621775234375
0.24000000000000013,-0.005888470118289463,-0.0014430812248373886,0.22938820399663398,-0.032193989567980516,-0.008634755864651525,0.047608040708331766,-0.004726207863709108,-0.001123943087456043,0.02643952666075733,-0.03502274595316587,-0.011141429443880448,0.06620462224058446,3.667366423532848e-05,0.010189873006616697,-0.00283289821106489,0.07170447400236428,-0.13546551663841613,0.006630150574906383,0.0,0.37035896197038387,0.10045047867488846,30.16456434597567,0.0,0.0,0.0,0.0,0.0,0.20148263451670412,0.0,0.0,0.018347503139648457,0.0,0.0,0.0,0.0,0.0,0.0,0.0,0.0,0.2014826345167041,0.0,0.0,0.0183475031396484
0.24500000000000013,-0.006061193251671445,-0.0014907497839748054,0.22963953741480161,-0.03240671284212271,-0.009211922190910252,0.04672110950489826,-0.004726207863709108,-0.001123943087456043,0.02643952666075733,-0.03502274595316587,-0.011141429443880448,0.06620462224058446,0.00034692251106824274,0.009432106493059785,-0.0027951629663390868,0.04753662767993116,-0.14110923554446464,0.006434635286485148,0.0,0.37035896197038387,0.10045047867488846,30.16456434597567,0.0,0.0,0.0,0.0,0.0,0.20157621248000002,0.0,0.0,0.01908576000000002,0.0,0.0,0.0,0.0,0.0,0.0,0.0,0.0,0.20157621248,0.0,0.0,0.01908576
0.2500000000000001,-0.006215121517649048,-0.0015347639082938047,0.2298566694605468,-0.0336423931933915,-0.0096666481719375,0.046285753993006246,-0.004726207863709108,-0.001123943087456043,0.02643952666075733,-0.03502274595316587,-0.011141429443880448,0.06620462224058446,0.0005010031864523907,0.008850208966130441,-0.0027705476251193724,0.01889699243847051,-0.10941661382685643,0.00471092578308123,0.0,0.37035896197038387,0.10045047867488846,30.16456434597567,0.0,0.0,0.0,0.0,0.0,0.2016735127917334,0.0,0.0,0.01983642188964846,0.0,0.0,0.0,0.0,0.0,0.0,0.0,0.0,0.2016735127917334,0.0,0.0,0.0198364218896484
0.2550000000000001,-0.0063978240019656445,-0.0015880398462332454,0.23010576524204412,-0.03453237952025562,-0.010194678060283218,0.04683210732270819,-0.0063978240019656445,-0.0015880398462332454,0.028331168074075375,-0.03453237952025562,-0.010194678060283218,0.02623274208833317,0.0005068432354286641,0.008380443037597362,-0.002744224040072869,-0.010748826304208335,-0.06824019563068297,0.00533284973302954,0.0,0.37035896197038387,0.10045047867488846,30.16456434597567,0.0,0.0,0.0,0.0,0.0,0.20177459716796875,0.0,0.0,0.02059936523437502,0.0,0.0,0.0,0.0,0.0,0.0,0.0,0.0,0.2017745971679687,0.0,0.0,0.020599365234375
0.2600000000000001,-0.006562534619665799,-0.0016368774750357125,0.23032592486858028,-0.03598313965629398,-0.010688773626195743,0.04770653206735961,-0.0063978240019656445,-0.0015880398462332454,0.028331168074075375,-0.03453237952025562,-0.010194678060283218,0.02623274208833317,0.00038842319017625006,0.008207221578403508,-0.0027208148898613792,-0.03829405942056707,-0.01671957840644095,0.004293382777980763,0.0,-0.08451966287202445,-0.10115397874064622,32.409048453344624,0.0,0.0,0.0,0.0,0.0,0.20187952670777834,0.0,0.0,0.021374466811523454,0.0,0.0,0.0,0.0,0.0,0.0,0.0,0.0,0.2018795267077783,0.0,0.0,0.0213744668115234
0.2650000000000001,-0.0067569181410880004,-0.0016941896799657248,0.23058686639124462,-0.036543467825625765,-0.010720288579221676,0.049784478721268836,-0.0063978240019656445,-0.0015880398462332454,0.028331168074075375,-0.03453237952025562,-0.010194678060283218,0.02623274208833317,0.00014909885321708017,0.008198885882558495,-0.0027096753263072468,-0.04770041347813822,0.009469795249461841,8.627686038450381e-05,0.0,-0.08451966287202445,-0.10115397874064622,32.409048453344624,0.0,0.0,0.0,0.0,0.0,0.20198836189500002,0.0,0.0,0.022161603750000022,0.0,0.0,0.0,0.0,0.0,0.0,0.0,0.0,0.201988361895,0.0,0.0,0.02216160375
0.27000000000000013,-0.006929401127846174,-0.0017442964676321778,0.23082534671921165,-0.03731000529851541,-0.010749630348813634,0.05244204459900397,-0.0063978240019656445,-0.0015880398462332454,0.028331168074075375,-0.03453237952025562,-0.010194678060283218,0.02623274208833317,-8.864564592316877e-05,0.00831941963090057,-0.0027238507341121715,-0.0521199667536453,0.030598041500491023,-0.004983375646364411,0.0,-0.08451966287202445,-0.10115397874064622,32.409048453344624,0.0,0.0,0.0,0.0,0.0,0.20210116259999514,0.0,0.0,0.02296065353027346,0.0,0.0,0.0,0.0,0.0,0.0,0.0,0.0,0.2021011625999951,0.0,0.0,0.0229606535302734
0.27500000000000013,-0.007127680553270481,-0.0018002477062815155,0.23111515510298153,-0.03695089119091513,-0.010273141106636921,0.05550493581777319,-0.0063978240019656445,-0.0015880398462332454,0.028331168074075375,-0.03453237952025562,-0.010194678060283218,0.02623274208833317,-0.00031924329250983177,0.008462143087598717,-0.0027576414126475393,-0.03646515322714793,0.02529068865576464,-0.007202079274727427,0.0,-0.08451966287202445,-0.10115397874064622,32.409048453344624,0.0,0.0,0.0,0.0,0.0,0.20221798808140626,0.0,0.0,0.02377149398437502,0.0,0.0,0.0,0.0,0.0,0.0,0.0,0.0,0.2022179880814062,0.0,0.0,0.023771493984375
0.28000000000000014,-0.007300367079194253,-0.0018472277551495348,0.23138488137483054,-0.03702455098534203,-0.009889419885634404,0.05994182293558446,-0.0063978240019656445,-0.0015880398462332454,0.028331168074075375,-0.03453237952025562,-0.010194678060283218,0.02623274208833317,-0.00044921459897791563,0.008557282974081747,-0.0027979347741920145,-0.019386888513975544,0.011172936073779597,-0.010630040030027148,0.0,-0.08451966287202445,-0.10115397874064622,32.409048453344624,0.0,0.0,0.0,0.0,0.0,0.20233889698791505,0.0,0.0,0.024594003295898458,0.0,0.0,0.0,0.0,0.0,0.0,0.0,0.0,0.202338896987915,0.0,0.0,0.0245940032958984
0.28500000000000014,-0.007494293608744483,-0.0018975383596834252,0.23171544071845004,-0.035911747680292545,-0.009044654332014967,0.06341509533864012,-0.0063978240019656445,-0.0015880398462332454,0.028331168074075375,-0.03453237952025562,-0.010194678060283218,0.02623274208833317,-0.0004743788227413083,0.008537938827334522,-0.002876383454301761,0.009239683747737166,-0.011609177734818031,-0.017286739644030175,0.0,-0.08451966287202445,-0.10115397874064622,32.409048453344624,0.0,0.0,0.0,0.0,0.0,0.20246394736,0.0,0.0,0.025428060000000027,0.0,0.0,0.0,0.0,0.0,0.0,0.0,0.0,0.20246394736,0.0,0.0,0.02542806
0.29000000000000015,-0.007660688810276719,-0.0019389835149392844,0.23202595703929402,-0.03538099386837093,-0.008761661426702368,0.06883066537127966,-0.0063978240019656445,-0.0015880398462332454,0.028331168074075375,-0.03453237952025562,-0.010194678060283218,0.02623274208833317,-0.0003838695961063674,0.00842935764010924,-0.0029626167534409,0.02604523410712326,-0.031952289765020715,-0.02046573676812846,0.0,-0.08451966287202445,-0.10115397874064622,32.409048453344624,0.0,0.0,0.0,0.0,0.0,0.20259319663169434,0.0,0.0,0.026273542983398457,0.0,0.0,0.0,0.0,0.0,0.0,0.0,0.0,0.2025931966316943,0.0,0.0,0.0262735429833984
0.29500000000000015,-0.007844994463202151,-0.001982571908242138,0.23240484984678123,-0.034084649005530626,-0.007894402613882818,0.07314207150945766,-0.0063978240019656445,-0.0015880398462332454,0.028331168074075375,-0.03453237952025562,-0.010194678060283218,0.02623274208833317,-0.0001498917020462593,0.008203555125299298,-0.003074643993497041,0.0538651901772314,-0.048972765009930266,-0.02094510032696065,0.0,-0.08451966287202445,-0.10115397874064622,32.409048453344624,0.0,0.0,0.0,0.0,0.0,0.20272670163234377,0.0,0.0,0.027130331484375027,0.0,0.0,0.0,0.0,0.0,0.0,0.0,0.0,0.2027267016323437,0.0,0.0,0.027130331484375
0.30000000000000016,-0.008002565785726792,-0.0020193541150090527,0.23276023952382205,-0.033340918047479184,-0.007835519001365882,0.07801473857442941,-0.0063978240019656445,-0.0015880398462332454,0.028331168074075375,-0.03453237952025562,-0.010194678060283218,0.02623274208833317,0.00011752074129363626,0.007945877035109574,-0.0031827203662015326,0.05907817781332316,-0.05668501908824425,-0.025876916905374327,0.0,-0.08451966287202445,-0.10115397874064622,32.409048453344624,0.0,0.0,0.0,0.0,0.0,0.20286451858836427,0.0,0.0,0.027998305092773464,0.0,0.0,0.0,0.0,0.0,0.0,0.0,0.0,0.2028645185883642,0.0,0.0,0.0279983050927734
0.30500000000000016,-0.008176682893748817,-0.0020594063898027692,0.2331907715354895,-0.03224090535693619,-0.007500935579463733,0.08321010796379326,-0.008176682893748817,-0.0020594063898027692,0.030184068410489484,-0.03224090535693619,-0.007500935579463733,0.054332764213793225,0.0004543223265339107,0.007634938151805268,-0.003332323495448069,0.06133505738492241,-0.06362775928694335,-0.028118527910144433,0.0,-0.08451966287202445,-0.10115397874064622,32.409048453344624,0.0,0.0,0.0,0.0,0.0,0.20300670312500002,0.0,0.0,0.02887734375000003,0.0,0.0,0.0,0.0,0.0,0.0,0.0,0.0,0.203006703125,0.0,0.0,0.02887734375
0.31000000000000016,-0.008325227609765652,-0.0020961718851807637,0.23359299941346853,-0.03141179384525996,-0.007929169696206342,0.08827897529976982,-0.008176682893748817,-0.0020594063898027692,0.030184068410489484,-0.03224090535693619,-0.007500935579463733,0.054332764213793225,0.0007041946267698585,0.007347352745291735,-0.003472843587667923,0.04807990826550732,-0.056176235615925725,-0.030259822088025384,0.0,0.1767826890956466,0.23148728579282446,32.533617165298025,0.0,0.0,0.0,0.0,0.0,0.20315331026808106,0.0,0.0,0.029767327749023464,0.0,0.0,0.0,0.0,0.0,0.0,0.0,0.0,0.203153310268081,0.0,0.0,0.0297673277490234
0.31500000000000017,-0.008491026730170857,-0.002138864222836568,0.23408293273669112,-0.030851756394863688,-0.008435526835234243,0.09489526364517804,-0.008176682893748817,-0.0020594063898027692,0.030184068410489484,-0.03224090535693619,-0.007500935579463733,0.054332764213793225,0.0008834466254344147,0.007111277576476105,-0.0036412996268612545,0.017184273230959883,-0.04163754090169708,-0.03371792775513066,0.0,0.1767826890956466,0.23148728579282446,32.533617165298025,0.0,0.0,0.0,0.0,0.0,0.20330439444578127,0.0,0.0,0.03066813773437503,0.0,0.0,0.0,0.0,0.0,0.0,0.0,0.0,0.2033043944457812,0.0,0.0,0.030668137734375
0.3200000000000002,-0.008633661781736052,-0.0021803950631836756,0.2345416459845566,-0.030365502640320792,-0.008975429598551165,0.10089138314162423,-0.008176682893748817,-0.0020594063898027692,0.030184068410489484,-0.03224090535693619,-0.007500935579463733,0.054332764213793225,0.0008694711718980891,0.007011011398820572,-0.0038104520242874776,-0.01629923757784787,-0.002771209327902641,-0.037060538108749236,0.0,0.1767826890956466,0.23148728579282446,32.533617165298025,0.0,0.0,0.0,0.0,0.0,0.203460009490376,0.0,0.0,0.03157965470214847,0.0,0.0,0.0,0.0,0.0,0.0,0.0,0.0,0.203460009490376,0.0,0.0,0.0315796547021484
0.3250000000000002,-0.008794324743917463,-0.0022298502910148444,0.23510142410363993,-0.029913124588534037,-0.009809864119116945,0.10820850087138555,-0.008176682893748817,-0.0020594063898027692,0.030184068410489484,-0.03224090535693619,-0.007500935579463733,0.054332764213793225,0.0006735561369475914,0.007044858408396316,-0.004014498148679629,-0.05282219651771377,0.013216178086449737,-0.039555789299051056,0.0,0.1767826890956466,0.23148728579282446,32.533617165298025,0.0,0.0,0.0,0.0,0.0,0.20362020864000002,0.0,0.0,0.03250176000000004,0.0,0.0,0.0,0.0,0.0,0.0,0.0,0.0,0.20362020864,0.0,0.0,0.03250176
0.3300000000000002,-0.008932762528004836,-0.0022763846557104935,0.23562264141419131,-0.02955176006146057,-0.009819440349675851,0.11440348485742441,-0.008176682893748817,-0.0020594063898027692,0.030184068410489484,-0.03224090535693619,-0.007500935579463733,0.054332764213793225,0.000356319206403775,0.007184117946844725,-0.004190246331157684,-0.0712698566275852,0.03920178403543112,-0.03774065521412757,0.0,0.1767826890956466,0.23148728579282446,32.533617165298025,0.0,0.0,0.0,0.0,0.0,0.2037850445404053,0.0,0.0,0.03343433532714848,0.0,0.0,0.0,0.0,0.0,0.0,0.0,0.0,0.2037850445404053,0.0,0.0,0.0334343353271484
0.3350000000000002,-0.009088782044426692,-0.0023301655618242862,0.23625525321129537,-0.028929077144427072,-0.01040747009755412,0.12170759477125943,-0.008176682893748817,-0.0020594063898027692,0.030184068410489484,-0.03224090535693619,-0.007500935579463733,0.054332764213793225,-7.30822137113407e-05,0.0073910213251242775,-0.004401554111988255,-0.08735940703118886,0.038213170574787056,-0.039656508764687286,0.0,0.1767826890956466,0.23148728579282446,32.533617165298025,0.0,0.0,0.0,0.0,0.0,0.20395456924671876,0.0,0.0,0.03437726273437504,0.0,0.0,0.0,0.0,0.0,0.0,0.0,0.0,0.2039545692467187,0.0,0.0,0.034377262734375
0.3400000000000002,-0.009222692425511141,-0.0023774231732984143,0.23684024886938554,-0.02860365202977772,-0.009770299456216033,0.12813279749693696,-0.008176682893748817,-0.0020594063898027692,0.030184068410489484,-0.03224090535693619,-0.007500935579463733,0.054332764213793225,-0.00044831413622061503,0.007568324243237846,-0.00457746994233827,-0.07161150128694417,0.03481626676543606,-0.03736663812240956,0.0,0.1767826890956466,0.23148728579282446,32.533617165298025,0.0,0.0,0.0,0.0,0.0,0.2041288342252002,0.0,0.0,0.03533042462402348,0.0,0.0,0.0,0.0,0.0,0.0,0.0,0.0,0.2041288342252002,0.0,0.0,0.0353304246240234
0.3450000000000002,-0.009373915551206523,-0.0024316560022020336,0.2375480382469338,-0.02813897200738315,-0.01024470965093872,0.13612199143309728,-0.008176682893748817,-0.0020594063898027692,0.030184068410489484,-0.03224090535693619,-0.007500935579463733,0.054332764213793225,-0.0008058012682714696,0.007693894588795137,-0.004774563744655936,-0.0628561593815566,0.013695275038012529,-0.033500872939744825,0.0,0.1767826890956466,0.23148728579282446,32.533617165298025,0.0,0.0,0.0,0.0,0.0,0.20430789035500002,0.0,0.0,0.03629370375000004,0.0,0.0,0.0,0.0,0.0,0.0,0.0,0.0,0.204307890355,0.0,0.0,0.03629370375
0.3500000000000002,-0.0095046876508678,-0.0024770317839480287,0.23820122061870522,-0.02790960063462438,-0.00965486663460257,0.14295310614402879,-0.008176682893748817,-0.0020594063898027692,0.030184068410489484,-0.03224090535693619,-0.007500935579463733,0.054332764213793225,-0.0010018897923846034,0.007709889070308605,-0.004932345585978789,-0.032593291334666624,-0.004916935434873284,-0.03616255681587741,0.0,0.1767826890956466,0.23148728579282446,32.533617165298025,0.0,0.0,0.0,0.0,0.0,0.204491787929917,0.0,0.0,0.03726698321777347,0.0,0.0,0.0,0.0,0.0,0.0,0.0,0.0,0.204491787929917,0.0,0.0,0.0372669832177734
0.3550000000000002,-0.009652452983159868,-0.0025302083054838356,0.23899008229761098,-0.027532072394547875,-0.009750734548904641,0.15140315594503093,-0.009652452983159868,-0.0025302083054838356,0.03430950563745472,-0.027532072394547875,-0.009750734548904641,0.11315300946065589,-0.0010935363652735761,0.007613746770302759,-0.005117105581025808,-0.0037045335274947322,-0.02840171360051259,-0.03056935402030996,0.0,0.1767826890956466,0.23148728579282446,32.533617165298025,0.0,0.0,0.0,0.0,0.0,0.20468057666015627,0.0,0.0,0.03825014648437504,0.0,0.0,0.0,0.0,0.0,0.0,0.0,0.0,0.2046805766601562,0.0,0.0,0.038250146484375
0.3600000000000002,-0.009781640826634127,-0.0025759459355050424,0.23971619487533058,-0.02787173470244627,-0.010228085039556523,0.1589223621528607,-0.009652452983159868,-0.0025302083054838356,0.03430950563745472,-0.027532072394547875,-0.009750734548904641,0.11315300946065589,-0.0010783764809156272,0.007466685436511635,-0.005266842919233946,0.005259449797586126,-0.033084096105807426,-0.0332343599832204,0.0,0.44931759355776757,0.5317527199552593,32.03889062623956,0.0,0.0,0.0,0.0,0.0,0.20487430567408693,0.0,0.0,0.03924307735839848,0.0,0.0,0.0,0.0,0.0,0.0,0.0,0.0,0.2048743056740869,0.0,0.0,0.0392430773583984
0.3650000000000002,-0.00993014964144886,-0.0026311313344832762,0.240591112274264,-0.027930951003197826,-0.010299369720838232,0.16761855789107252,-0.009652452983159868,-0.0025302083054838356,0.03430950563745472,-0.027532072394547875,-0.009750734548904641,0.11315300946065589,-0.0010453738741909935,0.007279046307503478,-0.005420782566015349,0.006329332108009731,-0.03286727202135148,-0.028232527237967316,0.0,0.44931759355776757,0.5317527199552593,32.03889062623956,0.0,0.0,0.0,0.0,0.0,0.20507302352,0.0,0.0,0.040245660000000044,0.0,0.0,0.0,0.0,0.0,0.0,0.0,0.0,0.20507302352,0.0,0.0,0.04024566
0.3700000000000002,-0.01006194325129421,-0.002681170850281675,0.2413925565342198,-0.0284101956175039,-0.011182630754939351,0.17509380799004842,-0.009652452983159868,-0.0025302083054838356,0.03430950563745472,-0.027532072394547875,-0.009750734548904641,0.11315300946065589,-0.0010450876265273026,0.007171150455542649,-0.005564580197168785,-0.005515403915489724,-0.014901265687162771,-0.0301313943361312,0.0,0.44931759355776757,0.5317527199552593,32.03889062623956,0.0,0.0,0.0,0.0,0.0,0.20527677816786624,0.0,0.0,0.041257778920898484,0.0,0.0,0.0,0.0,0.0,0.0,0.0,0.0,0.2052767781678662,0.0,0.0,0.0412577789208984
0.3750000000000002,-0.010213352569759583,-0.002740942078681811,0.24235107765310762,-0.028647117677655376,-0.011218428815044371,0.18315398676073,-0.009652452983159868,-0.0025302083054838356,0.03430950563745472,-0.027532072394547875,-0.009750734548904641,0.11315300946065589,-0.0011223974986344892,0.007102893926205503,-0.00570321737879757,-0.018606224885053046,-0.004765069326032844,-0.02656695699620768,0.0,0.44931759355776757,0.5317527199552593,32.03889062623956,0.0,0.0,0.0,0.0,0.0,0.20548561701109377,0.0,0.0,0.04227931898437504,0.0,0.0,0.0,0.0,0.0,0.0,0.0,0.0,0.2054856170110937,0.0,0.0,0.042279318984375
0.3800000000000002,-0.010348977378240183,-0.002795896105238918,0.243225100761779,-0.029037599557067056,-0.012037470146308625,0.19050088060219222,-0.009652452983159868,-0.0025302083054838356,0.03430950563745472,-0.027532072394547875,-0.009750734548904641,0.11315300946065589,-0.0012725440133310763,0.007141380303684892,-0.005822244208032623,-0.039627478986670336,0.008953982611365442,-0.02294077408307096,0.0,0.44931759355776757,0.5317527199552593,32.03889062623956,0.0,0.0,0.0,0.0,0.0,0.20569958686828616,0.0,0.0,0.04331016540527349,0.0,0.0,0.0,0.0,0.0,0.0,0.0,0.0,0.2056995868682861,0.0,0.0,0.0433101654052734
0.38500000000000023,-0.010503893745982101,-0.002859817021605677,0.24426298952160685,-0.029343190256493727,-0.012139407843168162,0.19781801735750815,-0.009652452983159868,-0.0025302083054838356,0.03430950563745472,-0.027532072394547875,-0.009750734548904641,0.11315300946065589,-0.0015149782752320255,0.0072314547970773494,-0.005949680278740694,-0.05209301258977056,0.030235603967663872,-0.026192738099628226,0.0,0.44931759355776757,0.5317527199552593,32.03889062623956,0.0,0.0,0.0,0.0,0.0,0.20591873398500002,0.0,0.0,0.04435020375000005,0.0,0.0,0.0,0.0,0.0,0.0,0.0,0.0,0.205918733985,0.0,0.0,0.04435020375
0.39000000000000024,-0.010640668936846346,-0.002918615213296358,0.24520445312086964,-0.029079584406440394,-0.01262806659565562,0.20437936024545994,-0.009652452983159868,-0.0025302083054838356,0.03430950563745472,-0.027532072394547875,-0.009750734548904641,0.11315300946065589,-0.001789894465262771,0.007379289042009342,-0.006059303280145419,-0.06116988192467327,0.026487355379754485,-0.021291263599403667,0.0,0.44931759355776757,0.5317527199552593,32.03889062623956,0.0,0.0,0.0,0.0,0.0,0.20614310403550296,0.0,0.0,0.0453993199365235,0.0,0.0,0.0,0.0,0.0,0.0,0.0,0.0,0.2061431040355029,0.0,0.0,0.0453993199365235
0.39500000000000024,-0.010796282651273968,-0.002986170042119041,0.24631746773247112,-0.029377521342361188,-0.012924325090388116,0.21196515757645482,-0.009652452983159868,-0.0025302083054838356,0.03430950563745472,-0.027532072394547875,-0.009750734548904641,0.11315300946065589,-0.0021181062057352967,0.007549425862758186,-0.0061785428154120265,-0.06679177108952156,0.036138264398262274,-0.02285700919815533,0.0,0.44931759355776757,0.5317527199552593,32.03889062623956,0.0,0.0,0.0,0.0,0.0,0.20637274212453127,0.0,0.0,0.04645740023437505,0.0,0.0,0.0,0.0,0.0,0.0,0.0,0.0,0.2063727421245312,0.0,0.0,0.046457400234375
0.40000000000000024,-0.010931933649323319,-0.0030463163523471487,0.24732229308197906,-0.028737436551181803,-0.012783975839344725,0.21790636820637677,-0.009652452983159868,-0.0025302083054838356,0.03430950563745472,-0.027532072394547875,-0.009750734548904641,0.11315300946065589,-0.002417245656405548,0.007697741214063792,-0.006283214167967713,-0.06143538692631448,0.028629265037164446,-0.02286029831556765,0.0,0.44931759355776757,0.5317527199552593,32.03889062623956,0.0,0.0,0.0,0.0,0.0,0.20660769278904786,0.0,0.0,0.0475243312646485,0.0,0.0,0.0,0.0,0.0,0.0,0.0,0.0,0.2066076927890478,0.0,0.0,0.0475243312646485
0.40500000000000025,-0.011084936001888734,-0.003115196809622627,0.2485079543864866,-0.028625745644060806,-0.013010816442499146,0.225659320513495,-0.011084936001888734,-0.003115196809622627,0.041659954386486564,-0.028625745644060806,-0.013010816442499146,0.17705932051349493,-0.00275369318489537,0.007863466734965924,-0.0064070263742711945,-0.0617403885919178,0.028626362004895153,-0.02245833194424837,0.0,0.44931759355776757,0.5317527199552593,32.03889062623956,0.0,0.0,0.0,0.0,0.0,0.20684800000000003,0.0,0.0,0.04860000000000006,0.0,0.0,0.0,0.0,0.0,0.0,0.0,0.0,0.206848,0.0,0.0,0.0486
0.41000000000000025,-0.011217236623118137,-0.0031752841318241653,0.24957564586932562,-0.028283315425547864,-0.012826932412605525,0.23150801206648233,-0.011084936001888734,-0.003115196809622627,0.041659954386486564,-0.028625745644060806,-0.013010816442499146,0.17705932051349493,-0.003020116915335375,0.00798458120070028,-0.006504558747585484,-0.05791316387999522,0.027693533813353155,-0.020230077252515247,0.0,0.5667561455956633,0.6228063009310645,31.370555027623855,0.0,0.0,0.0,0.0,0.0,0.20709370716407718,0.0,0.0,0.0496842937646485,0.0,0.0,0.0,0.0,0.0,0.0,0.0,0.0,0.2070937071640771,0.0,0.0,0.0496842937646485
0.41500000000000026,-0.011367737104569448,-0.0032425521107683824,0.25083154842274363,-0.028007600766279183,-0.012317439925397883,0.2382622377048364,-0.011084936001888734,-0.003115196809622627,0.041659954386486564,-0.028625745644060806,-0.013010816442499146,0.17705932051349493,-0.0033299971567368604,0.008130452906800378,-0.006611803749998905,-0.052130637869878094,0.023196543664774694,-0.01985733379614161,0.0,0.5667561455956633,0.6228063009310645,31.370555027623855,0.0,0.0,0.0,0.0,0.0,0.20734485712546877,0.0,0.0,0.05077710023437505,0.0,0.0,0.0,0.0,0.0,0.0,0.0,0.0,0.2073448571254687,0.0,0.0,0.050777100234375
0.42000000000000026,-0.011496899052650042,-0.003299896782402518,0.2519585127228246,-0.027479622698081102,-0.012289127285117546,0.24409888516764605,-0.011084936001888734,-0.003115196809622627,0.041659954386486564,-0.028625745644060806,-0.013010816442499146,0.17705932051349493,-0.0035873890481176772,0.008252037822955216,-0.0067015899326467385,-0.056875716718658736,0.02890998076733031,-0.017906262908641796,0.0,0.5667561455956633,0.6228063009310645,31.370555027623855,0.0,0.0,0.0,0.0,0.0,0.20760149216762208,0.0,0.0,0.051878307436523496,0.0,0.0,0.0,0.0,0.0,0.0,0.0,0.0,0.207601492167622,0.0,0.0,0.0518783074365234
0.42500000000000027,-0.011641640699522973,-0.0033635396082946066,0.25327848794249586,-0.02691084555562075,-0.011722747232215721,0.2499828825172694,-0.011084936001888734,-0.003115196809622627,0.041659954386486564,-0.028625745644060806,-0.013010816442499146,0.17705932051349493,-0.0038815490930974314,0.008368107357286192,-0.006787083520670506,-0.05447390922397324,0.02363298339335159,-0.013151266993041071,0.0,0.5667561455956633,0.6228063009310645,31.370555027623855,0.0,0.0,0.0,0.0,0.0,0.20786365401500004,0.0,0.0,0.05298780375000006,0.0,0.0,0.0,0.0,0.0,0.0,0.0,0.0,0.207863654015,0.0,0.0,0.05298780375
0.43000000000000027,-0.01176600091677863,-0.003417705501956651,0.2544596260192748,-0.026379267455789786,-0.011286366347537236,0.2553917511394856,-0.011084936001888734,-0.003115196809622627,0.041659954386486564,-0.028625745644060806,-0.013010816442499146,0.17705932051349493,-0.0041516992395137075,0.008474327183291087,-0.006842336005326802,-0.05842806640102769,0.021203109453734256,-0.012265256325723844,0.0,0.5667561455956633,0.6228063009310645,31.370555027623855,0.0,0.0,0.0,0.0,0.0,0.2081313838348389,0.0,0.0,0.054105477905273515,0.0,0.0,0.0,0.0,0.0,0.0,0.0,0.0,0.2081313838348389,0.0,0.0,0.0541054779052735
0.4350000000000003,-0.011903753334331264,-0.0034754805736258235,0.255838677916982,-0.025550635143789246,-0.01060181623173736,0.2611179008229709,-0.011084936001888734,-0.003115196809622627,0.041659954386486564,-0.028625745644060806,-0.013010816442499146,0.17705932051349493,-0.004451574553175364,0.008553375786094261,-0.006900926797309797,-0.05394859745368786,0.01970774701458461,-0.008881683109759625,0.0,0.5667561455956633,0.6228063009310645,31.370555027623855,0.0,0.0,0.0,0.0,0.0,0.20840472223890627,0.0,0.0,0.055231218984375066,0.0,0.0,0.0,0.0,0.0,0.0,0.0,0.0,0.2084047222389062,0.0,0.0,0.055231218984375
0.4400000000000003,-0.012021082361502015,-0.0035241601520418185,0.25707081963206646,-0.024711729885735074,-0.010102804764565002,0.2660759176861551,-0.011084936001888734,-0.003115196809622627,0.041659954386486564,-0.028625745644060806,-0.013010816442499146,0.17705932051349493,-0.0047006076830948635,0.008639022902876608,-0.006937960669768602,-0.05041775800932403,0.010912499605926329,-0.007723895543000122,0.0,0.5667561455956633,0.6228063009310645,31.370555027623855,0.0,0.0,0.0,0.0,0.0,0.2086837092852588,0.0,0.0,0.0563649164208985,0.0,0.0,0.0,0.0,0.0,0.0,0.0,0.0,0.2086837092852588,0.0,0.0,0.0563649164208985
0.4450000000000003,-0.012150839773832814,-0.0035772670781805275,0.2585082218010397,-0.024176525258471984,-0.009772710823318976,0.27230650862166755,-0.011084936001888734,-0.003115196809622627,0.041659954386486564,-0.028625745644060806,-0.013010816442499146,0.17705932051349493,-0.004938557517424302,0.008724078698657213,-0.006957591299151264,-0.03899856543678173,0.021299221219153425,-0.00033272729053511853,0.0,0.5667561455956633,0.6228063009310645,31.370555027623855,0.0,0.0,0.0,0.0,0.0,0.20896838448000002,0.0,0.0,0.057506460000000065,0.0,0.0,0.0,0.0,0.0,0.0,0.0,0.0,0.20896838448,0.0,0.0,0.05750646
0.4500000000000003,-0.01226152597911739,-0.0036208183388123606,0.259791217962701,-0.023279371069794084,-0.009212821878811745,0.27704553817645755,-0.011084936001888734,-0.003115196809622627,0.041659954386486564,-0.028625745644060806,-0.013010816442499146,0.17705932051349493,-0.005114600344162179,0.008818855903315489,-0.006970075052917798,-0.038830843348956465,0.018250908636244605,-0.0032609653485145655,0.0,0.5667561455956633,0.6228063009310645,31.370555027623855,0.0,0.0,0.0,0.0,0.0,0.20925878677903811,0.0,0.0,0.0586557398583985,0.0,0.0,0.0,0.0,0.0,0.0,0.0,0.0,0.2092587867790381,0.0,0.0,0.0586557398583985
0.4550000000000003,-0.012383292367973175,-0.003669531918786119,0.2612880213715012,-0.022582095647090534,-0.008905523581292797,0.2832249056992777,-0.012383292367973175,-0.003669531918786119,0.05173306678165743,-0.022582095647090534,-0.008905523581292797,0.22341225921490265,-0.0052823007783218395,0.00894837429599531,-0.006966255061055541,-0.02594832126087667,0.026143444302874946,0.002822277144528416,0.0,0.5667561455956633,0.6228063009310645,31.370555027623855,0.0,0.0,0.0,0.0,0.0,0.20955495458984377,0.0,0.0,0.059812646484375065,0.0,0.0,0.0,0.0,0.0,0.0,0.0,0.0,0.2095549545898437,0.0,0.0,0.059812646484375
0.4600000000000003,-0.01248630352938492,-0.0037107398160932635,0.2626219452120549,-0.021767868065181672,-0.009038143497667989,0.2878841770824572,-0.012383292367973175,-0.003669531918786119,0.05173306678165743,-0.022582095647090534,-0.008905523581292797,0.22341225921490265,-0.005403643105503849,0.009043616581938235,-0.006951602051810951,-0.028083902003364546,0.02205104342457103,0.005192761916080165,0.0,0.4468998412534964,0.5075012604659661,31.151720844331667,0.0,0.0,0.0,0.0,0.0,0.20985692577320803,0.0,0.0,0.06097707071777351,0.0,0.0,0.0,0.0,0.0,0.0,0.0,0.0,0.209856925773208,0.0,0.0,0.0609770707177735
0.4650000000000003,-0.012599795298639896,-0.0037564520933661954,0.2641741398374763,-0.020887147343314753,-0.007982491868678516,0.29309047639523333,-0.012383292367973175,-0.003669531918786119,0.05173306678165743,-0.022582095647090534,-0.008905523581292797,0.22341225921490265,-0.005500912831255742,0.009128145355331619,-0.00690545441247644,-0.01191495516628244,0.007540746243272875,0.00762769061478371,0.0,0.4468998412534964,0.5075012604659661,31.151720844331667,0.0,0.0,0.0,0.0,0.0,0.21016473764500004,0.0,0.0,0.06214890375000007,0.0,0.0,0.0,0.0,0.0,0.0,0.0,0.0,0.210164737645,0.0,0.0,0.06214890375
0.4700000000000003,-0.01269488372534526,-0.0037947687583283233,0.26555347810541063,-0.019932134958303947,-0.008379960519630168,0.29750244694627903,-0.012383292367973175,-0.003669531918786119,0.05173306678165743,-0.022582095647090534,-0.008905523581292797,0.22341225921490265,-0.005592648137765351,0.009148471397085186,-0.006873366197833184,-0.018260090457969152,0.001705526568375177,0.008930084518559244,0.0,0.4468998412534964,0.5075012604659661,31.151720844331667,0.0,0.0,0.0,0.0,0.0,0.21047842697792485,0.0,0.0,0.0633280371240235,0.0,0.0,0.0,0.0,0.0,0.0,0.0,0.0,0.2104784269779248,0.0,0.0,0.0633280371240235
0.4750000000000003,-0.012798223037259658,-0.0038371226852180343,0.2671541319825739,-0.019048103841134197,-0.00775100433725326,0.3021687251418611,-0.012383292367973175,-0.003669531918786119,0.05173306678165743,-0.022582095647090534,-0.008905523581292797,0.22341225921490265,-0.005660903459004162,0.009088709876760291,-0.006821887286688694,-0.016296947822767846,-0.01909388931053054,0.008031787618639796,0.0,0.4468998412534964,0.5075012604659661,31.151720844331667,0.0,0.0,0.0,0.0,0.0,0.2107980300032813,0.0,0.0,0.06451436273437508,0.0,0.0,0.0,0.0,0.0,0.0,0.0,0.0,0.2107980300032813,0.0,0.0,0.064514362734375
0.4800000000000003,-0.012885666192401229,-0.003874734337616759,0.2685747082840606,-0.01843380675798338,-0.007960660897429344,0.3063017308840895,-0.012383292367973175,-0.003669531918786119,0.05173306678165743,-0.022582095647090534,-0.008905523581292797,0.22341225921490265,-0.005760046499991818,0.008997835055509428,-0.006777752595232373,-0.019829339397836963,-0.022981899248029056,0.011341385153354977,0.0,0.4468998412534964,0.5075012604659661,31.151720844331667,0.0,0.0,0.0,0.0,0.0,0.21112358241271975,0.0,0.0,0.0657077728271485,0.0,0.0,0.0,0.0,0.0,0.0,0.0,0.0,0.2111235824127197,0.0,0.0,0.0657077728271485
0.4850000000000003,-0.012981626148553149,-0.003913909425188656,0.2702211297925838,-0.017738754544837237,-0.007275084167827101,0.31051881211522125,-0.012383292367973175,-0.003669531918786119,0.05173306678165743,-0.022582095647090534,-0.008905523581292797,0.22341225921490265,-0.00587997257230586,0.008858489882244542,-0.006730894838499001,-0.02913210228951326,-0.025896634161666706,0.005065791239478012,0.0,0.4468998412534964,0.5075012604659661,31.151720844331667,0.0,0.0,0.0,0.0,0.0,0.21145511936000003,0.0,0.0,0.06690816000000008,0.0,0.0,0.0,0.0,0.0,0.0,0.0,0.0,0.21145511936,0.0,0.0,0.06690816
