time,pos_x,pos_y,pos_z,vel_x,vel_y,vel_z,pos_xo,pos_yo,pos_zo,vel_xo,vel_yo,vel_zo,roll,pitch,yaw,roll_vel,pitch_vel,yaw_vel,thrust_z,force_x,force_y,force_z,torque_x,torque_y,torque_z,pos_xd,pos_yd,pos_zd,vel_xd,vel_yd,vel_zd,roll_d,pitch_d,yaw_d,roll_vel_d,pitch_vel_d,yaw_vel_d,pos_xr,pos_yr,pos_zr,vel_xr,vel_yr,vel_zr
0.005,-7.608867422381818e-10,7.68545187386713e-11,0.20500533864569026,-1.1328736099577877e-07,1.8129151861237651e-09,0.0009998982603736954,-7.608867422381818e-10,7.68545187386713e-11,0.20500533864569026,-1.1328736099577877e-07,1.8129151861237651e-09,0.0009998982603736954,-6.296707151885788e-10,-5.964284633882685e-09,-1.5371445644005904e-10,1.142288154377894e-07,1.1109334095653863e-07,1.1337621063237022e-10,0.0,0.0,0.0,0.0,0.0,0.0,0.0,0.0,0.0,0.0,0.0,0.0,0.0,0.0,0.0,0.0,0.0,0.0,0.0,0.0,0.0,0.0,0.0,0.0,0.0
0.01,-2.399161423813437e-09,-1.386423910838241e-10,0.20501000484157397,2.19666794882475e-08,-2.4777886187609025e-08,0.000999900498933957,-7.608867422381818e-10,7.68545187386713e-11,0.20500533864569026,-1.1328736099577877e-07,1.8129151861237651e-09,0.0009998982603736954,4.0962397626554917e-10,-5.471315297987385e-09,-1.4877093041637835e-10,1.1806742726067554e-07,1.0812969151261851e-07,-3.4903117526838035e-10,0.0,3.8797038243918887e-07,-6.422171524234156e-09,31.6926944595756,0.0,0.0,0.0,0.0,0.0,2.4391180038452156e-09,0.0,0.0,1.4630132675170899e-06,0.0,0.0,0.0,0.0,0.0,0.0,0.0,0.0,2.4391180038452156e-09,0.0,0.0,1.46301326751709e-06
0.015,-2.2897990366258893e-09,-2.6478346944140094e-10,0.20501533766396393,1.9229404431762097e-08,-2.2597552742642824e-08,0.0009999075488998045,-7.608867422381818e-10,7.68545187386713e-11,0.20500533864569026,-1.1328736099577877e-07,1.8129151861237651e-09,0.0009998982603736954,1.0117647604096436e-09,-4.927537986412706e-09,-1.521034242956107e-10,1.0811292244824046e-07,9.653526997221317e-08,-4.5295920516701783e-10,0.0,3.8797038243918887e-07,-6.422171524234156e-09,31.6926944595756,0.0,0.0,0.0,0.0,0.0,1.949464721679688e-08,0.0,0.0,5.844735717773438e-06,0.0,0.0,0.0,0.0,0.0,0.0,0.0,0.0,1.9494647216796882e-08,0.0,0.0,5.844735717773438e-06
0.02,-2.2054378693997506e-09,-1.8680003214160284e-10,0.20502000391705685,1.7489615903644877e-08,1.0846362867207612e-07,0.0009999137856833843,-7.608867422381818e-10,7.68545187386713e-11,0.20500533864569026,-1.1328736099577877e-07,1.8129151861237651e-09,0.0009998982603736954,6.247198322609228e-10,-4.501431761300855e-09,-1.6143520029355596e-10,-5.298356487294818e-07,8.843192441465402e-08,-6.607140944419004e-10,0.0,3.8797038243918887e-07,-6.422171524234156e-09,31.6926944595756,0.0,0.0,0.0,0.0,0.0,6.573271350860595e-08,0.0,0.0,1.3134201622009276e-05,0.0,0.0,0.0,0.0,0.0,0.0,0.0,0.0,6.573271350860595e-08,0.0,0.0,1.3134201622009276e-05
0.025,-2.1152371754841118e-09,2.0685547040064788e-09,0.20502533680282686,1.6338531971734393e-08,-1.765822802502982e-08,0.000999918621597542,-7.608867422381818e-10,7.68545187386713e-11,0.20500533864569026,-1.1328736099577877e-07,1.8129151861237651e-09,0.0009998982603736954,1.1180711844825264e-09,-4.045975509730341e-09,-1.6401942469178443e-10,8.717455809500324e-08,8.233842188666855e-08,-3.761071043805787e-10,0.0,3.8797038243918887e-07,-6.422171524234156e-09,31.6926944595756,0.0,0.0,0.0,0.0,0.0,1.5566464843750004e-07,0.0,0.0,2.3320458984375003e-05,0.0,0.0,0.0,0.0,0.0,0.0,0.0,0.0,1.5566464843750007e-07,0.0,0.0,2.3320458984375003e-05
0.030000000000000002,-2.0344152929207313e-09,1.9946561830747554e-09,0.20503000311374645,1.509251149567394e-08,-1.447302189216748e-08,0.0009999280897535704,-7.608867422381818e-10,7.68545187386713e-11,0.20500533864569026,-1.1328736099577877e-07,1.8129151861237651e-09,0.0009998982603736954,1.4873548250582543e-09,-3.6422992264486516e-09,-1.0321329795382608e-10,7.30062595338365e-08,7.485997611691552e-08,1.2031818106538176e-10,0.0,3.8797038243918887e-07,-6.422171524234156e-09,31.6926944595756,0.0,0.0,0.0,0.0,0.0,3.0374705791473393e-07,0.0,0.0,3.6392569541931154e-05,0.0,0.0,0.0,0.0,0.0,0.0,0.0,0.0,3.03747057914734e-07,0.0,0.0,3.6392569541931154e-05
0.035,-2.620373816468736e-10,1.9260166925504942e-09,0.2050353361080897,1.4436907618346878e-08,-1.2315646284665311e-08,0.0009999416827803566,-7.608867422381818e-10,7.68545187386713e-11,0.20500533864569026,-1.1328736099577877e-07,1.8129151861237651e-09,0.0009998982603736954,1.8345433807619747e-09,-3.2644970535896313e-09,-2.0092259678943392e-10,6.172944073956632e-08,6.860402642321203e-08,1.53665772245409e-10,0.0,3.8797038243918887e-07,-6.422171524234156e-09,31.6926944595756,0.0,0.0,0.0,0.0,0.0,5.243818908691408e-07,0.0,0.0,5.233960876464845e-05,0.0,0.0,0.0,0.0,0.0,0.0,0.0,0.0,5.243818908691408e-07,0.0,0.0,5.233960876464845e-05
0.04,-1.9176322439737541e-10,-4.8798365102839996e-09,0.20504000250248983,1.5521967997348196e-08,-1.4901512029458324e-08,0.0009999406450795353,-7.608867422381818e-10,7.68545187386713e-11,0.20500533864569026,-1.1328736099577877e-07,1.8129151861237651e-09,0.0009998982603736954,2.616290009110963e-09,-2.9338781752309758e-09,-1.6563832824572938e-10,7.117378319787423e-08,7.27153703835719e-08,-5.12931258000982e-11,0.0,3.8797038243918887e-07,-6.422171524234156e-09,31.6926944595756,0.0,0.0,0.0,0.0,0.0,8.319165079116823e-07,0.0,0.0,7.115066585540773e-05,0.0,0.0,0.0,0.0,0.0,0.0,0.0,0.0,8.319165079116823e-07,0.0,0.0,7.115066585540773e-05
0.045,-1.037892951825501e-09,-4.972449842744167e-09,0.20504533554518325,-1.3659606570545481e-06,-1.2066827962096122e-08,0.0009999519209894767,-7.608867422381818e-10,7.68545187386713e-11,0.20500533864569026,-1.1328736099577877e-07,1.8129151861237651e-09,0.0009998982603736954,3.0572747221954813e-09,-2.592289725311149e-09,-7.23196766084183e-11,5.724914093508204e-08,5.377980557400853e-08,-3.7134856374941095e-10,0.0,3.8797038243918887e-07,-6.422171524234156e-09,31.6926944595756,0.0,0.0,0.0,0.0,0.0,1.2406437500000003e-06,0.0,0.0,9.281484375e-05,0.0,0.0,0.0,0.0,0.0,0.0,0.0,0.0,1.2406437500000003e-06,0.0,0.0,9.281484375e-05
0.049999999999999996,-1.0038584101016214e-09,1.0960127816847256e-09,0.20505000202084003,3.0484368644969008e-09,2.2712342616805943e-07,0.0009999606831038697,-7.608867422381818e-10,7.68545187386713e-11,0.20500533864569026,-1.1328736099577877e-07,1.8129151861237651e-09,0.0009998982603736954,2.361654141744632e-09,-2.4186719144784492e-09,-1.5592698490112742e-10,-1.1055285300587864e-06,1.7221649969730425e-08,1.1758770061712047e-10,0.0,3.8797038243918887e-07,-6.422171524234156e-09,31.6926944595756,0.0,0.0,0.0,0.0,0.0,1.7648020071029662e-06,0.0,0.0,0.00011732125911712646,0.0,0.0,0.0,0.0,0.0,0.0,0.0,0.0,1.7648020071029662e-06,0.0,0.0,0.0001173212591171
0.05499999999999999,2.955916680718632e-10,1.060528734615042e-09,0.20505466849580406,9.251950734818265e-09,-7.332819143469631e-09,0.0009999599451749853,2.955916680718632e-10,1.060528734615042e-09,0.20505224992051718,9.251950734818265e-09,-7.332819143469631e-09,0.0008553009028165869,2.545271836210633e-09,-2.085729229351993e-09,-1.47889545958045e-10,3.7928044651204616e-08,4.430871402969507e-08,7.196749904320827e-10,0.0,3.8797038243918887e-07,-6.422171524234156e-09,31.6926944595756,0.0,0.0,0.0,0.0,0.0,2.418575286865234e-06,0.0,0.0,0.00014465904235839842,0.0,0.0,0.0,0.0,0.0,0.0,0.0,0.0,2.418575286865234e-06,0.0,0.0,0.0001446590423583
0.05999999999999999,3.4350650598184656e-10,-1.2508366917440047e-08,0.20506000166135305,8.266242067726538e-09,-1.816866759273902e-05,0.0009999743607588345,2.955916680718632e-10,1.060528734615042e-09,0.20505224992051718,9.251950734818265e-09,-7.332819143469631e-09,0.0008553009028165869,3.5261093562017103e-09,-1.8663911181250866e-09,-7.66015585225111e-11,3.042861794685123e-08,3.684361200151495e-08,8.029955758350393e-10,0.0,-1.920144976156403e-08,2.478498439454759e-08,31.581177236849456,0.0,0.0,0.0,0.0,0.0,3.216093283271788e-06,0.0,0.0,0.00017481733760833738,0.0,0.0,0.0,0.0,0.0,0.0,0.0,0.0,3.216093283271788e-06,0.0,0.0,0.0001748173376083
0.06499999999999999,3.2290930426471003e-10,-1.254409630814711e-08,0.20506466820853123,-6.518195194420456e-08,-7.251828727222363e-09,0.0009999757569279712,2.955916680718632e-10,1.060528734615042e-09,0.20505224992051718,9.251950734818265e-09,-7.332819143469631e-09,0.0008553009028165869,3.690251746952315e-09,-1.981166008195292e-09,-1.0434988796283978e-10,3.3210190170110333e-08,-3.2099527209132855e-07,9.342341987636418e-10,0.0,-1.920144976156403e-08,2.478498439454759e-08,31.581177236849456,0.0,0.0,0.0,0.0,0.0,4.1714314453124984e-06,0.0,0.0,0.00020778530273437494,0.0,0.0,0.0,0.0,0.0,0.0,0.0,0.0,4.171431445312498e-06,0.0,0.0,0.0002077853027343
0.06999999999999999,2.6061936882778443e-10,1.0105111033961254e-08,0.20507000143308388,-2.6976017694139913e-06,2.4959984873847826e-05,0.000999983713360145,2.955916680718632e-10,1.060528734615042e-09,0.20505224992051718,9.251950734818265e-09,-7.332819143469631e-09,0.0008553009028165869,3.823441824717916e-09,-1.8474335727056926e-09,-3.148426833398213e-10,1.756533923268609e-08,1.825378798658297e-08,5.167324252880012e-10,0.0,-1.920144976156403e-08,2.478498439454759e-08,31.581177236849456,0.0,0.0,0.0,0.0,0.0,5.298611045646665e-06,0.0,0.0,0.00024355210933685295,0.0,0.0,0.0,0.0,0.0,0.0,0.0,0.0,5.298611045646665e-06,0.0,0.0,0.0002435521093368
0.075,1.065566420914077e-08,1.0186465155791074e-08,0.20507533470110278,3.9046893046627066e-09,-1.1903698341589108e-09,0.0009999882986897492,2.955916680718632e-10,1.060528734615042e-09,0.20505224992051718,9.251950734818265e-09,-7.332819143469631e-09,0.0008553009028165869,3.4416742568837415e-09,-1.7719363992514244e-09,-7.683794509042077e-11,8.030069922968907e-09,1.6995977483152806e-08,1.3022818619242175e-09,0.0,-1.920144976156403e-08,2.478498439454759e-08,31.581177236849456,0.0,0.0,0.0,0.0,0.0,6.6115992492675765e-06,0.0,0.0,0.00028210694274902334,0.0,0.0,0.0,0.0,0.0,0.0,0.0,0.0,6.6115992492675765e-06,0.0,0.0,0.000282106942749
0.08,1.0680754998723208e-08,-4.376623889871415e-09,0.2050800013136162,5.739063002411646e-09,-1.7218667055166305e-05,0.0009999888525742185,2.955916680718632e-10,1.060528734615042e-09,0.20505224992051718,9.251950734818265e-09,-7.332819143469631e-09,0.0008553009028165869,3.2433033019006497e-09,-1.667407611932449e-09,-1.2734633462570536e-10,-8.939656265838537e-07,2.34022597212836e-08,2.077816804210952e-07,0.0,-1.920144976156403e-08,2.478498439454759e-08,31.581177236849456,0.0,0.0,0.0,0.0,0.0,8.124309182167053e-06,0.0,0.0,0.0003234390020370483,0.0,0.0,0.0,0.0,0.0,0.0,0.0,0.0,8.124309182167053e-06,0.0,0.0,0.000323439002037
0.085,1.0703339637389487e-08,-4.657207076988781e-09,0.20508533460181858,3.4960549234983223e-09,-2.8275767674873915e-09,0.0009999909310125226,2.955916680718632e-10,1.060528734615042e-09,0.20505224992051718,9.251950734818265e-09,-7.332819143469631e-09,0.0008553009028165869,4.598400808713952e-09,-1.5720432056199514e-09,9.49084880565182e-11,1.2020756847520376e-08,1.5616100153173062e-08,9.791466021091605e-10,0.0,-1.920144976156403e-08,2.478498439454759e-08,31.581177236849456,0.0,0.0,0.0,0.0,0.0,9.850600000000002e-06,0.0,0.0,0.0003675375,0.0,0.0,0.0,0.0,0.0,0.0,0.0,0.0,9.850600000000002e-06,0.0,0.0,0.0003675375
0.09000000000000001,-5.3698327983454724e-09,2.167667619942797e-09,0.20509000124391297,2.5228221823980944e-10,-4.748295945562445e-10,0.0009999933954610983,2.955916680718632e-10,1.060528734615042e-09,0.20505224992051718,9.251950734818265e-09,-7.332819143469631e-09,0.0008553009028165869,3.087862298634364e-09,-1.540525567072543e-09,1.003670170326655e-10,3.847496286348164e-09,3.5881036320568275e-09,1.097203740257663e-09,0.0,-1.920144976156403e-08,2.478498439454759e-08,31.581177236849456,0.0,0.0,0.0,0.0,0.0,1.1804276956748965e-05,0.0,0.0,0.00041439166316986094,0.0,0.0,0.0,0.0,0.0,0.0,0.0,0.0,1.1804276956748965e-05,0.0,0.0,0.0004143916631698
0.09500000000000001,5.10319622452041e-09,2.170677836863237e-09,0.2050953345428247,1.0075300670855054e-07,3.985948087232017e-09,0.0009999993387200335,2.955916680718632e-10,1.060528734615042e-09,0.20505224992051718,9.251950734818265e-09,-7.332819143469631e-09,0.0008553009028165869,3.085771128644875e-09,-1.169738136212934e-09,2.1357318580065644e-10,-1.6256551338476692e-08,4.885790556986673e-07,2.0689253563664373e-09,0.0,-1.920144976156403e-08,2.478498439454759e-08,31.581177236849456,0.0,0.0,0.0,0.0,0.0,1.3999091473388677e-05,0.0,0.0,0.0004639907318115235,0.0,0.0,0.0,0.0,0.0,0.0,0.0,0.0,1.3999091473388676e-05,0.0,0.0,0.0004639907318115
0.10000000000000002,5.848061195072397e-07,1.072938802561497e-07,0.20510219890771417,0.00023142664569080092,-1.0216340606110672e-08,0.001049979096828178,2.955916680718632e-10,1.060528734615042e-09,0.20505224992051718,9.251950734818265e-09,-7.332819143469631e-09,0.0008553009028165869,-1.7723888172737767e-06,5.591090387352634e-06,1.1229990706153206e-06,1.7112032323031087e-08,0.0003372135169650236,4.299733603353988e-08,0.0,-1.920144976156403e-08,2.478498439454759e-08,31.581177236849456,0.0,0.0,0.0,0.0,0.0,1.6448741206550603e-05,0.0,0.0,0.0005163239599227907,0.0,0.0,0.0,0.0,0.0,0.0,0.0,0.0,1.6448741206550603e-05,0.0,0.0,0.0005163239599227
0.10500000000000002,1.4386855440171947e-06,1.0253001845670933e-07,0.20510818125669186,5.813551391795931e-05,-1.1680560282550914e-06,0.0016861100708380216,1.4386855440171947e-06,1.0253001845670933e-07,0.20508901438657468,5.813551391795931e-05,-1.1680560282550914e-06,0.0011147294556036465,-2.386957517823928e-06,7.81381345733642e-06,1.6075142904645385e-06,-0.0006320602873119763,0.0017255440403301952,0.0001627006306592671,0.0,-1.920144976156403e-08,2.478498439454759e-08,31.581177236849456,0.0,0.0,0.0,0.0,0.0,1.9166870117187512e-05,0.0,0.0,0.0005713806152343752,0.0,0.0,0.0,0.0,0.0,0.0,0.0,0.0,1.9166870117187512e-05,0.0,0.0,0.0005713806152343
0.11000000000000003,1.0488190366537367e-06,4.6902872788224125e-07,0.20512116537808162,-0.0001953325780567699,0.0001452738126830057,0.0020134287571023438,1.4386855440171947e-06,1.0253001845670933e-07,0.20508901438657468,5.813551391795931e-05,-1.1680560282550914e-06,0.0011147294556036465,-4.556374854289773e-06,1.795746652765056e-05,2.228016632274382e-06,-0.0004881155961612596,0.0027683686020435042,0.0001437416037059736,0.0,-0.00019254658454859197,3.4522161531037173e-06,31.729465523576575,0.0,0.0,0.0,0.0,0.0,2.2167068539237992e-05,0.0,0.0,0.0006291499792099002,0.0,0.0,0.0,0.0,0.0,0.0,0.0,0.0,2.2167068539237992e-05,0.0,0.0,0.0006291499792099
0.11500000000000003,8.786419850813148e-07,2.078269190621756e-06,0.20513075160089608,6.104326720725635e-05,0.0003859615721253368,0.0028553060977849036,1.4386855440171947e-06,1.0253001845670933e-07,0.20508901438657468,5.813551391795931e-05,-1.1680560282550914e-06,0.0011147294556036465,-1.3247474026554863e-05,2.9891858295548006e-05,-3.602281287269366e-07,-0.0024638730259285034,0.0029317183052727396,-0.001032318885258221,0.0,-0.00019254658454859197,3.4522161531037173e-06,31.729465523576575,0.0,0.0,0.0,0.0,0.0,2.546287324829103e-05,0.0,0.0,0.0006896213470458988,0.0,0.0,0.0,0.0,0.0,0.0,0.0,0.0,2.546287324829103e-05,0.0,0.0,0.0006896213470458
0.12000000000000004,1.5749719778786413e-06,3.4784428061764514e-06,0.20514834787253766,0.00019518478997087481,0.00017538346719482613,0.0033015560165682105,1.4386855440171947e-06,1.0253001845670933e-07,0.20508901438657468,5.813551391795931e-05,-1.1680560282550914e-06,0.0011147294556036465,-2.4499371447890106e-05,4.71536922324616e-05,-6.512450796926197e-06,-0.002583251927195346,0.004060500032649578,-0.0014089209586562994,0.0,-0.00019254658454859197,3.4522161531037173e-06,31.729465523576575,0.0,0.0,0.0,0.0,0.0,2.9067767530250576e-05,0.0,0.0,0.0007527840276718144,0.0,0.0,0.0,0.0,0.0,0.0,0.0,0.0,2.9067767530250576e-05,0.0,0.0,0.0007527840276718
0.12500000000000003,2.329437243848615e-06,3.639704686287979e-06,0.2051706183507541,8.259277251159533e-05,8.332416336985958e-06,0.005575329045962851,1.4386855440171947e-06,1.0253001845670933e-07,0.20508901438657468,5.813551391795931e-05,-1.1680560282550914e-06,0.0011147294556036465,-4.593592249372045e-05,7.450882745996219e-05,-1.7371698602222454e-05,-0.004128739715017086,0.004980086753871989,-0.0025155124040820206,0.0,-0.00019254658454859197,3.4522161531037173e-06,31.729465523576575,0.0,0.0,0.0,0.0,0.0,3.299518125000003e-05,0.0,0.0,0.0008186273437500005,0.0,0.0,0.0,0.0,0.0,0.0,0.0,0.0,3.299518125000003e-05,0.0,0.0,0.00081862734375
0.13000000000000003,2.259171598000681e-06,4.051164481838332e-06,0.20520174685376133,-5.569166918898725e-05,0.00016330425649430693,0.007016488013513785,1.4386855440171947e-06,1.0253001845670933e-07,0.20508901438657468,5.813551391795931e-05,-1.1680560282550914e-06,0.0011147294556036465,-6.593141855683598e-05,9.787271325906126e-05,-3.047257644966119e-05,-0.004666691493430948,0.005006430867825469,-0.0029242166584908984,0.0,-0.00019254658454859197,3.4522161531037173e-06,31.729465523576575,0.0,0.0,0.0,0.0,0.0,3.725849092006686e-05,0.0,0.0,0.0008871406316757206,0.0,0.0,0.0,0.0,0.0,0.0,0.0,0.0,3.725849092006686e-05,0.0,0.0,0.0008871406316757
0.13500000000000004,2.098964777032484e-06,5.18046358751349e-06,0.20525135665020386,5.0219659391805475e-05,0.00019448943964158922,0.011455324305232295,1.4386855440171947e-06,1.0253001845670933e-07,0.20508901438657468,5.813551391795931e-05,-1.1680560282550914e-06,0.0011147294556036465,-9.16025841809318e-05,0.00013035757927183983,-4.826073094444457e-05,-0.004166911154524208,0.006367083422211255,-0.003498027799108812,0.0,-0.00019254658454859197,3.4522161531037173e-06,31.729465523576575,0.0,0.0,0.0,0.0,0.0,4.187101976928713e-05,0.0,0.0,0.0009583132415771488,0.0,0.0,0.0,0.0,0.0,0.0,0.0,0.0,4.187101976928713e-05,0.0,0.0,0.0009583132415771
0.14000000000000004,2.6227910291268e-06,5.462872876833218e-06,0.20530740014150378,8.684437602027428e-05,-1.193208206066616e-05,0.013071127836196069,1.4386855440171947e-06,1.0253001845670933e-07,0.20508901438657468,5.813551391795931e-05,-1.1680560282550914e-06,0.0011147294556036465,-0.00011270411440794919,0.000155869434794955,-6.455783418739586e-05,-0.0034686752014162544,0.0052846529635689945,-0.0034298589494260066,0.0,-0.00019254658454859197,3.4522161531037173e-06,31.729465523576575,0.0,0.0,0.0,0.0,0.0,4.684603781147008e-05,0.0,0.0,0.0010321345373153694,0.0,0.0,0.0,0.0,0.0,0.0,0.0,0.0,4.684603781147008e-05,0.0,0.0,0.0010321345373153
0.14500000000000005,2.0986421196926355e-06,5.56883526210502e-06,0.20539555251818722,-0.00023712326539309986,9.118897214673874e-05,0.018517693323504492,1.4386855440171947e-06,1.0253001845670933e-07,0.20508901438657468,5.813551391795931e-05,-1.1680560282550914e-06,0.0011147294556036465,-0.0001294740775039053,0.00018156953501701468,-8.176764848903411e-05,-0.00346015194757349,0.004183426891916828,-0.0031170140591806213,0.0,-0.00019254658454859197,3.4522161531037173e-06,31.729465523576575,0.0,0.0,0.0,0.0,0.0,5.2196761914062555e-05,0.0,0.0,0.0011085938964843754,0.0,0.0,0.0,0.0,0.0,0.0,0.0,0.0,5.219676191406256e-05,0.0,0.0,0.0011085938964843
0.15000000000000005,6.552526150726518e-07,6.567878878950262e-06,0.20548557519092192,-0.0003473071803147158,0.00028439333535264417,0.021403226282598505,1.4386855440171947e-06,1.0253001845670933e-07,0.20508901438657468,5.813551391795931e-05,-1.1680560282550914e-06,0.0011147294556036465,-0.00014378731015825472,0.0001953582250230361,-9.503561519036091e-05,-0.002547704742786078,0.0034237895780416423,-0.002664997830982074,0.0,-0.00019254658454859197,3.4522161531037173e-06,31.729465523576575,0.0,0.0,0.0,0.0,0.0,5.793635586681371e-05,0.0,0.0,0.0011876807104110724,0.0,0.0,0.0,0.0,0.0,0.0,0.0,0.0,5.793635586681371e-05,0.0,0.0,0.001187680710411
0.15500000000000005,-7.583817443059611e-07,7.714358838777907e-06,0.2056181746210105,-0.00021167382929970983,0.00010604083684188218,0.025538263683021124,-7.583817443059611e-07,7.714358838777907e-06,0.20555409669056007,-0.00021167382929970983,0.00010604083684188218,0.02426887929886585,-0.000152592318177329,0.0002067569834257152,-0.00010616421611982612,-0.0013457262024370313,0.000909882702090634,-0.001993751376219179,0.0,-0.00019254658454859197,3.4522161531037173e-06,31.729465523576575,0.0,0.0,0.0,0.0,0.0,6.407793045043952e-05,0.0,0.0,0.0012693843841552744,0.0,0.0,0.0,0.0,0.0,0.0,0.0,0.0,6.407793045043952e-05,0.0,0.0,0.0012693843841552
0.16000000000000006,-2.082926491185974e-06,8.094928863376752e-06,0.2057532273117282,-0.00040557529590391756,8.702079344140285e-05,0.0317402260490507,-7.583817443059611e-07,7.714358838777907e-06,0.20555409669056007,-0.00021167382929970983,0.00010604083684188218,0.02426887929886585,-0.00014681805008802246,0.0002061622390902504,-0.0001126931497101246,0.0016655954788580363,-0.0010872619802884125,-0.0004744691086228177,0.0,0.00067513426914112,-0.00035844830531345646,31.72855370215687,0.0,0.0,0.0,0.0,0.0,7.063454350528726e-05,0.0,0.0,0.0013536943365097056,0.0,0.0,0.0,0.0,0.0,0.0,0.0,0.0,7.063454350528726e-05,0.0,0.0,0.0013536943365097
0.16500000000000006,-5.100531086951653e-06,8.97793654331342e-06,0.2059367505600301,-0.0005920516110185214,0.00030331172858219323,0.03649736405948728,-7.583817443059611e-07,7.714358838777907e-06,0.20555409669056007,-0.00021167382929970983,0.00010604083684188218,0.02426887929886585,-0.0001348767492035379,0.00020027746830375144,-0.00011381904221044254,0.0038362514035522235,-0.002437819430680971,7.196521719895414e-05,0.0,0.00067513426914112,-0.00035844830531345646,31.72855370215687,0.0,0.0,0.0,0.0,0.0,7.761920000000007e-05,0.0,0.0,0.0014406000000000009,0.0,0.0,0.0,0.0,0.0,0.0,0.0,0.0,7.761920000000007e-05,0.0,0.0,0.0014406
0.17000000000000007,-7.830320387795258e-06,1.0585707630709604e-05,0.20612475839024746,-0.0005472947506944963,0.0002928896789183908,0.04299160155077632,-7.583817443059611e-07,7.714358838777907e-06,0.20555409669056007,-0.00021167382929970983,0.00010604083684188218,0.02426887929886585,-0.00012079950995718095,0.00019826095668431813,-0.00010720835645547215,0.003182258795672532,0.0004743356925499524,0.0024600557081484596,0.0,0.00067513426914112,-0.00035844830531345646,31.72855370215687,0.0,0.0,0.0,0.0,0.0,8.504485210018168e-05,0.0,0.0,0.0015300908208847057,0.0,0.0,0.0,0.0,0.0,0.0,0.0,0.0,8.504485210018168e-05,0.0,0.0,0.0015300908208847
0.17500000000000007,-1.0718838907406854e-05,1.1530631657998901e-05,0.20636908057412962,-0.0005195039060716479,0.00011575465377223703,0.04882274155135549,-7.583817443059611e-07,7.714358838777907e-06,0.20555409669056007,-0.00021167382929970983,0.00010604083684188218,0.02426887929886585,-0.0001022782685126578,0.0002136926574302237,-9.20841390212297e-05,0.004119132784771905,0.003910476146427374,0.003338149842730763,0.0,0.00067513426914112,-0.00035844830531345646,31.72855370215687,0.0,0.0,0.0,0.0,0.0,9.292439923706067e-05,0.0,0.0,0.0016221562591552747,0.0,0.0,0.0,0.0,0.0,0.0,0.0,0.0,9.292439923706068e-05,0.0,0.0,0.0016221562591552
0.18000000000000008,-1.3931452968275254e-05,1.2275966525021686e-05,0.20661513240045198,-0.0008543298155662742,0.00020309954869814932,0.05534648884544273,-7.583817443059611e-07,7.714358838777907e-06,0.20555409669056007,-0.00021167382929970983,0.00010604083684188218,0.02426887929886585,-8.370072386789701e-05,0.0002330327207859225,-6.83461484460102e-05,0.0031037551911154617,0.0057722640858630814,0.0059402878160796785,0.0,0.00067513426914112,-0.00035844830531345646,31.72855370215687,0.0,0.0,0.0,0.0,0.0,0.00010127068817615522,0.0,0.0,0.001716785788536073,0.0,0.0,0.0,0.0,0.0,0.0,0.0,0.0,0.0001012706881761,0.0,0.0,0.001716785788536
0.18500000000000008,-1.8572550449132033e-05,1.4214000338223427e-05,0.2069245763417156,-0.0007597260124421187,0.0004676506361275239,0.061390413647179114,-7.583817443059611e-07,7.714358838777907e-06,0.20555409669056007,-0.00021167382929970983,0.00010604083684188218,0.02426887929886585,-7.271025052731447e-05,0.0002678407468731034,-3.2581897083026914e-05,0.0013084907765066975,0.006173470052617221,0.0077029971514614845,0.0,0.00067513426914112,-0.00035844830531345646,31.72855370215687,0.0,0.0,0.0,0.0,0.0,0.00011009651308593763,0.0,0.0,0.0018139688964843765,0.0,0.0,0.0,0.0,0.0,0.0,0.0,0.0,0.0001100965130859,0.0,0.0,0.0018139688964843
0.19000000000000009,-2.17404101325972e-05,1.6162657521654283e-05,0.20722808595211042,-0.0006759265136464825,0.00036958512087769996,0.06647008179127437,-7.583817443059611e-07,7.714358838777907e-06,0.20555409669056007,-0.00021167382929970983,0.00010604083684188218,0.02426887929886585,-7.250388637052629e-05,0.00030414575722833567,1.0027325403419671e-05,-0.0005944992463111567,0.009552358113454567,0.009602002306841682,0.0,0.00067513426914112,-0.00035844830531345646,31.72855370215687,0.0,0.0,0.0,0.0,0.0,0.00011941461560649889,0.0,0.0,0.0019136950841903704,0.0,0.0,0.0,0.0,0.0,0.0,0.0,0.0,0.0001194146156064,0.0,0.0,0.0019136950841903
0.1950000000000001,-2.4783287821300467e-05,1.7989421618869212e-05,0.20760084004290702,-0.0005453854238693548,0.0003386921394542761,0.07351018553906424,-7.583817443059611e-07,7.714358838777907e-06,0.20555409669056007,-0.00021167382929970983,0.00010604083684188218,0.02426887929886585,-7.371739479379618e-05,0.0003387583054528364,6.551756829871675e-05,-0.00130639648693185,0.004176661835854,0.011308623193383395,0.0,0.00067513426914112,-0.00035844830531345646,31.72855370215687,0.0,0.0,0.0,0.0,0.0,0.00012923768491821308,0.0,0.0,0.0020159538665771503,0.0,0.0,0.0,0.0,0.0,0.0,0.0,0.0,0.0001292376849182,0.0,0.0,0.0020159538665771
0.2000000000000001,-2.8279613338070726e-05,2.0248065774029086e-05,0.20795481667623972,-0.0008152351180410046,0.00062298019618182,0.07743147217665773,-7.583817443059611e-07,7.714358838777907e-06,0.20555409669056007,-0.00021167382929970983,0.00010604083684188218,0.02426887929886585,-7.993021059647753e-05,0.0003620088765726847,0.00012080366584505562,0.00020450425176298437,0.00419861463269944,0.012057169684166454,0.0,0.00067513426914112,-0.00035844830531345646,31.72855370215687,0.0,0.0,0.0,0.0,0.0,0.00013957835781040211,0.0,0.0,0.002120734772300722,0.0,0.0,0.0,0.0,0.0,0.0,0.0,0.0,0.0001395783578104,0.0,0.0,0.0021207347723007
0.2050000000000001,-3.144093713225367e-05,2.411886411511539e-05,0.2083898800935914,-0.00047345554698763895,0.0007184549085091544,0.08422906191912405,-3.144093713225367e-05,2.411886411511539e-05,0.20823943087484142,-0.00047345554698763895,0.0007184549085091544,0.08200103457537404,-8.332891105769571e-05,0.0003770822282321716,0.00018837287734279218,-0.0019592891562503966,0.0019791895668919697,0.013258909315625953,0.0,0.00067513426914112,-0.00035844830531345646,31.72855370215687,0.0,0.0,0.0,0.0,0.0,0.0001504492187500002,0.0,0.0,0.002228027343750002,0.0,0.0,0.0,0.0,0.0,0.0,0.0,0.0,0.00015044921875,0.0,0.0,0.00222802734375
0.2100000000000001,-3.383291911071634e-05,2.7212436199021476e-05,0.2087935113233712,-0.0005164139565707642,0.0006497443657681821,0.08900756980628331,-3.144093713225367e-05,2.411886411511539e-05,0.20823943087484142,-0.00047345554698763895,0.0007184549085091544,0.08200103457537404,-8.66787198847512e-05,0.00037896103061043176,0.0002506192184898914,0.0009280494540050779,-0.00034196594200849395,0.013247113943068111,0.0,0.0015795572605716943,-0.0022953492957281992,31.495667666464204,0.0,0.0,0.0,0.0,0.0,0.00016186279995021846,0.0,0.0,0.002337821137046816,0.0,0.0,0.0,0.0,0.0,0.0,0.0,0.0,0.0001618627999502,0.0,0.0,0.0023378211370468
0.2150000000000001,-3.703433875395636e-05,3.095516756472546e-05,0.20928599602557096,-0.0007701448235994866,0.0007867494211602199,0.09388570976984142,-3.144093713225367e-05,2.411886411511539e-05,0.20823943087484142,-0.00047345554698763895,0.0007184549085091544,0.08200103457537404,-9.40247563365981e-05,0.0003661575427315794,0.0003241393445154166,-0.002683393310884511,-0.004811432520435154,0.014422043577450474,0.0,0.0015795572605716943,-0.0022953492957281992,31.495667666464204,0.0,0.0,0.0,0.0,0.0,0.00017383158143920925,0.0,0.0,0.0024501057220459007,0.0,0.0,0.0,0.0,0.0,0.0,0.0,0.0,0.0001738315814392,0.0,0.0,0.0024501057220459
0.2200000000000001,-4.118161332246524e-05,3.5496079078452364e-05,0.20973712230877734,-0.0009185349150064579,0.0011232858259821806,0.09952012997370674,-3.144093713225367e-05,2.411886411511539e-05,0.20823943087484142,-0.00047345554698763895,0.0007184549085091544,0.08200103457537404,-0.00010677191172296657,0.00032879900837952695,0.00038909571112120007,-0.0027079532120261197,-0.00826179367786904,0.013482867236817452,0.0,0.0015795572605716943,-0.0022953492957281992,31.495667666464204,0.0,0.0,0.0,0.0,0.0,0.00018636799112873103,0.0,0.0,0.0025648706823349025,0.0,0.0,0.0,0.0,0.0,0.0,0.0,0.0,0.0001863679911287,0.0,0.0,0.0025648706823349
0.22500000000000012,-4.638641462764762e-05,4.143884343791301e-05,0.21028144268661414,-0.001102237083871805,0.0010499557795296628,0.10321843613095479,-3.144093713225367e-05,2.411886411511539e-05,0.20823943087484142,-0.00047345554698763895,0.0007184549085091544,0.08200103457537404,-0.00012285658266394277,0.0002928891497188035,0.0004663684490884131,-0.0031580667675760025,-0.007285544866820567,0.014798947847456941,0.0,0.0015795572605716943,-0.0022953492957281992,31.495667666464204,0.0,0.0,0.0,0.0,0.0,0.00019948440488281284,0.0,0.0,0.002682105615234378,0.0,0.0,0.0,0.0,0.0,0.0,0.0,0.0,0.0001994844048828,0.0,0.0,0.0026821056152343
0.23000000000000012,-5.230643698769424e-05,4.6621291728633885e-05,0.2107806733495433,-0.0014640564137908324,0.001188129490998712,0.10996157100313465,-3.144093713225367e-05,2.411886411511539e-05,0.20823943087484142,-0.00047345554698763895,0.0007184549085091544,0.08200103457537404,-0.00012735582373671561,0.0002456691726727694,0.0005309026219720689,-0.0016627667052824969,-0.009770706160918291,0.013344520036788824,0.0,0.0015795572605716943,-0.0022953492957281992,31.495667666464204,0.0,0.0,0.0,0.0,0.0,0.00021319314658641846,0.0,0.0,0.0028018001317977937,0.0,0.0,0.0,0.0,0.0,0.0,0.0,0.0,0.0002131931465864,0.0,0.0,0.0028018001317977
0.23500000000000013,-6.193863849512921e-05,5.3713483701560046e-05,0.21138131424945292,-0.002051900933861372,0.0015275995801927213,0.11494412271760492,-3.144093713225367e-05,2.411886411511539e-05,0.20823943087484142,-0.00047345554698763895,0.0007184549085091544,0.08200103457537404,-0.0001264270482036624,0.00020688471255405773,0.0006035430812891229,0.0026542090070266876,-0.008734909701577712,0.012407706119804128,0.0,0.0015795572605716943,-0.0022953492957281992,31.495667666464204,0.0,0.0,0.0,0.0,0.0,0.00022750648821411168,0.0,0.0,0.0029239438568115267,0.0,0.0,0.0,0.0,0.0,0.0,0.0,0.0,0.0002275064882141,0.0,0.0,0.0029239438568115
0.24000000000000013,-7.229401196393529e-05,6.170004622589108e-05,0.21193822724593644,-0.0022795081118657276,0.0017266433519713537,0.122168822418985,-3.144093713225367e-05,2.411886411511539e-05,0.20823943087484142,-0.00047345554698763895,0.0007184549085091544,0.08200103457537404,-0.0001104039002794926,0.0001779449686391728,0.0006507723429990607,0.003694627423084608,-0.0036272969341764128,0.009237173471232494,0.0,0.0015795572605716943,-0.0022953492957281992,31.495667666464204,0.0,0.0,0.0,0.0,0.0,0.0002424366498987202,0.0,0.0,0.003048526428794864,0.0,0.0,0.0,0.0,0.0,0.0,0.0,0.0,0.0002424366498987,0.0,0.0,0.0030485264287948
0.24500000000000013,-8.552413627879127e-05,7.025271037478485e-05,0.21260890186797612,-0.002682849593054253,0.0016159463583749441,0.1291705232772069,-3.144093713225367e-05,2.411886411511539e-05,0.20823943087484142,-0.00047345554698763895,0.0007184549085091544,0.08200103457537404,-8.247650014564158e-05,0.0001620862715336182,0.000691317098823932,0.008231218706891745,-0.0027603527022214917,0.005282404280131173,0.0,0.0015795572605716943,-0.0022953492957281992,31.495667666464204,0.0,0.0,0.0,0.0,0.0,0.0002579958000000004,0.0,0.0,0.003175537500000003,0.0,0.0,0.0,0.0,0.0,0.0,0.0,0.0,0.0002579958,0.0,0.0,0.0031755375
0.2500000000000001,-9.903991606651407e-05,7.810318639379536e-05,0.21322958239669332,-0.0030334527151557157,0.0017075956501672591,0.13575776131482284,-3.144093713225367e-05,2.411886411511539e-05,0.20823943087484142,-0.00047345554698763895,0.0007184549085091544,0.08200103457537404,-5.35951416280511e-05,0.00014485292877427993,0.0007067683575090464,0.005146684867848194,-0.0048903305158997734,0.0025982226353836444,0.0,0.0015795572605716943,-0.0022953492957281992,31.495667666464204,0.0,0.0,0.0,0.0,0.0,0.0002741960551733021,0.0,0.0,0.003304966736412052,0.0,0.0,0.0,0.0,0.0,0.0,0.0,0.0,0.0002741960551733,0.0,0.0,0.003304966736412
0.2550000000000001,-0.00011673552620247965,8.817123479179844e-05,0.21397227181005068,-0.003434092710535771,0.0020931626846523075,0.14232346357198897,-0.00011673552620247965,8.817123479179844e-05,0.21368122232961245,-0.003434092710535771,0.0020931626846523075,0.13888665975423994,-3.194247442693405e-05,0.00011796575335939757,0.0007022402357684048,0.002862251814125754,-0.005102874770677686,-0.004086243467660321,0.0,0.0015795572605716943,-0.0022953492957281992,31.495667666464204,0.0,0.0,0.0,0.0,0.0,0.00029104948043823286,0.0,0.0,0.0034368038177490265,0.0,0.0,0.0,0.0,0.0,0.0,0.0,0.0,0.0002910494804382,0.0,0.0,0.003436803817749
0.2600000000000001,-0.00013255016855172902,9.793998104551388e-05,0.21465123452627458,-0.0034105445513813205,0.0019569477919715336,0.14745582629647916,-0.00011673552620247965,8.817123479179844e-05,0.21368122232961245,-0.003434092710535771,0.0020931626846523075,0.13888665975423994,-2.5420113786176926e-05,0.00010009179285695854,0.0006785200100498582,-0.0006108661732761731,-0.0026876675061884405,-0.006330206219177267,0.0,0.010671121462458761,-0.006557309101483974,31.307256576946532,0.0,0.0,0.0,0.0,0.0,0.0003085680892473225,0.0,0.0,0.0035710384374618557,0.0,0.0,0.0,0.0,0.0,0.0,0.0,0.0,0.0003085680892473,0.0,0.0,0.0035710384374618
0.2650000000000001,-0.0001522786417229416,0.00010867366096703448,0.21545589607116117,-0.003920086897835241,0.0021590903924051342,0.15351084064332685,-0.00011673552620247965,8.817123479179844e-05,0.21368122232961245,-0.003434092710535771,0.0020931626846523075,0.13888665975423994,-2.4247588834190253e-05,8.093613736981305e-05,0.0006223608041193507,-0.000739255316060122,-0.0022235660751059177,-0.012599048484148511,0.0,0.010671121462458761,-0.006557309101483974,31.307256576946532,0.0,0.0,0.0,0.0,0.0,0.00032676384355468795,0.0,0.0,0.003707660302734378,0.0,0.0,0.0,0.0,0.0,0.0,0.0,0.0,0.0003267638435546,0.0,0.0,0.0037076603027343
0.27000000000000013,-0.00017150832573027846,0.00011940434252470608,0.21618325430537627,-0.004326047650506878,0.00244308068203913,0.15792999239728867,-0.00011673552620247965,8.817123479179844e-05,0.21368122232961245,-0.003434092710535771,0.0020931626846523075,0.13888665975423994,-3.173015016079421e-05,7.153017941849701e-05,0.0005584615579558625,-0.0018796485294356432,-0.0021003446443856625,-0.01546699040676689,0.0,0.010671121462458761,-0.006557309101483974,31.307256576946532,0.0,0.0,0.0,0.0,0.0,0.00034564865388469736,0.0,0.0,0.0038466591344833412,0.0,0.0,0.0,0.0,0.0,0.0,0.0,0.0,0.0003456486538846,0.0,0.0,0.0038466591344833
0.27500000000000013,-0.00019594140650586365,0.0001339584945738854,0.2170429285089254,-0.004604269466017553,0.002869913784560721,0.16344074197828817,-0.00011673552620247965,8.817123479179844e-05,0.21368122232961245,-0.003434092710535771,0.0020931626846523075,0.13888665975423994,-2.986279292373602e-05,7.706968740266417e-05,0.00045601449770222435,0.0027209593425637627,0.00486025454676146,-0.019825131369801324,0.0,0.010671121462458761,-0.006557309101483974,31.307256576946532,0.0,0.0,0.0,0.0,0.0,0.0003652343794006353,0.0,0.0,0.003988024667358402,0.0,0.0,0.0,0.0,0.0,0.0,0.0,0.0,0.0003652343794006,0.0,0.0,0.0039880246673584
0.28000000000000014,-0.00021764642225012584,0.00014708910846823013,0.21781762936848525,-0.0048534530057592696,0.0028125408005224345,0.16827016747712611,-0.00011673552620247965,8.817123479179844e-05,0.21368122232961245,-0.003434092710535771,0.0020931626846523075,0.13888665975423994,-7.5764126976351195e-06,9.650761651710906e-05,0.0003561747791786506,0.007950647841925776,0.003856430065177221,-0.02360936585049116,0.0,0.010671121462458761,-0.006557309101483974,31.307256576946532,0.0,0.0,0.0,0.0,0.0,0.00038553282797336636,0.0,0.0,0.00413174664974213,0.0,0.0,0.0,0.0,0.0,0.0,0.0,0.0,0.0003855328279733,0.0,0.0,0.0041317466497421
0.28500000000000014,-0.000245067977705571,0.00016298752634869425,0.21873107247910767,-0.005239840210885961,0.003109529459458276,0.17325655962114347,-0.00011673552620247965,8.817123479179844e-05,0.21368122232961245,-0.003434092710535771,0.0020931626846523075,0.13888665975423994,5.305354936342425e-05,0.0001252930800190798,0.00022425432273281444,0.0158310300997182,0.00395427336704803,-0.024190425180910174,0.0,0.010671121462458761,-0.006557309101483974,31.307256576946532,0.0,0.0,0.0,0.0,0.0,0.00040655575625000057,0.0,0.0,0.004277814843750004,0.0,0.0,0.0,0.0,0.0,0.0,0.0,0.0,0.00040655575625,0.0,0.0,0.00427781484375
0.29000000000000015,-0.0002703283229463692,0.00017819109230570525,0.2195522623058491,-0.005593359730044355,0.003383852718604765,0.17807089416853986,-0.00011673552620247965,8.817123479179844e-05,0.21368122232961245,-0.003434092710535771,0.0020931626846523075,0.13888665975423994,0.00013605414663741451,0.00013303169057443442,0.00010401780811767724,0.020763263060066522,0.00011551560641417187,-0.02786665630660261,0.0,0.010671121462458761,-0.006557309101483974,31.307256576946532,0.0,0.0,0.0,0.0,0.0,0.0004283148697225577,0.0,0.0,0.004426219025230412,0.0,0.0,0.0,0.0,0.0,0.0,0.0,0.0,0.0004283148697225,0.0,0.0,0.0044262190252304
0.29500000000000015,-0.00029958815386032725,0.00019606039428307452,0.22051670032171952,-0.00534817778972595,0.0031808327661726294,0.18242883705204319,-0.00011673552620247965,8.817123479179844e-05,0.21368122232961245,-0.003434092710535771,0.0020931626846523075,0.13888665975423994,0.0002653035689743839,0.0001377114517914604,-4.054766418630334e-05,0.027886188059007548,-0.00031007536747147387,-0.027133311347863256,0.0,0.010671121462458761,-0.006557309101483974,31.307256576946532,0.0,0.0,0.0,0.0,0.0,0.0004508218227966315,0.0,0.0,0.004576948983764653,0.0,0.0,0.0,0.0,0.0,0.0,0.0,0.0,0.0004508218227966,0.0,0.0,0.0045769489837646
0.30000000000000016,-0.00032522542729711707,0.0002102855027055865,0.22138114601488898,-0.005615991269164972,0.003015772854393865,0.18745637002054752,-0.00011673552620247965,8.817123479179844e-05,0.21368122232961245,-0.003434092710535771,0.0020931626846523075,0.13888665975423994,0.000393938301066012,0.00012196135653113053,-0.00017491458811600365,0.026690307659998715,-0.0035233567987686207,-0.029494375469465914,0.0,0.010671121462458761,-0.006557309101483974,31.307256576946532,0.0,0.0,0.0,0.0,0.0,0.00047408821886005465,0.0,0.0,0.004729994522666936,0.0,0.0,0.0,0.0,0.0,0.0,0.0,0.0,0.00047408821886,0.0,0.0,0.0047299945226669
0.30500000000000016,-0.00035519065651181466,0.00022570510761188748,0.2223928249422266,-0.0056317009563571895,0.0028407719355051436,0.1915372319721433,-0.00035519065651181466,0.00022570510761188748,0.22189469933187503,-0.0056317009563571895,0.0028407719355051436,0.18665188651315892,0.0005430333893907406,0.00010981924171634884,-0.0003289933796338405,0.026870912479564215,-0.0035674597441320583,-0.02925143431996072,0.0,0.010671121462458761,-0.006557309101483974,31.307256576946532,0.0,0.0,0.0,0.0,0.0,0.0004981256103515632,0.0,0.0,0.00488534545898438,0.0,0.0,0.0,0.0,0.0,0.0,0.0,0.0,0.0004981256103515,0.0,0.0,0.0048853454589843
0.31000000000000016,-0.0003816322703569473,0.00023834911029268664,0.22330130480687532,-0.005533040083626001,0.002526544996317798,0.1966603112736769,-0.00035519065651181466,0.00022570510761188748,0.22189469933187503,-0.0056317009563571895,0.0028407719355051436,0.18665188651315892,0.0006411739643888152,9.769628065719491e-05,-0.0004707044342011735,0.017366034459137127,-0.0003662718401999706,-0.030099364060206982,0.0,0.01807497237931875,-0.009246341979123149,31.131645780239122,0.0,0.0,0.0,0.0,0.0,0.000522945498829461,0.0,0.0,0.005042991623497015,0.0,0.0,0.0,0.0,0.0,0.0,0.0,0.0,0.0005229454988294,0.0,0.0,0.005042991623497
0.31500000000000017,-0.00041035483177706545,0.00024949103633426027,0.22436241370805532,-0.0054555781643469,0.0017742727448997065,0.20141672040174002,-0.00035519065651181466,0.00022570510761188748,0.22189469933187503,-0.0056317009563571895,0.0028407719355051436,0.18665188651315892,0.0007264621165763751,0.0001044681187181768,-0.0006356881920831103,0.009574902381135073,0.002726437096506876,-0.031403073144679085,0.0,0.01807497237931875,-0.009246341979123149,31.131645780239122,0.0,0.0,0.0,0.0,0.0,0.000548559335040284,0.0,0.0,0.005202922860717779,0.0,0.0,0.0,0.0,0.0,0.0,0.0,0.0,0.0005485593350402,0.0,0.0,0.0052029228607177
0.3200000000000002,-0.00043603563609277614,0.00025665756221217523,0.22531433255718764,-0.005459804451515898,0.0013715548697030688,0.20565052530033645,-0.00035519065651181466,0.00022570510761188748,0.22189469933187503,-0.0056317009563571895,0.0028407719355051436,0.18665188651315892,0.0007427116296430825,0.00011969771485300223,-0.0007816822447356043,3.907265403658235e-05,0.0024589705995793736,-0.0312685509712196,0.0,0.01807497237931875,-0.009246341979123149,31.131645780239122,0.0,0.0,0.0,0.0,0.0,0.0005749785189874658,0.0,0.0,0.005365129028892523,0.0,0.0,0.0,0.0,0.0,0.0,0.0,0.0,0.0005749785189874,0.0,0.0,0.0053651290288925
0.3250000000000002,-0.0004653286310635174,0.0002630210756927562,0.22642473397218266,-0.005567557406399942,0.001043655950569074,0.21077588630348457,-0.00035519065651181466,0.00022570510761188748,0.22189469933187503,-0.0056317009563571895,0.0028407719355051436,0.18665188651315892,0.0007327646894899464,0.00015010411186842888,-0.0009474839281432672,-0.006964544774145149,0.00768202831024788,-0.03089080303877023,0.0,0.01807497237931875,-0.009246341979123149,31.131645780239122,0.0,0.0,0.0,0.0,0.0,0.000602214400000001,0.0,0.0,0.005529600000000007,0.0,0.0,0.0,0.0,0.0,0.0,0.0,0.0,0.0006022144,0.0,0.0,0.0055296
0.3300000000000002,-0.0004900855963067935,0.00026655394518433433,0.22741666889417908,-0.005158350780572441,0.000538275926962497,0.2137239075525488,-0.00035519065651181466,0.00022570510761188748,0.22189469933187503,-0.0056317009563571895,0.0028407719355051436,0.18665188651315892,0.000705938385082053,0.0001834881224011715,-0.0010834297261252599,-0.001678975354108284,0.005772730524355837,-0.029211669239516316,0.0,0.01807497237931875,-0.009246341979123149,31.131645780239122,0.0,0.0,0.0,0.0,0.0,0.0006302782768011103,0.0,0.0,0.005696325659751898,0.0,0.0,0.0,0.0,0.0,0.0,0.0,0.0,0.0006302782768011,0.0,0.0,0.0056963256597518
0.3350000000000002,-0.0005173150230663953,0.000267297501313583,0.22857181382438424,-0.0051370725474159905,-8.793386855994586e-05,0.21870834740734132,-0.00035519065651181466,0.00022570510761188748,0.22189469933187503,-0.0056317009563571895,0.0028407719355051436,0.18665188651315892,0.0006760837570693544,0.00019684517824708413,-0.0012320875258551747,-0.005422879805538684,0.0006287094468437608,-0.025595399553143702,0.0,0.01807497237931875,-0.009246341979123149,31.131645780239122,0.0,0.0,0.0,0.0,0.0,0.0006591813975769053,0.0,0.0,0.005865295907592779,0.0,0.0,0.0,0.0,0.0,0.0,0.0,0.0,0.0006591813975769,0.0,0.0,0.0058652959075927
0.3400000000000002,-0.0005414525221199009,0.0002667097914589299,0.2296001546979613,-0.005142343891513582,-0.0002799859303819518,0.2216384407581103,-0.00035519065651181466,0.00022570510761188748,0.22189469933187503,-0.0056317009563571895,0.0028407719355051436,0.18665188651315892,0.0006718769360633154,0.00018498595001112476,-0.0013487498416462063,-0.0001435544644140265,-0.0054566682422078246,-0.024280702029321928,0.0,0.01807497237931875,-0.009246341979123149,31.131645780239122,0.0,0.0,0.0,0.0,0.0,0.0006889349600450527,0.0,0.0,0.0060365006567001415,0.0,0.0,0.0,0.0,0.0,0.0,0.0,0.0,0.000688934960045,0.0,0.0,0.0060365006567001
0.3450000000000002,-0.0005675099167787976,0.00026386481427253454,0.23079818402504526,-0.004802230050093507,-0.0007092039723311349,0.2264399474380925,-0.00035519065651181466,0.00022570510761188748,0.22189469933187503,-0.0056317009563571895,0.0028407719355051436,0.18665188651315892,0.0006355105503055191,0.00012899359119310837,-0.001466268926932824,-0.007150682035182891,-0.008520863015478986,-0.0203724446080518,0.0,0.01807497237931875,-0.009246341979123149,31.131645780239122,0.0,0.0,0.0,0.0,0.0,0.0007195501115234386,0.0,0.0,0.006209929833984381,0.0,0.0,0.0,0.0,0.0,0.0,0.0,0.0,0.0007195501115234,0.0,0.0,0.0062099298339843
0.3500000000000002,-0.0005903874844217807,0.0002585092787453397,0.2318637574043906,-0.004918719324209196,-0.001623688778830254,0.23006130915620726,-0.00035519065651181466,0.00022570510761188748,0.22189469933187503,-0.0056317009563571895,0.0028407719355051436,0.18665188651315892,0.000622772103062693,0.00010292452903056678,-0.001553052794352976,-0.008086842576762992,-0.006684818532153556,-0.017494100994178585,0.0,0.01807497237931875,-0.009246341979123149,31.131645780239122,0.0,0.0,0.0,0.0,0.0,0.0007510379489988339,0.0,0.0,0.006385573380088812,0.0,0.0,0.0,0.0,0.0,0.0,0.0,0.0,0.0007510379489988,0.0,0.0,0.0063855733800888
0.3550000000000002,-0.0006170450092466742,0.00024879485049177644,0.23310566748012346,-0.005192879795711977,-0.0017706660213188052,0.23444045220127233,-0.0006170450092466742,0.00024879485049177644,0.2323222579609279,-0.005192879795711977,-0.0017706660213188052,0.22787703095188266,0.0005584341458195324,5.416747046805942e-05,-0.001637832574012131,-0.010293908512398203,-0.0054987341578496335,-0.015379006149768577,0.0,0.01807497237931875,-0.009246341979123149,31.131645780239122,0.0,0.0,0.0,0.0,0.0,0.000783409519195558,0.0,0.0,0.0065634212493896555,0.0,0.0,0.0,0.0,0.0,0.0,0.0,0.0,0.0007834095191955,0.0,0.0,0.0065634212493896
0.3600000000000002,-0.0006423172483761841,0.00023868606929086954,0.2342108543210078,-0.005332467888404141,-0.002433128699130261,0.23878079318464882,-0.0006170450092466742,0.00024879485049177644,0.2323222579609279,-0.005192879795711977,-0.0017706660213188052,0.22787703095188266,0.0004891858452186537,6.393222651866503e-05,-0.0016983284405518576,-0.02185315769274401,0.0008054070873450749,-0.011356491150716404,0.0,0.017460144356939267,0.004563094171751856,30.96829600104587,0.0,0.0,0.0,0.0,0.0,0.0008166758186441435,0.0,0.0,0.0067434634099960405,0.0,0.0,0.0,0.0,0.0,0.0,0.0,0.0,0.0008166758186441,0.0,0.0,0.006743463409996
0.3650000000000002,-0.0006704083222203836,0.00022512506882762864,0.23549678350957035,-0.005450423061536735,-0.002666136623433188,0.24291312962051395,-0.0006170450092466742,0.00024879485049177644,0.2323222579609279,-0.005192879795711977,-0.0017706660213188052,0.22787703095188266,0.0003742262693311791,7.60069256210451e-05,-0.0017555534956531834,-0.0186878399740066,0.008679252678311336,-0.009067770740097042,0.0,0.017460144356939267,0.004563094171751856,30.96829600104587,0.0,0.0,0.0,0.0,0.0,0.0008508477937500014,0.0,0.0,0.006925689843750009,0.0,0.0,0.0,0.0,0.0,0.0,0.0,0.0,0.00085084779375,0.0,0.0,0.00692568984375
0.3700000000000002,-0.0006963032846364634,0.0002102589078498087,0.23663989896486193,-0.0054327019300260924,-0.0033942773507958405,0.24671494558626347,-0.0006170450092466742,0.00024879485049177644,0.2323222579609279,-0.005192879795711977,-0.0017706660213188052,0.22787703095188266,0.00027542818751579855,0.00013347777178792132,-0.0017845380228201726,-0.02240600122106317,0.009422235920894058,-0.004620724569835721,0.0,0.017460144356939267,0.004563094171751856,30.96829600104587,0.0,0.0,0.0,0.0,0.0,0.0008859363408620849,0.0,0.0,0.007110090546226509,0.0,0.0,0.0,0.0,0.0,0.0,0.0,0.0,0.000885936340862,0.0,0.0,0.0071100905462265
0.3750000000000002,-0.0007246697699917807,0.00019422261636385153,0.2379657900827475,-0.005448158108822727,-0.002839421760987044,0.25037479142185287,-0.0006170450092466742,0.00024879485049177644,0.2323222579609279,-0.005192879795711977,-0.0017706660213188052,0.22787703095188266,0.00019759548125718242,0.0001522932012739522,-0.0018070732533316685,-0.010975295200273424,0.006038595581810779,-0.001705708294981199,0.0,0.017460144356939267,0.004563094171751856,30.96829600104587,0.0,0.0,0.0,0.0,0.0,0.0009219523063415542,0.0,0.0,0.007296655526733406,0.0,0.0,0.0,0.0,0.0,0.0,0.0,0.0,0.0009219523063415,0.0,0.0,0.0072966555267334
0.3800000000000002,-0.0007478608617245197,0.00017984918829449078,0.23914460811926733,-0.004585958842718523,-0.003041645185992,0.25409635314766527,-0.0006170450092466742,0.00024879485049177644,0.2323222579609279,-0.005192879795711977,-0.0017706660213188052,0.22787703095188266,0.0001566544920046726,0.0001689041879194593,-0.00180242951077597,-0.001635525355485409,0.0004607968091371469,0.0008457815469461182,0.0,0.017460144356939267,0.004563094171751856,30.96829600104587,0.0,0.0,0.0,0.0,0.0,0.0009589064866304415,0.0,0.0,0.007485374808311471,0.0,0.0,0.0,0.0,0.0,0.0,0.0,0.0,0.0009589064866304,0.0,0.0,0.0074853748083114
0.38500000000000023,-0.0007713654820944956,0.0001640235796663384,0.2405101377387865,-0.004480421594837634,-0.0030933917259106988,0.2578970047942713,-0.0006170450092466742,0.00024879485049177644,0.2323222579609279,-0.005192879795711977,-0.0017706660213188052,0.22787703095188266,0.00019024146520762525,0.00014008490254520845,-0.0017812278464741573,0.009824648879273623,-0.005681967095128303,0.008122876607008623,0.0,0.017460144356939267,0.004563094171751856,30.96829600104587,0.0,0.0,0.0,0.0,0.0,0.0009968096283203142,0.0,0.0,0.007676238427734384,0.0,0.0,0.0,0.0,0.0,0.0,0.0,0.0,0.0009968096283203,0.0,0.0,0.0076762384277343
0.39000000000000024,-0.0007901534062900745,0.00014892570698442676,0.24172311814715275,-0.003734651112367273,-0.003051625274351034,0.260967636565587,-0.0006170450092466742,0.00024879485049177644,0.2323222579609279,-0.005192879795711977,-0.0017706660213188052,0.22787703095188266,0.0002598784054561539,0.00011805931871520564,-0.00173527593079068,0.02016549860981908,-0.007056438912254638,0.008362724723641485,0.0,0.017460144356939267,0.004563094171751856,30.96829600104587,0.0,0.0,0.0,0.0,0.0,0.0010356724282209414,0.0,0.0,0.007869236435508738,0.0,0.0,0.0,0.0,0.0,0.0,0.0,0.0,0.0010356724282209,0.0,0.0,0.0078692364355087
0.39500000000000024,-0.0008096564194003485,0.00013397437251450723,0.24312589024225675,-0.0035346137769126807,-0.0029496394228474714,0.2646649972542565,-0.0006170450092466742,0.00024879485049177644,0.2323222579609279,-0.005192879795711977,-0.0017706660213188052,0.22787703095188266,0.0003942790089533931,8.094250279890444e-05,-0.0016632582320464594,0.026263878556340013,-0.004037481815255695,0.018703721130212025,0.0,0.017460144356939267,0.004563094171751856,30.96829600104587,0.0,0.0,0.0,0.0,0.0,0.001075505533428957,0.0,0.0,0.008064358895874032,0.0,0.0,0.0,0.0,0.0,0.0,0.0,0.0,0.0010755055334289,0.0,0.0,0.008064358895874
0.40000000000000024,-0.000824250750122549,0.00011965091728125309,0.24436830480391286,-0.002877153201920842,-0.00310175335949211,0.2670585074933626,-0.0006170450092466742,0.00024879485049177644,0.2323222579609279,-0.005192879795711977,-0.0017706660213188052,0.22787703095188266,0.0005400767132765582,9.630671806035312e-05,-0.0015841321082437022,0.03482366959266763,0.006010042326079769,0.01613653867210032,0.0,0.017460144356939267,0.004563094171751856,30.96829600104587,0.0,0.0,0.0,0.0,0.0,0.0011163195413965243,0.0,0.0,0.008261595886802683,0.0,0.0,0.0,0.0,0.0,0.0,0.0,0.0,0.0011163195413965,0.0,0.0,0.0082615958868026
0.40500000000000025,-0.0008401876358704719,0.00010187694839616137,0.24580311778386923,-0.0030317580682615174,-0.003623372239112192,0.2705205188159848,-0.0008401876358704719,0.00010187694839616137,0.24464499278386923,-0.0030317580682615174,-0.003623372239112192,0.26205958131598484,0.0007083316846907307,0.00012928260012260595,-0.0014678718173356858,0.02986751693167446,0.009634271662311001,0.025641190046265326,0.0,0.017460144356939267,0.004563094171751856,30.96829600104587,0.0,0.0,0.0,0.0,0.0,0.0011581250000000018,0.0,0.0,0.008460937500000012,0.0,0.0,0.0,0.0,0.0,0.0,0.0,0.0,0.001158125,0.0,0.0,0.0084609375
0.41000000000000025,-0.0008528913137440524,8.558109329515236e-05,0.24707034622221027,-0.0025180482067455696,-0.003370598698266845,0.272835463528295,-0.0008401876358704719,0.00010187694839616137,0.24464499278386923,-0.0030317580682615174,-0.003623372239112192,0.26205958131598484,0.0008452332980541798,0.00018891083888074978,-0.0013643783961012814,0.026630100650101064,0.01460049622418765,0.02277495713456479,0.0,0.011635929024735044,0.010587708120494633,30.817719414413727,0.0,0.0,0.0,0.0,0.0,0.0012009324076086064,0.0,0.0,0.008662373840904247,0.0,0.0,0.0,0.0,0.0,0.0,0.0,0.0,0.0012009324076086,0.0,0.0,0.0086623738409042
0.41500000000000026,-0.0008661776473153325,6.663147589333545e-05,0.2485337072701941,-0.0024005244130350266,-0.003800389019842472,0.2755465948126841,-0.0008401876358704719,0.00010187694839616137,0.24464499278386923,-0.0030317580682615174,-0.003623372239112192,0.26205958131598484,0.0009540996916566013,0.0002494439170035705,-0.0012165864585970874,0.01977067114708897,0.01124839525625425,0.028796136538165953,0.0,0.011635929024735044,0.010587708120494633,30.817719414413727,0.0,0.0,0.0,0.0,0.0,0.0012447522131530783,0.0,0.0,0.008865895028686533,0.0,0.0,0.0,0.0,0.0,0.0,0.0,0.0,0.001244752213153,0.0,0.0,0.0088658950286865
0.42000000000000026,-0.0008762485746875048,4.842080324471236e-05,0.24982539122640365,-0.0021386297445794285,-0.003917729720607556,0.2781839879831846,-0.0008401876358704719,0.00010187694839616137,0.24464499278386923,-0.0030317580682615174,-0.003623372239112192,0.26205958131598484,0.0010313987699410439,0.0003104093489000438,-0.0010928675874372297,0.015131674699758532,0.011842725210852677,0.027378592154852506,0.0,0.011635929024735044,0.010587708120494633,30.817719414413727,0.0,0.0,0.0,0.0,0.0,0.0012895948161943459,0.0,0.0,0.009071491196250926,0.0,0.0,0.0,0.0,0.0,0.0,0.0,0.0,0.0012895948161943,0.0,0.0,0.0090714911962509
0.42500000000000027,-0.0008883779174063758,2.6167120868645017e-05,0.2513162488403862,-0.002311340823329762,-0.004186459492232775,0.2805658672348581,-0.0008401876358704719,0.00010187694839616137,0.24464499278386923,-0.0030317580682615174,-0.003623372239112192,0.26205958131598484,0.0010836718111446372,0.0003227047066506384,-0.0009257369914299294,0.008955865246024836,-0.00038131885094152266,0.030804000195584127,0.0,0.011635929024735044,0.010587708120494633,30.817719414413727,0.0,0.0,0.0,0.0,0.0,0.00133547056699219,0.0,0.0,0.009279152490234387,0.0,0.0,0.0,0.0,0.0,0.0,0.0,0.0,0.0013354705669921,0.0,0.0,0.0092791524902343
0.43000000000000027,-0.0008986753309584482,7.742799985036123e-06,0.25263230810940174,-0.0021450394373084916,-0.003871489812219297,0.28321425053999005,-0.0008401876358704719,0.00010187694839616137,0.24464499278386923,-0.0030317580682615174,-0.003623372239112192,0.26205958131598484,0.0010983222588302104,0.0003193396973004337,-0.0007817129896923068,-0.0001588125099391273,-0.00747430702736652,0.032760396961906406,0.0,0.011635929024735044,0.010587708120494633,30.817719414413727,0.0,0.0,0.0,0.0,0.0,0.0013823897665739087,0.0,0.0,0.009488869071006786,0.0,0.0,0.0,0.0,0.0,0.0,0.0,0.0,0.0013823897665739,0.0,0.0,0.0094888690710067
0.4350000000000003,-0.0009111979863846633,-1.392165549202713e-05,0.25415136037308517,-0.0024598819583482078,-0.0042083421825621905,0.2856617157214849,-0.0008401876358704719,0.00010187694839616137,0.24464499278386923,-0.0030317580682615174,-0.003623372239112192,0.26205958131598484,0.001081156143277685,0.00026625841442084135,-0.0005945171090560702,-0.006883123881626927,-0.007130495204144169,0.0342912176206351,0.0,0.011635929024735044,0.010587708120494633,30.817719414413727,0.0,0.0,0.0,0.0,0.0,0.001430362666802981,0.0,0.0,0.00970063111267091,0.0,0.0,0.0,0.0,0.0,0.0,0.0,0.0,0.0014303626668029,0.0,0.0,0.0097006311126709
0.4400000000000003,-0.0009233339257866545,-3.355277399349468e-05,0.2554933033508445,-0.0027639205240548954,-0.004352454338263999,0.2889369421858817,-0.0008401876358704719,0.00010187694839616137,0.24464499278386923,-0.0030317580682615174,-0.003623372239112192,0.26205958131598484,0.001057097965836838,0.00021614855556832837,-0.0004324059643662983,-0.007243634836892312,-0.017072609375785038,0.03714477401400139,0.0,0.011635929024735044,0.010587708120494633,30.817719414413727,0.0,0.0,0.0,0.0,0.0,0.0014793994704477339,0.0,0.0,0.00991442880306245,0.0,0.0,0.0,0.0,0.0,0.0,0.0,0.0,0.0014793994704477,0.0,0.0,0.0099144288030624
0.4450000000000003,-0.0009407073952997938,-5.586849828668108e-05,0.2570415438091921,-0.0034870513826613186,-0.004056041491019163,0.29129614864582837,-0.0008401876358704719,0.00010187694839616137,0.24464499278386923,-0.0030317580682615174,-0.003623372239112192,0.26205958131598484,0.0010098548016474805,0.00014054389541758405,-0.00023043432754643722,-0.010491875724759143,-0.008823951817440381,0.03786614623136538,0.0,0.011635929024735044,0.010587708120494633,30.817719414413727,0.0,0.0,0.0,0.0,0.0,0.0015295103312500029,0.0,0.0,0.01013025234375001,0.0,0.0,0.0,0.0,0.0,0.0,0.0,0.0,0.00152951033125,0.0,0.0,0.01013025234375
0.4500000000000003,-0.000956819914081069,-7.433043165985508e-05,0.2584100091031526,-0.0036518699613981398,-0.003918475709208288,0.2946284256885398,-0.0008401876358704719,0.00010187694839616137,0.24464499278386923,-0.0030317580682615174,-0.003623372239112192,0.26205958131598484,0.0009735546450447975,7.432101858363223e-05,-4.459934532909658e-05,-0.006077677735134178,-0.017149979107312828,0.042326148361715166,0.0,0.011635929024735044,0.010587708120494633,30.817719414413727,0.0,0.0,0.0,0.0,0.0,0.0015807053539938004,0.0,0.0,0.010348091950035106,0.0,0.0,0.0,0.0,0.0,0.0,0.0,0.0,0.0015807053539938,0.0,0.0,0.0103480919500351
0.4550000000000003,-0.0009775122729882625,-9.568358920793874e-05,0.25998810553471496,-0.003919420447548098,-0.004123456605284356,0.2971359007893017,-0.0009775122729882625,-9.568358920793874e-05,0.25835511094014096,-0.003919420447548098,-0.004123456605284356,0.2865679629383495,0.0009466886692902173,1.7597414689464318e-05,0.0001756038192660572,-0.004094468942937068,-0.007522810731140362,0.040709965324131285,0.0,0.011635929024735044,0.010587708120494633,30.817719414413727,0.0,0.0,0.0,0.0,0.0,0.0016329945945739778,0.0,0.0,0.010567937850952162,0.0,0.0,0.0,0.0,0.0,0.0,0.0,0.0,0.0016329945945739,0.0,0.0,0.0105679378509521
0.4600000000000003,-0.0009956296648060926,-0.00011544151455183965,0.26138105563956987,-0.004130146609009662,-0.004163754561551234,0.29966077416671316,-0.0009775122729882625,-9.568358920793874e-05,0.25835511094014096,-0.003919420447548098,-0.004123456605284356,0.2865679629383495,0.0009376308075828976,-4.409582557583263e-05,0.00037142331675164386,0.0015890899979342985,-0.01308754308088698,0.042358816765918086,0.0,0.014777020193266606,0.012681654165887788,30.693628369969055,0.0,0.0,0.0,0.0,0.0,0.001686388060064891,0.0,0.0,0.010789780289268507,0.0,0.0,0.0,0.0,0.0,0.0,0.0,0.0,0.0016863880600648,0.0,0.0,0.0107897802892685
0.4650000000000003,-0.0010176368989852974,-0.00013822715749706627,0.2629856261558176,-0.0038565729411524884,-0.004384813825496012,0.30195597092289084,-0.0009775122729882625,-9.568358920793874e-05,0.25835511094014096,-0.003919420447548098,-0.004123456605284356,0.2865679629383495,0.0009311540045825094,-7.565129114788087e-05,0.0005960416477784506,-0.0029646423493429976,-0.004100326473995686,0.0423392836236181,0.0,0.014777020193266606,0.012681654165887788,30.693628369969055,0.0,0.0,0.0,0.0,0.0,0.0017408957087890658,0.0,0.0,0.011013609521484388,0.0,0.0,0.0,0.0,0.0,0.0,0.0,0.0,0.001740895708789,0.0,0.0,0.0110136095214843
0.4700000000000003,-0.0010349312613042731,-0.00015915097313492127,0.26439950569631937,-0.0037377216466144714,-0.004649190019591305,0.3035550169622328,-0.0009775122729882625,-9.568358920793874e-05,0.25835511094014096,-0.003919420447548098,-0.004123456605284356,0.2865679629383495,0.0009249826159825131,-0.00010498232487696792,0.0007938846024867545,-0.0028712987618256846,-0.002575314320676147,0.041460967344444384,0.0,0.014777020193266606,0.012681654165887788,30.693628369969055,0.0,0.0,0.0,0.0,0.0,0.00179652745038586,0.0,0.0,0.01123941581783296,0.0,0.0,0.0,0.0,0.0,0.0,0.0,0.0,0.0017965274503858,0.0,0.0,0.0112394158178329
