time,pos_x,pos_y,pos_z,vel_x,vel_y,vel_z,pos_xo,pos_yo,pos_zo,vel_xo,vel_yo,vel_zo,roll,pitch,yaw,roll_vel,pitch_vel,yaw_vel,thrust_z,force_x,force_y,force_z,torque_x,torque_y,torque_z,pos_xd,pos_yd,pos_zd,vel_xd,vel_yd,vel_zd,roll_d,pitch_d,yaw_d,roll_vel_d,pitch_vel_d,yaw_vel_d,pos_xr,pos_yr,pos_zr,vel_xr,vel_yr,vel_zr
0.050001907348632815,0.003296643029898405,-0.04597608745098114,0.18173076212406158,0.0,0.0,0.0,0.003296643029898405,-0.04597608745098114,0.18173076212406158,0.0,0.0,-2.131627190840885e-13,0.037679120053448756,-0.007850722563516044,0.021042956878547514,0.0,0.0,0.0,0.0,8.955788016869952e-14,-2.3482907966821268e-15,12.949199999999346,0.0,0.0,0.0,0.0,0.0,1.3552522309307866e-19,0.0,0.0,2.131627190840885e-13,0.0,0.0,0.0,0.0,0.0,0.0,0.0,0.0,0.0,0.0,0.0,0.0
0.10000190734863282,0.003376174485310912,-0.046014439314603806,0.18198224902153015,-0.010787414060836054,0.001942311407458337,0.0018308547303541674,0.003376174485310912,-0.046014439314603806,0.1819798301703176,-0.010787414060836054,0.001942311407458337,0.0016861847205941187,0.037498187426635354,-0.005644088245539525,0.018060814768174005,0.007452080026268959,-0.007872334681451326,-0.035497017204761505,0.0,-1.6175692037789355,-0.1709400126813661,17.05877273632932,0.0,0.0,0.0,0.0,0.0,2.418851212551165e-06,0.0,0.0,0.00014467000976004855,0.0,0.0,0.0,0.0,0.0,0.0,0.0,0.0,2.418575286865234e-06,0.0,0.0,0.0001446590423583
0.15000190734863283,0.0033410717733204365,-0.04575975984334946,0.18440555036067963,-0.0027485240322786485,0.0066243344735221876,0.09817477355015049,0.0033410717733204365,-0.04575975984334946,0.1843863824007199,-0.0027485240322786485,0.0066243344735221876,0.09760337141418235,0.03958785122599373,-0.010848444477259633,0.021623978652570486,0.057247716933488846,-0.1222001314163208,0.028000704944133772,0.0,-1.7769102718115195,-0.21621426017822593,17.5037003756558,0.0,0.0,0.0,0.0,0.0,1.9167959959746495e-05,0.0,0.0,0.0005714021359681434,0.0,0.0,0.0,0.0,0.0,0.0,0.0,0.0,1.9166870117187512e-05,0.0,0.0,0.0005713806152343
0.20000190734863282,0.0036586103960871696,-0.045495375990867615,0.19508963823318481,0.0135255465234461,0.0005534091701590196,0.20860004014073627,0.0036586103960871696,-0.045495375990867615,0.1950255578815456,0.0135255465234461,0.0005534091701590196,0.2073306240911328,0.04858618958153205,-0.019980398998346693,0.023624383070157684,0.15525135397911072,-0.18392342329025269,0.06726762652397159,0.0,-0.7930496365479792,-0.022044585643332733,14.127972095029765,0.0,0.0,0.0,0.0,0.0,6.408035163920758e-05,0.0,0.0,0.0012694160496034808,0.0,0.0,0.0,0.0,0.0,0.0,0.0,0.0,6.407793045043952e-05,0.0,0.0,0.0012693843841552
0.2500019073486328,0.005827073939144611,-0.04489445313811302,0.2116430103778839,0.05670384535370024,0.007534339533641403,0.33181652648099236,0.005827073939144611,-0.04489445313811302,0.21149255690946953,0.05670384535370024,0.007534339533641403,0.3295884577304587,0.06160435867198544,-0.027634371517138767,0.026802674242607516,0.18381088972091675,0.033031757920980453,-0.023046657443046573,0.0,0.2303792792554732,0.21962859060306167,10.46745016230712,0.0,0.0,0.0,0.0,0.0,0.0001504534684143965,0.0,0.0,0.0022280687505336553,0.0,0.0,0.0,0.0,0.0,0.0,0.0,0.0,0.00015044921875,0.0,0.0,0.00222802734375
0.3000019073486328,0.010724551975727081,-0.04362291842699051,0.22597970068454742,0.08742159135459514,0.02114561903590575,0.2617064566630729,0.010724551975727081,-0.04362291842699051,0.22568864464887772,0.08742159135459514,0.02114561903590575,0.2582696020953451,0.056369732601710965,-0.011622486110590913,0.022735741651978003,0.029715396463871002,0.32227957248687744,-0.017611950635910072,0.0,0.520369654930983,0.28265668903950775,8.611946908473099,0.0,0.0,0.0,0.0,0.0,0.00029105603566969434,0.0,0.0,0.003436854567727826,0.0,0.0,0.0,0.0,0.0,0.0,0.0,0.0,0.0002910494804382,0.0,0.0,0.003436803817749
0.3500019073486328,0.018238317221403122,-0.04069656878709793,0.23106764256954193,0.13283363459357522,0.041564748690850487,0.0276842143325137,0.018238317221403122,-0.04069656878709793,0.23056950764107645,0.13283363459357522,0.041564748690850487,0.022798809173256985,0.05525269180268566,0.013555668933794784,0.023401242297054203,-0.20141848921775818,0.6045291423797607,-0.0073283948004246495,0.0,0.10974805185565761,0.1839469843118563,9.43076503221583,0.0,0.0,0.0,0.0,0.0,0.000498134928465479,0.0,0.0,0.0048854051592567135,0.0,0.0,0.0,0.0,0.0,0.0,0.0,0.0,0.0004981256103515,0.0,0.0,0.0048853454589843
0.4000019073486328,0.026689933612942696,-0.03730079531669617,0.22679565846920013,0.14313021500759573,0.04305917681989186,-0.10889803194470264,0.026689933612942696,-0.03730079531669617,0.22601223643120694,0.14313021500759573,0.04305917681989186,-0.11546152145699524,0.04051454329165516,0.039569707676422095,0.017708695622805415,-0.16770225763320923,0.2688577473163605,-0.025716261938214333,0.0,-0.7499545390282033,-0.014009608885363276,11.993649012745403,0.0,0.0,0.0,0.0,0.0,0.0007834220379932036,0.0,0.0,0.006563489512292601,0.0,0.0,0.0,0.0,0.0,0.0,0.0,0.0,0.0007834095191955,0.0,0.0,0.0065634212493896
0.45000190734863277,0.03379422053694725,-0.03454749658703804,0.215654194355011,0.13819791840917334,0.046148785459213054,-0.22474097173001978,0.03379422053694725,-0.03454749658703804,0.2144960532169805,0.13819791840917334,0.046148785459213054,-0.2332019856731291,0.03771097189863992,0.03778882055432797,0.017956556026282655,-0.0560266375541687,-0.1686841994524002,-0.032652948051691034,0.0,-1.20911140412032,-0.10560304643015103,13.707911385654215,0.0,0.0,0.0,0.0,0.0,0.0011581411380304748,0.0,0.0,0.008461013943109335,0.0,0.0,0.0,0.0,0.0,0.0,0.0,0.0,0.001158125,0.0,0.0,0.0084609375
0.5000019073486328,0.04066779837012291,-0.03192506358027458,0.20327627658843994,0.14556526900305972,0.046041137011274526,-0.22847097278471817,0.04066779837012291,-0.03192506358027458,0.2016432618370438,0.14556526900305972,0.046041137011274526,-0.2390389948818005,0.03426664521274825,0.025622846005517452,0.020906898943128027,0.07331444323062897,-0.42419448494911194,-0.018295146524906106,0.0,-1.3088132430888575,-0.13367952535669855,14.193594668120127,0.0,0.0,0.0,0.0,0.0,0.0016330147513961293,0.0,0.0,0.010568022097082321,0.0,0.0,0.0,0.0,0.0,0.0,0.0,0.0,0.0016329945945739,0.0,0.0,0.0105679378509521
0.5500019073486329,0.048382002860307693,-0.029539838433265686,0.1923733949661255,0.17523471102686677,0.044938950569088615,-0.1774986785928813,0.048382002860307693,-0.029539838433265686,0.19015512394972017,0.17523471102686677,0.044938950569088615,-0.19037337354156983,0.04613453382790489,0.007273510444914422,0.021168365999434613,0.1729554533958435,-0.4295048713684082,-0.0050728535279631086,0.0,-1.35713487742552,-0.14391920435338643,14.21743735681914,0.0,0.0,0.0,0.0,0.0,0.0022182710164053154,0.0,0.0,0.012874694948688536,0.0,0.0,0.0,0.0,0.0,0.0,0.0,0.0,0.0022182464599609,0.0,0.0,0.0128746032714843
0.6000019073486329,0.05789599567651749,-0.026303470134735107,0.1839936524629593,0.19444872412356232,0.05501447299363389,-0.15201412600238257,0.05789599567651749,-0.026303470134735107,0.1810700019096347,0.19444872412356232,0.05501447299363389,-0.16738547680388907,0.04506400498703167,-0.018334729961769547,0.01956436879531509,0.06902877986431122,-0.3597526550292969,-0.0011713248677551306,0.0,-1.2841378164196338,-0.11280766546802586,13.454145152554533,0.0,0.0,0.0,0.0,0.0,0.0029236505533245683,0.0,0.0,0.015371350801506508,0.0,0.0,0.0,0.0,0.0,0.0,0.0,0.0,0.0029236212348938,0.0,0.0,0.0153712520599365
0.650001907348633,0.07009982317686081,-0.02053402177989483,0.18298093974590302,0.2475966196421755,0.0759181648323581,0.05780888892417678,0.07009982317686081,-0.02053402177989483,0.17922252641507613,0.2475966196421755,0.0759181648323581,0.039760443635960444,0.03614846915209746,-0.005734371273665495,0.013302669902189201,0.06004582345485687,0.263027548789978,0.04154264554381367,0.0,-1.3440449530810668,-0.14983617739549765,13.158291332192997,0.0,0.0,0.0,0.0,0.0,0.0037584133308268867,0.0,0.0,0.01804844528821634,0.0,0.0,0.0,0.0,0.0,0.0,0.0,0.0,0.00375837890625,0.0,0.0,0.01804833984375
0.700001907348633,0.08015932887792587,-0.016493545845150948,0.18766874074935913,0.19209533898327508,0.05811711629163792,0.10409204870830452,0.08015932887792587,-0.016493545845150948,0.18293739521691232,0.19209533898327508,0.05811711629163792,0.08319547733770484,0.03885544854947254,-0.009951714973466697,0.00908205156988462,0.14570562541484833,-0.2719240188598633,-0.08846857398748395,0.0,-1.5237533917099342,-0.24540519919517353,12.400207051352767,0.0,0.0,0.0,0.0,0.0,0.004731345532446817,0.0,0.0,0.020896571370599675,0.0,0.0,0.0,0.0,0.0,0.0,0.0,0.0,0.0047313056755066,0.0,0.0,0.0208964595794678
0.750001907348633,0.0888480618596077,-0.013244636356830597,0.19185218214988708,0.19350042100363046,0.05900016113117504,0.0905382034119657,0.0888480618596077,-0.013244636356830597,0.18600141572685155,0.19350042100363046,0.05900016113117504,0.06663174407242595,0.0489417929432312,-0.028593904029745154,0.010714846102616526,0.2778390645980835,-0.35792917013168335,-0.02657672576606269,0.0,-1.3349760305684024,-0.1965468367880533,12.076066422964605,0.0,0.0,0.0,0.0,0.0,0.005850766423035524,0.0,0.0,0.02390645933953975,0.0,0.0,0.0,0.0,0.0,0.0,0.0,0.0,0.0058507208251953,0.0,0.0,0.0239063415527344
0.8000019073486331,0.09816651046276093,-0.009943286888301373,0.1940770298242569,0.20123083943938455,0.06319728280827172,0.04580994053921221,0.09816651046276093,-0.009943286888301373,0.18695249460904104,0.20123083943938455,0.06319728280827172,0.018740963724190873,0.0642507721822807,-0.04137582107960558,0.01310406544893361,0.20453913509845734,-0.3197415769100189,0.009575518779456655,0.0,-1.462177706684335,-0.22838372536490026,12.40732830250008,0.0,0.0,0.0,0.0,0.0,0.0071245352152158724,0.0,0.0,0.027068976815021337,0.0,0.0,0.0,0.0,0.0,0.0,0.0,0.0,0.0071244835853576,0.0,0.0,0.0270688533782959
0.8500019073486331,0.10811527073383331,-0.006156664341688156,0.19394369423389435,0.21979023827107344,0.07099491601858374,-0.011480349659925095,0.10811527073383331,-0.006156664341688156,0.18538363629805685,0.21979023827107344,0.07099491601858374,-0.041855478406055885,0.07327949917017884,-0.055916239375185306,0.012877891623102933,0.1383829563856125,-0.2541581094264984,-0.006263977382332055,0.0,-1.5970625475988678,-0.26441891928143235,12.720947607041891,0.0,0.0,0.0,0.0,0.0,0.008560057935837511,0.0,0.0,0.03037512874613079,0.0,0.0,0.0,0.0,0.0,0.0,0.0,0.0,0.00856,0.0,0.0,0.030375
0.9000019073486332,0.1180119439959526,-0.0017955431248992682,0.19262337684631348,0.21747502060616627,0.08170978912096814,-0.028951417795364094,0.1180119439959526,-0.0017955431248992682,0.18245908255388155,0.21747502060616627,0.08170978912096814,-0.06276747520642009,0.08490119727611489,-0.06759472160958335,0.016016974003565387,0.1344628930091858,-0.2339179813861847,0.013197863474488288,0.0,-1.7459686313786174,-0.30700363699069055,12.945902147747372,0.0,0.0,0.0,0.0,0.0,0.010164294292431939,0.0,0.0,0.033816057411056005,0.0,0.0,0.0,0.0,0.0,0.0,0.0,0.0,0.0101642297935486,0.0,0.0,0.0338159236907959
0.9500019073486332,0.12871527671813965,0.0032614630181342363,0.1912340521812439,0.2373288986892141,0.0948155720939537,-0.041922674003121274,0.12871527671813965,0.0032614630181342363,0.1792902876415763,0.2373288986892141,0.0948155720939537,-0.07930571642020774,0.07481230703319586,-0.07739755484036959,0.01322680741906801,-0.2032589465379715,0.16439494490623474,-0.07657988369464876,0.0,-1.8281480066708196,-0.36411584785063134,13.067585856864453,0.0,0.0,0.0,0.0,0.0,0.011943764539667593,0.0,0.0,0.03738304241708647,0.0,0.0,0.0,0.0,0.0,0.0,0.0,0.0,0.0119436932373047,0.0,0.0,0.0373829040527344
1.0000019073486333,0.13953153789043427,0.008107219822704792,0.19062452018260956,0.22986640042087114,0.08919642062949473,-0.026580945804431585,0.13953153789043427,0.008107219822704792,0.17671996383680463,0.22986640042087114,0.08919642062949473,-0.0676484465050448,0.07151923959074624,-0.0639521506531695,0.011760526368139068,0.026103701442480087,-0.07992472499608994,-0.01752098463475703,0.0,-1.986961257759278,-0.4319351689801955,13.166228659934719,0.0,0.0,0.0,0.0,0.0,0.013904556345804914,0.0,0.0,0.04106750070061321,0.0,0.0,0.0,0.0,0.0,0.0,0.0,0.0,0.0139044780158996,0.0,0.0,0.0410673580169678
1.0500019073486333,0.14830894768238068,0.012640830129384995,0.1907672882080078,0.1975672966548563,0.0830649490545504,0.009556636027183013,0.14830894768238068,0.012640830129384995,0.17471495654885635,0.1975672966548563,0.0830649490545504,-0.0353043504999458,0.06972403684182815,-0.0727160145159722,0.009819474642039694,0.002546804491430521,-0.0946735069155693,-0.01929960399866103,0.0,-2.0979985884545798,-0.4532725948494404,13.418221079727283,0.0,0.0,0.0,0.0,0.0,0.01605233165915145,0.0,0.0,0.04486098652712881,0.0,0.0,0.0,0.0,0.0,0.0,0.0,0.0,0.01605224609375,0.0,0.0,0.04486083984375
1.1000019073486333,0.15634502470493317,0.016387637704610825,0.19200456142425537,0.18619256420784988,0.07810666411653673,0.02521669901300373,0.15634502470493317,0.016387637704610825,0.17361222784973845,0.18619256420784988,0.07810666411653673,-0.023538492478223722,0.07505820950867914,-0.08396937375858471,0.011630672515810403,0.16771191358566284,-0.18857012689113617,0.011987278237938903,0.0,-1.8120718552252182,-0.40439598234046614,12.485858347373785,0.0,0.0,0.0,0.0,0.0,0.018392333574516903,0.0,0.0,0.04875519149122745,0.0,0.0,0.0,0.0,0.0,0.0,0.0,0.0,0.0183922405815124,0.0,0.0,0.0487550411224364
1.1500019073486334,0.16364522278308868,0.019682588055729866,0.19308961927890778,0.17073615941241693,0.0737787183540256,0.013110446657568884,0.16364522278308868,0.019682588055729866,0.17216022607923953,0.17073615941241693,0.0737787183540256,-0.03963149785903595,0.07621267477408278,-0.08348261826118986,0.010736402744201179,0.06595463305711746,-0.11422502249479294,-0.0036586853675544123,0.0,-1.7751002197450898,-0.39748150033245533,12.447165664317229,0.0,0.0,0.0,0.0,0.0,0.020929393199668234,0.0,0.0,0.052741944516604834,0.0,0.0,0.0,0.0,0.0,0.0,0.0,0.0,0.0209292926025389,0.0,0.0,0.0527417907714842
1.2000019073486334,0.17096129059791565,0.023550624027848244,0.19327372312545776,0.15175019606077703,0.08046525915843805,-0.007279673592233299,0.17096129059791565,0.023550624027848244,0.16960578660367304,0.15175019606077703,0.08046525915843805,-0.06409288544829154,0.0824321723673509,-0.08846898012210813,0.012966064722177428,-0.06182272359728813,-0.0571151003241539,0.002060719998553402,0.0,-1.924932510148639,-0.4293986787365477,12.821028508352484,0.0,0.0,0.0,0.0,0.0,0.023667936521784717,0.0,0.0,0.05681321185605824,0.0,0.0,0.0,0.0,0.0,0.0,0.0,0.0,0.0236678281593321,0.0,0.0,0.0568130550384519
1.2500019073486335,0.1771184355020523,0.027217479422688484,0.19247984886169434,0.14153073571273556,0.0763992346588139,-0.0100980169256622,0.1771184355020523,0.027217479422688484,0.1658678575877813,0.14153073571273556,0.0763992346588139,-0.07105911401714873,0.08106257581774923,-0.09063011715427383,0.011437996872698974,-0.035551801323890686,0.003817396238446231,-0.03965121507644653,0.0,-1.9567848855484935,-0.47587289955039974,13.151395093833793,0.0,0.0,0.0,0.0,0.0,0.026611991273913036,0.0,0.0,0.06096109709148653,0.0,0.0,0.0,0.0,0.0,0.0,0.0,0.0,0.0266118749999997,0.0,0.0,0.0609609374999996
1.3000019073486335,0.1826753169298172,0.031031254678964615,0.1925981640815735,0.11306150176844502,0.07438521011589645,0.01520391741660527,0.1826753169298172,0.031031254678964615,0.16283297028015115,0.11306150176844502,0.07438521011589645,-0.04997392371728485,0.07064914296704883,-0.08401685293589534,0.00968472877095472,0.0008644717745482922,-0.02312749251723289,0.023756641894578937,0.0,-2.033308509529185,-0.492678327307712,13.26644244677458,0.0,0.0,0.0,0.0,0.0,0.029765193801422347,0.0,0.0,0.06517784113389012,0.0,0.0,0.0,0.0,0.0,0.0,0.0,0.0,0.0297650694847103,0.0,0.0,0.0651776790618892
1.3500019073486336,0.18633638322353363,0.03426925837993622,0.19328206777572632,0.08983759377889047,0.07012555125455183,0.026631505895969645,0.18633638322353363,0.03426925837993622,0.1601512718472669,0.08983759377889047,0.07012555125455183,-0.0428243163274013,0.0777530601533849,-0.08982736683053805,0.00946564545140749,0.06855715811252594,-0.12405607849359512,0.0008406989509239945,0.0,-1.9115829021661588,-0.49116879382115264,13.165395967413728,0.0,0.0,0.0,0.0,0.0,0.0331307959284594,0.0,0.0,0.06945582222337095,0.0,0.0,0.0,0.0,0.0,0.0,0.0,0.0,0.033130663452148,0.0,0.0,0.0694556579589839
1.4000019073486336,0.18952982127666473,0.036880411207675934,0.1944398134946823,0.07220395746776817,0.06009471394189036,0.031681113004125794,0.18952982127666473,0.036880411207675934,0.1577281416702788,0.07220395746776817,0.06009471394189036,-0.04210644292500677,0.08025426354003562,-0.09830497896614343,0.007652538070552772,0.14447768032550812,-0.06580264866352081,0.013363155536353597,0.0,-1.8411652884733982,-0.4867475834057809,13.045479984171804,0.0,0.0,0.0,0.0,0.0,0.03671167182440352,0.0,0.0,0.07378755592913257,0.0,0.0,0.0,0.0,0.0,0.0,0.0,0.0,0.0367115310859675,0.0,0.0,0.0737873897552484
1.4500019073486337,0.192227303981781,0.039645299315452576,0.1955823451280594,0.06507328505149906,0.05937764858751022,0.02828560309348595,0.192227303981781,0.039645299315452576,0.1550720202577376,0.06507328505149906,0.05937764858751022,-0.04988009205599413,0.08585177845893455,-0.09685557552764124,0.0128048934932945,0.10442464798688889,-0.023140449076890942,0.025461845099926,0.0,-1.8699318599847023,-0.4816119588301222,13.370654036982014,0.0,0.0,0.0,0.0,0.0,0.04051032487032181,0.0,0.0,0.07816569514948007,0.0,0.0,0.0,0.0,0.0,0.0,0.0,0.0,0.0405101757812493,0.0,0.0,0.0781655273437493
1.5000019073486337,0.19400739669799805,0.041654229164123535,0.19639405608177185,0.0466807162485951,0.05077977459014671,0.03457365810438319,0.19400739669799805,0.041654229164123535,0.15186516155634772,0.0466807162485951,0.05077977459014671,-0.048009372007436935,0.09509508909997688,-0.09834170214793225,0.017746213170579672,0.11459983885288239,0.03105489164590836,0.0275622047483921,0.0,-1.8020022221936376,-0.47454563714924447,13.07464406771701,0.0,0.0,0.0,0.0,0.0,0.044528894525424134,0.0,0.0,0.08258303011182012,0.0,0.0,0.0,0.0,0.0,0.0,0.0,0.0,0.044528737010955,0.0,0.0,0.0825828609466545
1.5500019073486337,0.19535242021083832,0.043254535645246506,0.19725091755390167,0.03748093522707786,0.043349528910731475,0.035338155046185635,0.19535242021083832,0.043254535645246506,0.14848175436038344,0.03748093522707786,0.043349528910731475,-0.05169433332647533,0.09472025365611048,-0.09416128567663629,0.018005151863437874,0.06477586925029755,0.06305286288261414,0.03172869607806205,0.0,-1.7766750409134007,-0.4617152461907346,13.233708591878994,0.0,0.0,0.0,0.0,0.0,0.04876916319351824,0.0,0.0,0.08703248837266096,0.0,0.0,0.0,0.0,0.0,0.0,0.0,0.0,0.0487689971923819,0.0,0.0,0.0870323181152334
1.6000019073486338,0.1964331865310669,0.044928863644599915,0.19829221069812775,0.026611194374209255,0.03831130729433394,0.03964703077242181,0.1964331865310669,0.044928863644599915,0.14505964760866297,0.026611194374209255,0.03831130729433394,-0.05186010404519047,0.0989424182964278,-0.08856831440938606,0.01779487373341837,-0.008022300899028778,0.06045740470290185,0.03830106556415557,0.0,-1.8115200360086807,-0.45615691266714253,13.357508706044833,0.0,0.0,0.0,0.0,0.0,0.05323256308946479,0.0,0.0,0.09150713481761227,0.0,0.0,0.0,0.0,0.0,0.0,0.0,0.0,0.0532323885536183,0.0,0.0,0.0915069637298574
1.6500019073486338,0.1964598447084427,0.04616105556488037,0.1994987577199936,0.004498555408106864,0.02620072115108112,0.0525374810171828,0.1964598447084427,0.04616105556488037,0.14157857461436105,0.004498555408106864,0.02620072115108112,-0.043462690644202766,0.10495200633406654,-0.08496762960192417,0.02273578400644105,-0.04223228245973587,0.049710620194673545,0.04145412147045135,0.0,-1.7938897604067987,-0.44943591877318334,13.418865176770902,0.0,0.0,0.0,0.0,0.0,0.05792018310563255,0.0,0.0,0.09600017166138557,0.0,0.0,0.0,0.0,0.0,0.0,0.0,0.0,0.0579199999999988,0.0,0.0,0.0959999999999989
1.7000019073486339,0.19579458236694336,0.047026410698890686,0.2014029622077942,-0.01498670197952335,0.006969929758535197,0.0671688949019232,0.19579458236694336,0.047026410698890686,0.13857018652944086,-0.01498670197952335,0.006969929758535197,-0.03333604354587043,0.10343086853947137,-0.08734324540245808,0.02410209984023659,-0.02205984853208065,0.03161696717143059,0.014117678627371785,0.0,-1.7331717599613554,-0.4183582237100196,13.369509097503077,0.0,0.0,0.0,0.0,0.0,0.06283277567835333,0.0,0.0,0.10050493844779362,0.0,0.0,0.0,0.0,0.0,0.0,0.0,0.0,0.0628325839805589,0.0,0.0,0.1005047664642322
1.750001907348634,0.19498327374458313,0.04706060141324997,0.20301318168640137,-0.02214682369353632,-0.0010579883016346968,0.0742491403735479,0.19498327374458313,0.04706060141324997,0.13504241803202421,-0.02214682369353632,-0.0010579883016346968,-0.030765771676203035,0.09674869365615768,-0.08703629670077806,0.022659658949249817,-0.0580795593559742,0.04339642077684403,0.029154265299439423,0.0,-1.6252881827943364,-0.353548144616508,13.230912208809855,0.0,0.0,0.0,0.0,0.0,0.06797076365437714,0.0,0.0,0.10501491204975094,0.0,0.0,0.0,0.0,0.0,0.0,0.0,0.0,0.0679705633544907,0.0,0.0,0.1050147399902331
1.800001907348634,0.1936984807252884,0.04646165296435356,0.20486053824424744,-0.03059355183570824,-0.010946314276451994,0.07116198140496177,0.1936984807252884,0.04646165296435356,0.1315262910869202,-0.03059355183570824,-0.010946314276451994,-0.038361725264311836,0.09161081430099705,-0.07821816912326618,0.020956742681050855,-0.07985113561153412,0.0720798522233963,0.021150363609194745,0.0,-1.8016934383170249,-0.3737078368699557,13.881808043937523,0.0,0.0,0.0,0.0,0.0,0.07333424715732724,0.0,0.0,0.10952370666927361,0.0,0.0,0.0,0.0,0.0,0.0,0.0,0.0,0.0733340382575972,0.0,0.0,0.1095235347747788
1.850001907348634,0.19152219593524933,0.04551094397902489,0.20777954161167145,-0.04892848224881114,-0.024558059420885056,0.10106655168505166,0.19152219593524933,0.04551094397902489,0.12885653115751616,-0.04892848224881114,-0.024558059420885056,-0.01295852215242746,0.08618117301372008,-0.07947203752255971,0.02455979111501172,-0.007760564796626568,-0.0007783949840813851,0.01942729949951172,0.0,-2.1779239890080726,-0.4306639513518431,15.26112867713024,0.0,0.0,0.0,0.0,0.0,0.07892301045415527,0.0,0.0,0.11402507383747912,0.0,0.0,0.0,0.0,0.0,0.0,0.0,0.0,0.0789227929687481,0.0,0.0,0.1140249023437485
1.900001907348634,0.18875710666179657,0.04355037584900856,0.21351701021194458,-0.06221106722300869,-0.03833920350546061,0.178987824725683,0.18875710666179657,0.04355037584900856,0.1287804813903483,-0.06221106722300869,-0.03833920350546061,0.06047492231109629,0.08718317024375333,-0.08465684703182852,0.020100361588676563,-0.006348172202706337,0.0017475984059274236,0.03160332515835762,0.0,-1.1642423039855194,-0.17809095867602104,11.981532693810948,0.0,0.0,0.0,0.0,0.0,0.08473652882159627,0.0,0.0,0.11851290241458672,0.0,0.0,0.0,0.0,0.0,0.0,0.0,0.0,0.0847363027763346,0.0,0.0,0.1185127315521224
1.950001907348634,0.18609988689422607,0.0415581613779068,0.21934273838996887,-0.06640298480205142,-0.03761581896455693,0.14565256893416348,0.18609988689422607,0.0415581613779068,0.12856876297734515,-0.06640298480205142,-0.03761581896455693,0.02267135034424636,0.0884626622212834,-0.08146472299778029,0.024167398649467486,-0.0680171549320221,0.11895174533128738,-0.004132498055696502,0.0,-0.8210202569213284,-0.0739416824791678,11.038233744666208,0.0,0.0,0.0,0.0,0.0,0.09077397541262373,0.0,0.0,0.12298121858991712,0.0,0.0,0.0,0.0,0.0,0.0,0.0,0.0,0.0907737408447242,0.0,0.0,0.1229810485839827
2.000001907348634,0.18421676754951477,0.03989966958761215,0.22097361087799072,-0.07290907575005931,-0.0395297567289349,0.012766701001221417,0.18421676754951477,0.03989966958761215,0.12393938275508595,-0.07290907575005931,-0.0395297567289349,-0.11465748488067114,0.0842410356056762,-0.07110310864125191,0.02328755596846932,-0.18335281312465668,0.22984080016613007,-0.025573929771780995,0.0,-1.3874130298155047,-0.1939536119619049,12.944360075091918,0.0,0.0,0.0,0.0,0.0,0.09703422812290477,0.0,0.0,0.12742418588189255,0.0,0.0,0.0,0.0,0.0,0.0,0.0,0.0,0.0970339850807164,0.0,0.0,0.1274240169525129
2.050001907348634,0.18178287148475647,0.03773576021194458,0.21914042532444,-0.07884901934802316,-0.04233197238435219,-0.004620981699701178,0.18178287148475647,0.03773576021194458,0.11562454886718482,-0.07884901934802316,-0.04233197238435219,-0.13645708683773808,0.07339302205524634,-0.05572454632335777,0.017905163996621454,-0.11695168167352676,0.158757746219635,-0.01594560220837595,0.0,-1.6542399142946225,-0.23329528184677084,14.138272804945045,0.0,0.0,0.0,0.0,0.0,0.10351587645725518,0.0,0.0,0.1318361051380369,0.0,0.0,0.0,0.0,0.0,0.0,0.0,0.0,0.1035156249999972,0.0,0.0,0.1318359374999982
2.100001907348634,0.17919433116912842,0.03528711944818497,0.2180042415857315,-0.08611946312796886,-0.055041358676668865,0.045760240412546616,0.17919433116912842,0.03528711944818497,0.10778701318963707,-0.08611946312796886,-0.055041358676668865,-0.0904511741224289,0.06678173980022395,-0.06654014419453347,0.016259792137669926,-0.03369986638426781,0.0005328240804374185,-0.02683047577738762,0.0,-1.8316527045204736,-0.26192511074481356,14.929029802772929,0.0,0.0,0.0,0.0,0.0,0.11021722839609444,0.0,0.0,0.1362114145349755,0.0,0.0,0.0,0.0,0.0,0.0,0.0,0.0,0.1102169685935944,0.0,0.0,0.1362112483978252
2.1500019073486336,0.1763249784708023,0.03262657672166824,0.21937748789787292,-0.08476888533364904,-0.053517899020972884,0.09428499733902167,0.1763249784708023,0.03262657672166824,0.10224117063597213,-0.08476888533364904,-0.053517899020972884,-0.04625969223941383,0.0668269294147632,-0.06007796668724197,0.018463617601348403,0.027471648529171944,-0.02938157692551613,0.0037849720101803576,0.0,-1.5354372634901992,-0.16153562013306696,13.94718587870708,0.0,0.0,0.0,0.0,0.0,0.1171363172619008,0.0,0.0,0.1405446895784355,0.0,0.0,0.0,0.0,0.0,0.0,0.0,0.0,0.1171360491943327,0.0,0.0,0.1405445251464824
2.2000019073486334,0.17357218265533447,0.030031142756342888,0.22300490736961365,-0.08267064377376694,-0.055265153675397145,0.12172748069611188,0.17357218265533447,0.030031142756342888,0.09873399878394717,-0.08267064377376694,-0.055265153675397145,-0.023103162407133407,0.06597135841258961,-0.06402821057526076,0.01783997083784339,0.030567679554224014,-0.010425885207951072,-0.029201509431004524,0.0,-1.38314798419488,-0.13129761619168234,13.48440554999294,0.0,0.0,0.0,0.0,0.0,0.12427090858566647,0.0,0.0,0.14483064310324528,0.0,0.0,0.0,0.0,0.0,0.0,0.0,0.0,0.1242706323432888,0.0,0.0,0.1448304805755595
2.2500019073486333,0.1713087558746338,0.02784496545791626,0.2267748862504959,-0.07761499329215348,-0.049124990558883565,0.12216385917797856,0.1713087558746338,0.02784496545791626,0.09515637927714327,-0.07761499329215348,-0.049124990558883565,-0.02690026609535634,0.06143965914947991,-0.058555793892458574,0.016697251118262812,-0.06809640675783157,0.043406300246715546,-0.006902507506310945,0.0,-1.3442327062548403,-0.11122652298385496,13.264426805606618,0.0,0.0,0.0,0.0,0.0,0.13161850697335264,0.0,0.0,0.1490641252733349,0.0,0.0,0.0,0.0,0.0,0.0,0.0,0.0,0.1316182226562463,0.0,0.0,0.1490639648437479
2.300001907348633,0.16919025778770447,0.025936951860785484,0.2301420420408249,-0.07695259895093408,-0.0430441851447325,0.11018169051543093,0.16919025778770447,0.025936951860785484,0.09096567906848041,-0.07695259895093408,-0.0430441851447325,-0.04305843306630523,0.0626809135136912,-0.0586634249740019,0.017231829217537964,-0.06311919540166855,0.014436242170631887,0.020889483392238613,0.0,-1.403216330345445,-0.13305265137235134,13.378434445281659,0.0,0.0,0.0,0.0,0.0,0.13917636297234448,0.0,0.0,0.15324012358173617,0.0,0.0,0.0,0.0,0.0,0.0,0.0,0.0,0.1391760706901511,0.0,0.0,0.1532399654388405
2.350001907348633,0.16733425855636597,0.024440573528409004,0.23241832852363586,-0.07652167619793102,-0.04316366558324678,0.10161370086500308,0.16733425855636597,0.024440573528409004,0.08547684858572949,-0.07652167619793102,-0.04316366558324678,-0.05574006198557914,0.06219973541664592,-0.058200286748189,0.01646326930873343,-0.07715050876140594,0.019329586997628212,-0.013895422220230104,0.0,-1.4036701135299043,-0.143754623136022,13.321028518037592,0.0,0.0,0.0,0.0,0.0,0.14694147993790638,0.0,0.0,0.15735376285058222,0.0,0.0,0.0,0.0,0.0,0.0,0.0,0.0,0.146941179809566,0.0,0.0,0.1573536071777322
2.4000019073486327,0.16577397286891937,0.023266538977622986,0.23419898748397827,-0.07260451130086645,-0.0354852408574946,0.07991990004582092,0.16577397286891937,0.023266538977622986,0.07928836658434155,-0.07260451130086645,-0.0354852408574946,-0.0814804051852869,0.05873638088435973,-0.0583680640998776,0.014067382170248166,-0.07035491615533829,0.05614435300230979,-0.03202196210622788,0.0,-1.334203743426567,-0.12373825833788532,13.177319009664991,0.0,0.0,0.0,0.0,0.0,0.15491062089963673,0.0,0.0,0.16140030523110782,0.0,0.0,0.0,0.0,0.0,0.0,0.0,0.0,0.1549103130531265,0.0,0.0,0.1614001522064186
2.4500019073486325,0.16439203917980194,0.02238718792796135,0.23498478531837463,-0.07256449220741927,-0.031595820061607986,0.06728566811637118,0.16439203917980194,0.02238718792796135,0.07190446989045121,-0.07256449220741927,-0.031595820061607986,-0.09808948208727819,0.05127694828126428,-0.051116811639815296,0.011372488546678383,-0.02416006103157997,0.05127336084842682,-0.024235324934124954,0.0,-1.4018415904427732,-0.15464983096591292,13.437887174698965,0.0,0.0,0.0,0.0,0.0,0.16308031542792342,0.0,0.0,0.16537515020364937,0.0,0.0,0.0,0.0,0.0,0.0,0.0,0.0,0.1630799999999951,0.0,0.0,0.1653749999999977
2.5000019073486324,0.16319334506988525,0.021687734872102737,0.23522257804870605,-0.06706703618351866,-0.01996241099017107,0.05599182098598192,0.16319334506988525,0.021687734872102737,0.06377571154830752,-0.06706703618351866,-0.01996241099017107,-0.11328201359166286,0.05607330482099426,-0.05115882754030476,0.013954489941423454,0.011103689670562744,0.028513342142105103,0.007732182741165158,0.0,-1.4793896419984816,-0.18117780556683896,13.798086195740323,0.0,0.0,0.0,0.0,0.0,0.17144686650039853,0.0,0.0,0.16927383457764478,0.0,0.0,0.0,0.0,0.0,0.0,0.0,0.0,0.1714465436363169,0.0,0.0,0.1692736873626685
2.550001907348632,0.16198377311229706,0.021420901641249657,0.23558326065540314,-0.06300832178336528,-0.020487123715424122,0.06188335358925027,0.16198377311229706,0.021420901641249657,0.05557690328700937,-0.06300832178336528,-0.020487123715424122,-0.11120867890238326,0.053777987191972354,-0.048652550230467995,0.013582478077957205,0.00748424232006073,-0.016032740473747257,-0.019153105095028874,0.0,-1.5466445786692464,-0.22605157791306604,14.049873602961357,0.0,0.0,0.0,0.0,0.0,0.18000635736839377,0.0,0.0,0.17309203249163352,0.0,0.0,0.0,0.0,0.0,0.0,0.0,0.0,0.1800060272216743,0.0,0.0,0.173091888427732
2.600001907348632,0.1611231118440628,0.021522415801882744,0.23692180216312408,-0.05732292280004392,-0.007825349464099934,0.07969862668932226,0.1611231118440628,0.021522415801882744,0.04816714373972894,-0.05732292280004392,-0.007825349464099934,-0.09712692872393425,0.057692007528617584,-0.05461249223238518,0.01450143415278049,0.04354039952158928,-0.024159524589776993,-0.0020593327935785025,0.0,-1.596289527693426,-0.2335229937364774,14.230304752848092,0.0,0.0,0.0,0.0,0.0,0.18875465842339514,0.0,0.0,0.1768255554132565,0.0,0.0,0.0,0.0,0.0,0.0,0.0,0.0,0.1887543211555424,0.0,0.0,0.1768254146575903
2.650001907348632,0.16016186773777008,0.02199799008667469,0.23935037851333618,-0.05668212752067162,-0.0016196719896030575,0.10379853412056457,0.16016186773777008,0.02199799008667469,0.04166294444983784,-0.05668212752067162,-0.0016196719896030575,-0.07667181801869193,0.057127661706875,-0.05398493092183809,0.011057715686265013,0.04551556333899498,-0.07684385031461716,0.02205256186425687,0.0,-1.672114856741819,-0.28702065367657015,14.348463635675804,0.0,0.0,0.0,0.0,0.0,0.19768743406349834,0.0,0.0,0.1804703521392565,0.0,0.0,0.0,0.0,0.0,0.0,0.0,0.0,0.197687089843744,0.0,0.0,0.1804702148437476
2.7000019073486317,0.1592954397201538,0.022806067019701004,0.24322432279586792,-0.0484784285591958,0.010289877473265732,0.14750575937643293,0.1592954397201538,0.022806067019701004,0.036424173236004165,-0.0484784285591958,0.010289877473265732,-0.03651674941904462,0.0671540085798834,-0.05651324870318186,0.012972831136631058,0.114678293466568,-0.08255314081907272,0.027265258133411418,0.0,-1.6626753224198147,-0.3073919890419445,14.240273634678537,0.0,0.0,0.0,0.0,0.0,0.20680014955986376,0.0,0.0,0.18402250879547755,0.0,0.0,0.0,0.0,0.0,0.0,0.0,0.0,0.2067997985649046,0.0,0.0,0.184022375106809
2.7500019073486315,0.15854600071907043,0.024063998833298683,0.24846825003623962,-0.044842904184196196,0.01158181567428596,0.16170223589638005,0.15854600071907043,0.024063998833298683,0.032380172113068095,-0.044842904184196196,0.01158181567428596,-0.02577601294048537,0.0625725028976043,-0.06026997993663308,0.013423907902192056,0.06829741597175598,-0.1015821248292923,-0.009052440524101245,0.0,-1.6762987707034525,-0.34620664450519995,13.945734447041852,0.0,0.0,0.0,0.0,0.0,0.21608807792317153,0.0,0.0,0.18747824883686542,0.0,0.0,0.0,0.0,0.0,0.0,0.0,0.0,0.2160877203369074,0.0,0.0,0.1874781188964819
2.8000019073486313,0.1576283723115921,0.025472497567534447,0.2546120584011078,-0.0462453942966348,0.02589531917237811,0.1749160363963272,0.1576283723115921,0.025472497567534447,0.029065751631031256,-0.0462453942966348,0.02589531917237811,-0.015917896651140157,0.07244171370077712,-0.06460958861156207,0.01412958683311949,0.06319990009069443,-0.07734081149101257,0.010949036106467256,0.0,-1.6838358518236078,-0.35278846306584355,13.759770073866703,0.0,0.0,0.0,0.0,0.0,0.22554630677007653,0.0,0.0,0.19083393304746735,0.0,0.0,0.0,0.0,0.0,0.0,0.0,0.0,0.2255459427833487,0.0,0.0,0.1908338069915747
2.850001907348631,0.15692375600337982,0.02711569145321846,0.2609923779964447,-0.0442677155089497,0.026445214139050738,0.1738839789289766,0.15692375600337982,0.02711569145321846,0.0258226328067811,-0.0442677155089497,0.026445214139050738,-0.020202080611455675,0.07371312278261932,-0.06932987863545526,0.016993609995473946,0.049839336425065994,-0.0766758918762207,-0.010160461068153373,0.0,-1.6836418249895844,-0.4030636041460796,13.699812981405136,0.0,0.0,0.0,0.0,0.0,0.2351697451896636,0.0,0.0,0.1940860595404323,0.0,0.0,0.0,0.0,0.0,0.0,0.0,0.0,0.2351693749999927,0.0,0.0,0.1940859374999976
2.900001907348631,0.15589003264904022,0.028863608837127686,0.2669849693775177,-0.039914480752368815,0.031137182135209936,0.16423640146649823,0.15589003264904022,0.028863608837127686,0.022031838767615053,-0.039914480752368815,0.031137182135209936,-0.0329948622915123,0.07750860330466969,-0.06779759593312296,0.018983671597387897,0.026150017976760864,0.007368980441242458,0.016969790682196617,0.0,-1.5937756366713487,-0.3893003424971445,13.484961421599158,0.0,0.0,0.0,0.0,0.0,0.24495313060990265,0.0,0.0,0.19723126375801053,0.0,0.0,0.0,0.0,0.0,0.0,0.0,0.0,0.2449527544212265,0.0,0.0,0.1972311458587622
2.9500019073486308,0.15528887510299683,0.030773106962442398,0.27271121740341187,-0.043225958319896104,0.028343322460037998,0.1579426017165286,0.15528887510299683,0.030773106962442398,0.01782018173930855,-0.043225958319896104,0.028343322460037998,-0.042323716755025526,0.07978894451956497,-0.0692649043484943,0.016317785846517552,0.012226548977196217,0.022920997813344002,-0.013055719435215,0.0,-1.6365071577952157,-0.41474423873394467,13.62954261188111,0.0,0.0,0.0,0.0,0.0,0.2548910356641033,0.0,0.0,0.20026631847155413,0.0,0.0,0.0,0.0,0.0,0.0,0.0,0.0,0.2548906536865155,0.0,0.0,0.200266204833982
3.0000019073486306,0.1542445421218872,0.03289392217993736,0.27769383788108826,-0.04972669660775394,0.02657040963596383,0.14684645095124377,0.1542445421218872,0.03289392217993736,0.01271596282371723,-0.04972669660775394,0.02657040963596383,-0.05634168283027266,0.07684899677273993,-0.07142371486492394,0.016250575846810555,0.036703381687402725,0.018723201006650925,0.011538201943039892,0.0,-1.7041364287925642,-0.4284767206456085,13.916756608546766,0.0,0.0,0.0,0.0,0.0,0.264977875057371,0.0,0.0,0.20318813378151643,0.0,0.0,0.0,0.0,0.0,0.0,0.0,0.0,0.2649774875068581,0.0,0.0,0.2031880245208718
3.0500019073486304,0.15290924906730652,0.03459392860531807,0.2826547920703888,-0.054619355819501995,0.02975951286428454,0.1459570170559262,0.15290924906730652,0.03459392860531807,0.007446879637328208,-0.054619355819501995,0.02975951286428454,-0.06003674006152662,0.07721122888585175,-0.06671117841164254,0.01545893403155496,0.02139471471309662,-0.008822506293654442,0.006600401829928161,0.0,-1.7568924850856995,-0.44472176785218853,14.176886662960417,0.0,0.0,0.0,0.0,0.0,0.2752079124330606,0.0,0.0,0.20599375711745282,0.0,0.0,0.0,0.0,0.0,0.0,0.0,0.0,0.2752075195312414,0.0,0.0,0.2059936523437477
3.1000019073486302,0.1510339230298996,0.03621887415647507,0.2877764403820038,-0.06032582277672007,0.029884995665327735,0.16017691748128507,0.1510339230298996,0.03621887415647507,0.0022011731427709624,-0.06032582277672007,0.029884995665327735,-0.04850345575673479,0.07354325409509022,-0.06258858606620432,0.017480133858676083,-0.0016494307201355696,-0.013292588293552397,0.007143990136682989,0.0,-1.8008003532483243,-0.4734903847336193,14.390578595486817,0.0,0.0,0.0,0.0,0.0,0.2855752672392328,0.0,0.0,0.20868037323801986,0.0,0.0,0.0,0.0,0.0,0.0,0.0,0.0,0.2855748692130953,0.0,0.0,0.2086802730560281
3.15000190734863,0.1486673504114151,0.03744584321975708,0.293851763010025,-0.07210014308280115,0.024324734286190964,0.17216160486107246,0.1486673504114151,0.03744584321975708,-0.0022221585850834003,-0.07210014308280115,0.024324734286190964,-0.039083699369903246,0.08153199363372021,-0.07256877956858343,0.021859579949449426,0.04811505228281021,-0.06666462868452072,-0.014903055503964415,0.0,-1.8094090347794805,-0.48693880569993586,14.442131749830533,0.0,0.0,0.0,0.0,0.0,0.2960739215951084,0.0,0.0,0.2112453042309757,0.0,0.0,0.0,0.0,0.0,0.0,0.0,0.0,0.2960735186767485,0.0,0.0,0.2112452087402321
3.20000190734863,0.14533334970474243,0.038194168359041214,0.30111420154571533,-0.07966769772419763,0.02080480941362982,0.19998572462238565,0.14533334970474243,0.038194168359041214,-0.005583525611808526,-0.07966769772419763,0.02080480941362982,-0.013700284890794556,0.09392714103266275,-0.0720804891885547,0.023966166558407664,0.037776604294776917,-0.06878534704446793,0.011809755116701135,0.0,-1.7693854854343911,-0.474323331280445,14.363177070303873,0.0,0.0,0.0,0.0,0.0,0.30669772715752386,0.0,0.0,0.2136860095131802,0.0,0.0,0.0,0.0,0.0,0.0,0.0,0.0,0.3066973195838831,0.0,0.0,0.2136859188079811
3.2500019073486297,0.14197610318660736,0.03911852464079857,0.3083321750164032,-0.08801674874294219,0.0150321626846299,0.2075319203674974,0.14197610318660736,0.03911852464079857,-0.00910823697098273,-0.08801674874294219,0.0150321626846299,-0.008468165463097088,0.09167742370660692,-0.07555657945332461,0.021435953199613778,0.04469115287065506,0.01895295269787312,0.03383812680840492,0.0,-1.750377025670791,-0.4696048480343132,14.234075883547206,0.0,0.0,0.0,0.0,0.0,0.31744041198738593,0.0,0.0,0.2160000858305945,0.0,0.0,0.0,0.0,0.0,0.0,0.0,0.0,0.31743999999999,0.0,0.0,0.2159999999999979
3.3000019073486295,0.13792908191680908,0.03946349769830704,0.3168312907218933,-0.09459547052115516,0.014037237336490429,0.21535500858956783,0.13792908191680908,0.03946349769830704,-0.011464296694233767,-0.09459547052115516,0.014037237336490429,-0.0028302586687140585,0.08566037963379491,-0.07455086078611384,0.021749159504706128,0.03728283941745758,0.02572246454656124,0.00469983089715242,0.0,-1.6078247466738553,-0.4305854943701617,13.800603300300772,0.0,0.0,0.0,0.0,0.0,0.3282955874161271,0.0,0.0,0.21818526725828188,0.0,0.0,0.0,0.0,0.0,0.0,0.0,0.0,0.3282951712608235,0.0,0.0,0.2181851863861064
3.3500019073486293,0.13345284759998322,0.03966544568538666,0.3249373137950897,-0.09744744874618895,0.01519767395398853,0.20150815607442107,0.13345284759998322,0.03966544568538666,-0.014319441117071063,-0.09744744874618895,0.01519767395398853,-0.018731269125985356,0.09953449045535923,-0.07212243241480376,0.029190660706566618,-0.04591511934995651,0.07422378659248352,-0.012502240948379048,0.0,-1.5140187242412497,-0.4153587063366438,13.604647623328257,0.0,0.0,0.0,0.0,0.0,0.3392567549121608,0.0,0.0,0.22023942520040643,0.0,0.0,0.0,0.0,0.0,0.0,0.0,0.0,0.3392563348388565,0.0,0.0,0.2202393493652325
3.400001907348629,0.12908367812633514,0.04017162322998047,0.3310849368572235,-0.11147889143204646,0.0070674183511064866,0.16729279552417886,0.12908367812633514,0.04017162322998047,-0.019232376090111858,-0.11147889143204646,0.0070674183511064866,-0.05486777286605557,0.08455014475492417,-0.06782244010882899,0.02283924223911349,-0.03639404475688934,0.10366055369377136,-0.014509107917547238,0.0,-1.4676085835088326,-0.41255291557316565,13.610853665597066,0.0,0.0,0.0,0.0,0.0,0.35031731294733537,0.0,0.0,0.22216056839023443,0.0,0.0,0.0,0.0,0.0,0.0,0.0,0.0,0.3503168892097363,0.0,0.0,0.2221604976654033
3.450001907348629,0.12420116364955902,0.039989836513996124,0.3364333212375641,-0.1181110507232249,0.005957905226385924,0.14750615432462338,0.12420116364955902,0.039989836513996124,-0.025037242625827127,-0.1181110507232249,0.005957905226385924,-0.07644068856550995,0.07928766266882814,-0.06335194502275776,0.02090426007032864,-0.028761059045791626,0.10787787288427353,-0.0017582254949957265,0.0,-1.4886465092658094,-0.40295864818605376,13.998643780448234,0.0,0.0,0.0,0.0,0.0,0.3614705638633912,0.0,0.0,0.22394684289013334,0.0,0.0,0.0,0.0,0.0,0.0,0.0,0.0,0.3614701367187387,0.0,0.0,0.2239467773437483
3.500001907348629,0.11885471642017365,0.03928857669234276,0.340755820274353,-0.12619838939365138,-0.0038786641782799897,0.13233385919804708,0.11885471642017365,0.03928857669234276,-0.031953900464060714,-0.12619838939365138,-0.0038786641782799897,-0.09326267289352519,0.08306096231121884,-0.05435415797839571,0.02012879727184469,-0.007978863082826138,0.10980826616287231,0.017867827787995325,0.0,-1.5200646308197907,-0.41213521038039186,14.32207768887691,0.0,0.0,0.0,0.0,0.0,0.37270972073841374,0.0,0.0,0.22559653209157227,0.0,0.0,0.0,0.0,0.0,0.0,0.0,0.0,0.3727092904472236,0.0,0.0,0.2255964717864974
3.5500019073486286,0.11334620416164398,0.03868336230516434,0.3451969623565674,-0.1355117999404332,-0.00041914685203676635,0.13058729758694135,0.11334620416164398,0.03868336230516434,-0.0388309518967222,-0.1355117999404332,-0.00041914685203676635,-0.09652075912818095,0.0842899317546828,-0.05262277157806494,0.021698891513189267,-0.03742065280675888,0.03716941177845001,-0.01824772916734219,0.0,-1.5360901911204214,-0.3914650911083305,14.61096269680518,0.0,0.0,0.0,0.0,0.0,0.3840279142532896,0.0,0.0,0.2271080567151223,0.0,0.0,0.0,0.0,0.0,0.0,0.0,0.0,0.3840274810790895,0.0,0.0,0.2271080017089828
3.6000019073486285,0.10728595405817032,0.037754952907562256,0.3499109148979187,-0.13138391349353798,-0.0028882091027094933,0.14186727668079277,0.10728595405817032,0.037754952907562256,-0.04550728466024295,-0.13138391349353798,-0.0028882091027094933,-0.08661269812966244,0.08134221773754513,-0.0517386039569967,0.021322427121598153,-0.03140614181756973,0.06362193077802658,0.01673274487257003,0.0,-1.5483793736396039,-0.4133062051805085,14.834211808307701,0.0,0.0,0.0,0.0,0.0,0.39541819955816165,0.0,0.0,0.2284799748104552,0.0,0.0,0.0,0.0,0.0,0.0,0.0,0.0,0.3954177637672301,0.0,0.0,0.2284799251556383
3.6500019073486283,0.10138645023107529,0.036784905940294266,0.35581451654434204,-0.1280922656296771,-0.004499910501012915,0.1597067039582141,0.10138645023107529,0.036784905940294266,-0.051059046594541635,-0.1280922656296771,-0.004499910501012915,-0.07000427779813131,0.07306231385542361,-0.049520129756525755,0.01898823386223647,-0.036864712834358215,-0.0072178691625595075,0.013756882399320604,0.0,-1.5739138103207555,-0.4106442814258688,14.91147603088443,0.0,0.0,0.0,0.0,0.0,0.4068735631388837,0.0,0.0,0.2297109817563454,0.0,0.0,0.0,0.0,0.0,0.0,0.0,0.0,0.4068731249999874,0.0,0.0,0.2297109374999986
3.700001907348628,0.09513966739177704,0.0359126515686512,0.36277928948402405,-0.1460633270679634,-0.012419307363936788,0.19202847226880407,0.09513966739177704,0.0359126515686512,-0.05560764019945208,-0.1460633270679634,-0.012419307363936788,-0.038771437991863666,0.07952606706409027,-0.04856358747536138,0.021614546932791967,-0.005366417579352856,-0.05295941606163979,-0.028875648975372308,0.0,-1.5957014734013326,-0.40896705908021924,14.854338836996646,0.0,0.0,0.0,0.0,0.0,0.4183869296834761,0.0,0.0,0.23079991026066773,0.0,0.0,0.0,0.0,0.0,0.0,0.0,0.0,0.4183864894676078,0.0,0.0,0.2307998714447011
3.750001907348628,0.08870156109333038,0.03489675745368004,0.37073126435279846,-0.1361075837072054,-0.010317839228479325,0.20754579280114566,0.08870156109333038,0.03489675745368004,-0.059219904595781525,-0.1361075837072054,-0.010317839228479325,-0.024199937559253704,0.07636767080877505,-0.05198417335054417,0.019945516346734138,0.018166031688451767,-0.006189903710037471,-0.006738059688359498,0.0,-1.4659764412478111,-0.37130243743592706,14.52658859665808,0.0,0.0,0.0,0.0,0.0,0.42995116894858,0.0,0.0,0.23174573036039936,0.0,0.0,0.0,0.0,0.0,0.0,0.0,0.0,0.4299507269286979,0.0,0.0,0.2317456970214833
3.8000019073486277,0.08250951021909714,0.034544941037893295,0.3793391287326813,-0.13258457802810264,-0.006475425410967425,0.21692571036503586,0.08250951021909714,0.034544941037893295,-0.062219973893232194,-0.13258457802810264,-0.006475425410967425,-0.015621839056583042,0.08354593552066492,-0.05337250447705966,0.022412078737898966,-0.03016998991370201,0.012683940120041369,-0.016508424654603004,0.0,-1.3528883743403988,-0.34751016839763815,14.075110117978733,0.0,0.0,0.0,0.0,0.0,0.44155910262591347,0.0,0.0,0.2325475494216189,0.0,0.0,0.0,0.0,0.0,0.0,0.0,0.0,0.4415586590766772,0.0,0.0,0.2325475215911857
3.8500019073486276,0.07669100165367126,0.034267522394657135,0.3875548541545868,-0.13184092154126517,0.0024425184839977606,0.20959776983914133,0.07669100165367126,0.034267522394657135,-0.06564865705413897,-0.13184092154126517,0.0024425184839977606,-0.02360684230036522,0.0832327825933401,-0.05035871187145968,0.023801684248661914,-0.0056061651557683945,0.07064332067966461,-0.005420746747404346,0.0,-1.2419183643400866,-0.33633415077157897,13.826593539041632,0.0,0.0,0.0,0.0,0.0,0.45320351120872576,0.0,0.0,0.23320461213950655,0.0,0.0,0.0,0.0,0.0,0.0,0.0,0.0,0.4532030664062363,0.0,0.0,0.2332045898437493
3.9000019073486274,0.07090915739536285,0.0338570810854435,0.3949519991874695,-0.12859314837892447,-0.0017855098863108908,0.17754039220866258,0.07090915739536285,0.0338570810854435,-0.06992514167078306,-0.12859314837892447,-0.0017855098863108908,-0.05617590832968125,0.07536950151913935,-0.042267892102955784,0.02095505304144929,-0.005696173757314682,0.10371354222297668,0.0022640204988419884,0.0,-1.2596234969299693,-0.36971499353891263,14.03138318037179,0.0,0.0,0.0,0.0,0.0,0.46487714085825255,0.0,0.0,0.23371630053834383,0.0,0.0,0.0,0.0,0.0,0.0,0.0,0.0,0.4648766950797894,0.0,0.0,0.2337162837982173
3.950001907348627,0.06548678874969482,0.03352079167962074,0.4010641276836395,-0.12766334698433096,-0.0005691972105691098,0.162044385890428,0.06548678874969482,0.03352079167962074,-0.07550858258653215,-0.12766334698433096,-0.0005691972105691098,-0.07203774808108598,0.07783387513305451,-0.04157629586582701,0.022994602233902484,-0.008518513292074203,0.09414869546890259,0.017909256741404523,0.0,-1.3149732497354982,-0.3663709234741381,14.370613039575943,0.0,0.0,0.0,0.0,0.0,0.4765727102701717,0.0,0.0,0.23408213397151398,0.0,0.0,0.0,0.0,0.0,0.0,0.0,0.0,0.4765722637939311,0.0,0.0,0.234082122802734
4.0000019073486275,0.060005318373441696,0.03373997285962105,0.406820148229599,-0.1297232461413627,0.0044421834669563275,0.15253647588293548,0.060005318373441696,0.03373997285962105,-0.08146276931145796,-0.1297232461413627,0.0044421834669563275,-0.08176529323856624,0.08352283064770738,-0.040129984378558525,0.020502638919772664,0.008333651348948479,0.027457157149910923,-0.026530932635068897,0.0,-1.345152155523683,-0.37800234769842056,14.615257385358358,0.0,0.0,0.0,0.0,0.0,0.48828291754105696,0.0,0.0,0.23430176912150172,0.0,0.0,0.0,0.0,0.0,0.0,0.0,0.0,0.4882824706458902,0.0,0.0,0.2343017635345457
4.050001907348627,0.054610785096883774,0.03351559862494469,0.4128572344779968,-0.11956441335583969,0.012257914136073363,0.1546527198217543,0.054610785096883774,0.03351559862494469,-0.08714321255683788,-0.11956441335583969,0.012257914136073363,-0.0797222801781392,0.08005246744755423,-0.035958068085938155,0.020544203482611323,0.01826958917081356,-0.008614737540483476,-0.016599169000983238,0.0,-1.4607215444590669,-0.4244044397803658,15.073512463888155,0.0,0.0,0.0,0.0,0.0,0.5000004470348347,0.0,0.0,0.2343749999998935,0.0,0.0,0.0,0.0,0.0,0.0,0.0,0.0,0.4999999999999852,0.0,0.0,0.234375
4.100001907348627,0.0484321229159832,0.03288416936993599,0.42129114270210266,-0.11726898598733154,0.012259367895036434,0.18896758653765525,0.0484321229159832,0.03288416936993599,-0.09042683354713477,-0.11726898598733154,0.012259367895036434,-0.045334171409721735,0.13214298071775188,-0.013141492830984092,0.046309571462851196,-0.00730779767036438,-0.026255300268530846,0.011871004477143291,0.0,-1.5247588965782948,-0.4589112591470822,15.20648842979184,0.0,0.0,0.0,0.0,0.0,0.5117179762492374,0.0,0.0,0.23430175794737698,0.0,0.0,0.0,0.0,0.0,0.0,0.0,0.0,0.5117175293540807,0.0,0.0,0.234301763534546
4.150001907348627,0.04379232972860336,0.03359644114971161,0.42919933795928955,-0.10499543534014365,0.023871929075412555,0.20577540833041602,0.04379232972860336,0.03359644114971161,-0.09422884472296988,-0.10499543534014365,0.023871929075412555,-0.02830670330332624,0.09713960980712111,-0.020973606632216146,0.03237068664721665,-0.014024801552295685,-0.04679182916879653,0.031229104846715934,0.0,-1.5086283354116676,-0.4575413213658678,15.016435644262451,0.0,0.0,0.0,0.0,0.0,0.5234281826822594,0.0,0.0,0.23408211163374226,0.0,0.0,0.0,0.0,0.0,0.0,0.0,0.0,0.5234277362060393,0.0,0.0,0.2340821228027347
4.200001907348627,0.03873959928750992,0.03428339213132858,0.4388808608055115,-0.10636146389631287,0.022891680292863013,0.23662215907733128,0.03873959928750992,0.03428339213132858,-0.09624288989310215,-0.10636146389631287,0.022891680292863013,0.0029058920194516558,0.09740954738157415,-0.020400344711987817,0.03401400333143556,0.052858203649520874,-0.042697858065366745,0.0014641650486737542,0.0,-1.522443297833083,-0.4927119413440579,14.778316748111422,0.0,0.0,0.0,0.0,0.0,0.5351237506986136,0.0,0.0,0.23371626705787962,0.0,0.0,0.0,0.0,0.0,0.0,0.0,0.0,0.535123304920181,0.0,0.0,0.2337162837982183
4.250001907348627,0.034205276519060135,0.03512778878211975,0.4495091736316681,-0.09550466388765123,0.03498286223666229,0.24297450347949626,0.034205276519060135,0.03512778878211975,-0.09728820476451494,-0.09550466388765123,0.03498286223666229,0.009769935931714352,0.1054152126140111,-0.02195272524946912,0.031117573937015308,0.021701911464333534,0.008783244527876375,-0.009321214631199838,0.0,-1.3797465894173873,-0.46688104035544753,14.27468220308276,0.0,0.0,0.0,0.0,0.0,0.546797378396183,0.0,0.0,0.2332045675477819,0.0,0.0,0.0,0.0,0.0,0.0,0.0,0.0,0.5467969335937344,0.0,0.0,0.2332045898437509
4.300001907348626,0.03013516776263714,0.03630981221795082,0.4606199562549591,-0.08568997935179651,0.044153074072328366,0.23354126632708624,0.03013516776263714,0.03630981221795082,-0.0978218282175195,-0.08568997935179651,0.044153074072328366,0.0009937725665428998,0.09744766858748477,-0.018977768019403207,0.031995489252973464,-0.00887133926153183,0.020365802571177483,0.0002372351009398674,0.0,-1.2976380268398635,-0.4842260179913396,13.977568580951676,0.0,0.0,0.0,0.0,0.0,0.5584417844724786,0.0,0.0,0.23254749376054334,0.0,0.0,0.0,0.0,0.0,0.0,0.0,0.0,0.5584413409232933,0.0,0.0,0.2325475215911875
4.350001907348626,0.02599531039595604,0.03731399029493332,0.4709967076778412,-0.0805330138705845,0.042335996394253214,0.21739316132633704,0.02599531039595604,0.03731399029493332,-0.09905300741325274,-0.0805330138705845,0.042335996394253214,-0.014352502356022784,0.11685641558008752,-0.018540903844725953,0.03821373195783018,0.06785072386264801,0.011648848652839662,0.008109097369015215,0.0,-1.338420999249074,-0.5201341839143089,14.114984647646624,0.0,0.0,0.0,0.0,0.0,0.5700497150910939,0.0,0.0,0.23174566368235983,0.0,0.0,0.0,0.0,0.0,0.0,0.0,0.0,0.570049273071273,0.0,0.0,0.2317456970214855
4.400001907348626,0.02232002466917038,0.0385175459086895,0.4799348711967468,-0.07663717545645148,0.03988552170600103,0.19883960406980009,0.02232002466917038,0.0385175459086895,-0.10167907955141309,-0.07663717545645148,0.03988552170600103,-0.03196022855872824,0.10709114311248369,-0.023848879179413363,0.03254320171928171,0.0972893163561821,-0.00802713166922331,-0.016196640208363533,0.0,-1.4665763292624776,-0.5448849593160159,14.584597587813509,0.0,0.0,0.0,0.0,0.0,0.5816139507481599,0.0,0.0,0.23079983262852832,0.0,0.0,0.0,0.0,0.0,0.0,0.0,0.0,0.5816135105323627,0.0,0.0,0.2307998714447034
4.450001907348626,0.018563732504844666,0.039584118872880936,0.4890909790992737,-0.07349305686069062,0.045489430216046005,0.19735345719960215,0.018563732504844666,0.039584118872880936,-0.10403633403952506,-0.07349305686069062,0.045489430216046005,-0.032357436043845916,0.1023008531118701,-0.021011116872773794,0.02548202814114653,0.036265574395656586,-0.03917700797319413,-0.044794104993343346,0.0,-1.467985965965144,-0.5398179557069457,14.650135400603876,0.0,0.0,0.0,0.0,0.0,0.5931273131387987,0.0,0.0,0.22971089324344807,0.0,0.0,0.0,0.0,0.0,0.0,0.0,0.0,0.5931268749999838,0.0,0.0,0.2297109375000015
4.500001907348626,0.015006553381681442,0.04084106907248497,0.498157799243927,-0.0743167159503952,0.04255845273706634,0.20307379380762366,0.015006553381681442,0.04084106907248497,-0.1064248727796544,-0.0743167159503952,0.04255845273706634,-0.02540608169299538,0.10148362838948355,-0.026321717525205734,0.028633265343235514,0.04934797063469887,-0.048592984676361084,-0.017030039802193635,0.0,-1.5394298024947375,-0.5780191584632016,14.881414732242813,0.0,0.0,0.0,0.0,0.0,0.6045826720235814,0.0,0.0,0.22847987550061905,0.0,0.0,0.0,0.0,0.0,0.0,0.0,0.0,0.6045822362327409,0.0,0.0,0.2284799251556414
4.5500019073486255,0.01136441994458437,0.041846342384815216,0.5078716278076172,-0.0641252382848293,0.04421164416381157,0.21572106436842173,0.01136441994458437,0.041846342384815216,-0.10810132428736385,-0.0641252382848293,0.04421164416381157,-0.011386882334221554,0.11203660839266716,-0.026523307385323047,0.027625682320024048,0.04936020448803902,-0.05808999016880989,-0.020138859748840325,0.0,-1.5574917944717415,-0.5812514842359633,14.934404540815704,0.0,0.0,0.0,0.0,0.0,0.615972952094981,0.0,0.0,0.22710794670264328,0.0,0.0,0.0,0.0,0.0,0.0,0.0,0.0,0.6159725189208816,0.0,0.0,0.2271080017089864
4.600001907348625,0.007728100288659334,0.042546555399894714,0.5191102623939514,-0.06314000319669225,0.03756160987122491,0.2367046575073352,0.007728100288659334,0.042546555399894714,-0.10818087744987626,-0.06314000319669225,0.03756160987122491,0.011108246026110408,0.12127343394574464,-0.025726541954943727,0.030810268179967792,0.022292155772447586,-0.03968830779194832,0.0071167517453432135,0.0,-1.6064865102874313,-0.5967794119861878,14.912563291104709,0.0,0.0,0.0,0.0,0.0,0.6272911398438277,0.0,0.0,0.22559641148122478,0.0,0.0,0.0,0.0,0.0,0.0,0.0,0.0,0.627290709552748,0.0,0.0,0.2255964717865014
4.650001907348625,0.004247948527336121,0.04367826506495476,0.5318427681922913,-0.060724293677351715,0.03568031478519594,0.2523420198476862,0.004247948527336121,0.04367826506495476,-0.10668752223347411,-0.060724293677351715,0.03568031478519594,0.028395308050518098,0.09106832142638766,-0.04883376787691329,0.0172725645967029,0.004868627525866032,-0.07869008928537369,-0.006193525157868853,0.0,-1.675414927357091,-0.5959875184080009,14.913333409339181,0.0,0.0,0.0,0.0,0.0,0.6385302904257654,0.0,0.0,0.22394671179716813,0.0,0.0,0.0,0.0,0.0,0.0,0.0,0.0,0.6385298632812328,0.0,0.0,0.2239467773437529
4.700001907348625,0.0005849066656082869,0.04388120025396347,0.5445486903190613,-0.06054188119134481,0.02043271048479944,0.27567342177635373,0.0005849066656082869,0.04388120025396347,-0.10513484420864394,-0.06054188119134481,0.02043271048479944,0.053512994835973826,0.09013347005010619,-0.052758836710317336,0.01772741314336912,0.08017676323652267,-0.0604773610830307,0.0028441799804568364,0.0,-1.6044684630273036,-0.5787280359730425,14.564326860193466,0.0,0.0,0.0,0.0,0.0,0.6496835345277052,0.0,0.0,0.2221604269403799,0.0,0.0,0.0,0.0,0.0,0.0,0.0,0.0,0.6496831107902354,0.0,0.0,0.2221604976654082
4.750001907348625,-0.002350000897422433,0.04411106929183006,0.5558391213417053,-0.053729888609736376,0.0232343704000172,0.2811208414402235,-0.002350000897422433,0.04411106929183006,-0.10490496389257542,-0.053729888609736376,0.0232343704000172,0.06088156791035454,0.09502583896206573,-0.05283808774511156,0.01963497888609922,-0.06999000906944275,-0.014539622701704502,-0.0015737337525933964,0.0,-1.51091042182543,-0.515336030147064,14.239577204458898,0.0,0.0,0.0,0.0,0.0,0.6607440852342807,0.0,0.0,0.22023927352986894,0.0,0.0,0.0,0.0,0.0,0.0,0.0,0.0,0.6607436651611158,0.0,0.0,0.2202393493652374
4.800001907348625,-0.005815411917865276,0.04423901438713074,0.5687965154647827,-0.04684461673523982,0.01776406998509356,0.270874841807962,-0.005815411917865276,0.04423901438713074,-0.10290872942952156,-0.04684461673523982,0.01776406998509356,0.052689736294217415,0.09229137417039368,-0.05091539198109096,0.017409936451623587,-0.015054969117045403,0.02493467926979065,0.004789055325090882,0.0,-1.566722191855132,-0.536246626476686,14.426650829959625,0.0,0.0,0.0,0.0,0.0,0.6717052448943043,0.0,0.0,0.2181851055137446,0.0,0.0,0.0,0.0,0.0,0.0,0.0,0.0,0.6717048287391487,0.0,0.0,0.2181851863861117
4.8500019073486245,-0.009226799942553043,0.04422490671277046,0.5812507271766663,-0.0475225728884899,0.016207392803247556,0.2680302618930805,-0.009226799942553043,0.04422490671277046,-0.10130968481055436,-0.0475225728884899,0.016207392803247556,0.05203034772386239,0.0873485259158775,-0.049658004674135725,0.014726551379387942,-0.0402926430106163,0.03292248025536537,-0.0001240293495357077,0.0,-1.61893859173803,-0.5282624641655161,14.596223725903341,0.0,0.0,0.0,0.0,0.0,0.6825604119872206,0.0,0.0,0.2159999141692181,0.0,0.0,0.0,0.0,0.0,0.0,0.0,0.0,0.6825599999999824,0.0,0.0,0.2160000000000038
4.900001907348624,-0.013261317275464535,0.04383139684796333,0.5958482027053833,-0.05377224862839991,0.005940316148362876,0.2746594585770326,-0.013261317275464535,0.04383139684796333,-0.09745488528418089,-0.05377224862839991,0.005940316148362876,0.060973630474429996,0.08745909822844755,-0.04994976742883672,0.01755597933028774,-0.08152763545513153,-0.003719808766618372,-0.006313614547252654,0.0,-1.5165331773773216,-0.5014338212629941,14.324539038964677,0.0,0.0,0.0,0.0,0.0,0.6933030879895642,0.0,0.0,0.21368582810260262,0.0,0.0,0.0,0.0,0.0,0.0,0.0,0.0,0.6933026804160896,0.0,0.0,0.213685918807987
4.950001907348624,-0.016886670142412186,0.043035928159952164,0.6084537506103516,-0.05531099948150208,-0.003596647508514095,0.27314908577906066,-0.016886670142412186,0.043035928159952164,-0.09547313363105792,-0.05531099948150208,-0.003596647508514095,0.061903972529748164,0.08648906467477202,-0.046660011981094485,0.017160178096334633,-0.045789554715156555,-7.474458834621902e-05,0.012495896779000759,0.0,-1.4676817054604694,-0.46477236489436397,14.251090645896449,0.0,0.0,0.0,0.0,0.0,0.7039268842414095,0.0,0.0,0.2112451132493125,0.0,0.0,0.0,0.0,0.0,0.0,0.0,0.0,0.7039264813232243,0.0,0.0,0.2112452087402385
5.000001907348624,-0.020765893161296844,0.04186591878533363,0.6203742623329163,-0.0573049664005029,-0.01340861994238794,0.2608376729841135,-0.020765893161296844,0.04186591878533363,-0.09405126647991591,-0.0573049664005029,-0.01340861994238794,0.05215750011024961,0.08881638984832652,-0.05264022716247707,0.018026606593146255,0.0374535396695137,-0.02684819884598255,-0.0049442909657955135,0.0,-1.542834091750512,-0.45342805876810016,14.48114634040588,0.0,0.0,0.0,0.0,0.0,0.7144255288128322,0.0,0.0,0.20868017287386387,0.0,0.0,0.0,0.0,0.0,0.0,0.0,0.0,0.7144251307868786,0.0,0.0,0.2086802730560347
