time,pos_x,pos_y,pos_z,vel_x,vel_y,vel_z,pos_xo,pos_yo,pos_zo,vel_xo,vel_yo,vel_zo,roll,pitch,yaw,roll_vel,pitch_vel,yaw_vel,thrust_z,force_x,force_y,force_z,torque_x,torque_y,torque_z,pos_xd,pos_yd,pos_zd,vel_xd,vel_yd,vel_zd,roll_d,pitch_d,yaw_d,roll_vel_d,pitch_vel_d,yaw_vel_d
0.005,-4.965780279334026e-10,3.5844094688356287e-10,0.20484347190998925,-1.9127661958919084e-07,1.9056914850853552e-07,-0.05211986664293738,-4.965780279334026e-10,3.5844094688356287e-10,0.20484347190998925,-1.9127661958919084e-07,1.9056914850853552e-07,-0.05211986664293738,1.1554524593541584e-08,3.4207998870249614e-08,5.387083097246063e-12,5.230920616733371e-06,1.3576920619914554e-05,-3.0384673680837545e-09,0.0,0.0,0.0,0.0,0.0,0.0,0.0,0.0,0.0,0.0,0.0,0.0,0.0,0.0,0.0,0.0,0.0,0.0,0.0
0.01,3.4880619824448694e-08,-2.8237634862236477e-07,0.20447984204607134,4.9694002242907644e-05,-0.00011290549896719843,-0.09703983729542168,-4.965780279334026e-10,3.5844094688356287e-10,0.20484347190998925,-1.9127661958919084e-07,1.9056914850853552e-07,-0.05211986664293738,1.1499478557438108e-07,-8.688163472883937e-06,-1.3753773993673612e-06,-0.00020650607240662564,-0.0059142727006673826,-0.0005100775221594973,0.0,-8.636292027354239,2.239426796503365,13.027484265625477,0.0,0.0,0.0,0.0,0.0,2.4391180038452156e-09,0.0,0.0,1.4630132675170899e-06,0.0,0.0,0.0,0.0,0.0,0.0
0.015,2.1041638343992795e-06,-1.399886124047353e-06,0.20381684258838367,0.0007975292396183875,-0.00028461113525244226,-0.1447809106117264,-4.965780279334026e-10,3.5844094688356287e-10,0.20484347190998925,-1.9127661958919084e-07,1.9056914850853552e-07,-0.05211986664293738,-1.0885721792723389e-05,-0.00016081541710755748,-4.872356014722146e-06,-0.004285948749757312,-0.054971136906395775,-0.0006341888751836861,0.0,-8.636292027354239,2.239426796503365,13.027484265625477,0.0,0.0,0.0,0.0,0.0,1.949464721679688e-08,0.0,0.0,5.844735717773438e-06,0.0,0.0,0.0,0.0,0.0,0.0
0.02,9.336303066659557e-06,-3.0282986670726075e-06,0.2030392657287443,0.002230138554488986,-0.00039700267880687435,-0.182471472413006,-4.965780279334026e-10,3.5844094688356287e-10,0.20484347190998925,-1.9127661958919084e-07,1.9056914850853552e-07,-0.05211986664293738,-4.996519212534531e-05,-0.0006446978258033686,-6.4810599531207915e-06,-0.012316648581135623,-0.14626800165105203,-0.0001027061487824303,0.0,-8.636292027354239,2.239426796503365,13.027484265625477,0.0,0.0,0.0,0.0,0.0,6.573271350860595e-08,0.0,0.0,1.3134201622009276e-05,0.0,0.0,0.0,0.0,0.0,0.0
0.025,2.82227635005049e-05,-5.71147441263148e-06,0.2019530653633982,0.0047980186825763915,-0.0006227394146999132,-0.21883196532922597,-4.965780279334026e-10,3.5844094688356287e-10,0.20484347190998925,-1.9127661958919084e-07,1.9056914850853552e-07,-0.05211986664293738,-0.00017177049709276887,-0.0019126284615112563,-5.938546940757789e-06,-0.0331545412805947,-0.3240492279819091,1.8414078625927373e-06,0.0,-8.636292027354239,2.239426796503365,13.027484265625477,0.0,0.0,0.0,0.0,0.0,1.5566464843750004e-07,0.0,0.0,2.3320458984375003e-05,0.0,0.0,0.0,0.0,0.0,0.0
0.030000000000000002,5.944527193553148e-05,-9.277241899444946e-06,0.20086487743770418,0.008429702578205977,-0.0008595929785747159,-0.243267085924041,-4.965780279334026e-10,3.5844094688356287e-10,0.20484347190998925,-1.9127661958919084e-07,1.9056914850853552e-07,-0.05211986664293738,-0.0003803047566883602,-0.004065513666057382,-7.847977592335016e-06,-0.05141919707783377,-0.5721994246917473,-0.0009091577928683866,0.0,-8.636292027354239,2.239426796503365,13.027484265625477,0.0,0.0,0.0,0.0,0.0,3.0374705791473393e-07,0.0,0.0,3.6392569541931154e-05,0.0,0.0,0.0,0.0,0.0,0.0
0.035,0.00015577263605999014,-5.4866678566771694e-05,0.20037266013713848,0.03164511364505414,-0.007295672890239775,-0.05336805634150556,-4.965780279334026e-10,3.5844094688356287e-10,0.20484347190998925,-1.9127661958919084e-07,1.9056914850853552e-07,-0.05211986664293738,0.0002910162127111235,-0.002330530204564842,0.0003530395504235165,-0.006634563428056808,0.37350238328387125,0.10513920598684261,0.0,-8.636292027354239,2.239426796503365,13.027484265625477,0.0,0.0,0.0,0.0,0.0,5.243818908691408e-07,0.0,0.0,5.233960876464845e-05,0.0,0.0,0.0,0.0,0.0,0.0
0.04,0.0003340982378606779,-3.4804818893867945e-05,0.20017904033428102,0.03858520326947159,0.012414155803862154,-0.034221711215689565,-4.965780279334026e-10,3.5844094688356287e-10,0.20484347190998925,-1.9127661958919084e-07,1.9056914850853552e-07,-0.05211986664293738,0.0001365793139848328,-0.0011152788912459064,0.0006753491027593745,-0.03827291203191407,0.20679392342512232,0.031526028592856636,0.0,-8.636292027354239,2.239426796503365,13.027484265625477,0.0,0.0,0.0,0.0,0.0,8.319165079116823e-07,0.0,0.0,7.115066585540773e-05,0.0,0.0,0.0,0.0,0.0,0.0
0.045,0.0005053035601318138,3.102626754888227e-05,0.20005101445814014,0.02809228853178698,0.008437485579628482,-0.012917759709804204,-4.965780279334026e-10,3.5844094688356287e-10,0.20484347190998925,-1.9127661958919084e-07,1.9056914850853552e-07,-0.05211986664293738,-8.326182323630335e-05,-0.00028209090017674974,0.0007498448846984521,-0.014161624302537194,0.11001389480899657,0.04061265802979021,0.0,-8.636292027354239,2.239426796503365,13.027484265625477,0.0,0.0,0.0,0.0,0.0,1.2406437500000003e-06,0.0,0.0,9.281484375e-05,0.0,0.0,0.0,0.0,0.0,0.0
0.049999999999999996,0.0005909919779589002,7.081592284432759e-05,0.20001630436010503,0.010856911111558128,0.008793327833927906,-0.002406691619496397,-4.965780279334026e-10,3.5844094688356287e-10,0.20484347190998925,-1.9127661958919084e-07,1.9056914850853552e-07,-0.05211986664293738,1.0092760174395519e-05,-0.00011903242421830982,0.0011499527204979342,0.04345350998464654,-0.021340593101975676,0.11671549736754289,0.0,-8.636292027354239,2.239426796503365,13.027484265625477,0.0,0.0,0.0,0.0,0.0,1.7648020071029662e-06,0.0,0.0,0.00011732125911712646,0.0,0.0,0.0,0.0,0.0,0.0
0.05499999999999999,0.0005782635977038251,0.00011539962956212129,0.20005151352758663,-0.012094564436483102,0.01038776572968639,0.014000451018450197,0.0005782635977038251,0.00011539962956212129,0.20004909495229975,-0.012094564436483102,0.01038776572968639,0.013855791976091799,1.1444092660859126e-05,-0.00035064169701645015,0.0015158858071508312,2.1673668691438858e-05,-0.09295134269853506,0.07736007015377203,0.0,-8.636292027354239,2.239426796503365,13.027484265625477,0.0,0.0,0.0,0.0,0.0,2.418575286865234e-06,0.0,0.0,0.00014465904235839842,0.0,0.0,0.0,0.0,0.0,0.0
0.05999999999999999,0.0004399689630281618,0.00017728872706270006,0.20018560144975217,-0.034206496018776775,0.012914576004519032,0.035773001604190106,0.0005782635977038251,0.00011539962956212129,0.20004909495229975,-0.012094564436483102,0.01038776572968639,0.013855791976091799,2.943056272076693e-07,-0.0012385177501262432,0.001986510348452525,7.318087174167445e-05,-0.23876286858385748,0.09078265564486014,0.0,-9.281780342727899,3.5381528664082285,9.256208568334579,0.0,0.0,0.0,0.0,0.0,3.216093283271788e-06,0.0,0.0,0.00017481733760833738,0.0,0.0,0.0,0.0,0.0,0.0
0.06499999999999999,0.00022286130809964994,0.0002401441203456948,0.20039942560066676,-0.05534271597893978,0.014011691901374876,0.05331801104337153,0.0005782635977038251,0.00011539962956212129,0.20004909495229975,-0.012094564436483102,0.01038776572968639,0.013855791976091799,-3.5376185348701897e-07,-0.0026670171296154957,0.002447400133410899,-0.0006379300281594037,-0.35579427646843614,0.10664975481627365,0.0,-9.281780342727899,3.5381528664082285,9.256208568334579,0.0,0.0,0.0,0.0,0.0,4.1714314453124984e-06,0.0,0.0,0.00020778530273437494,0.0,0.0,0.0,0.0,0.0,0.0
0.06999999999999999,-0.00014514087726995425,0.0003243424811778955,0.2007535042802373,-0.08032306830997553,0.01809009038841914,0.07704537392964006,0.0005782635977038251,0.00011539962956212129,0.20004909495229975,-0.012094564436483102,0.01038776572968639,0.013855791976091799,-3.278478013645164e-05,-0.005069042559303806,0.003134374372935886,-0.002253160532315151,-0.5131657561810131,0.15178558515429524,0.0,-9.281780342727899,3.5381528664082285,9.256208568334579,0.0,0.0,0.0,0.0,0.0,5.298611045646665e-06,0.0,0.0,0.00024355210933685295,0.0,0.0,0.0,0.0,0.0,0.0
0.075,-0.0006469696376449989,0.00044212807632080684,0.20124002247065026,-0.10604784929283372,0.025623642632310355,0.1026479962901858,0.0005782635977038251,0.00011539962956212129,0.20004909495229975,-0.012094564436483102,0.01038776572968639,0.013855791976091799,-5.683096324224675e-05,-0.008312928212467144,0.004138781206133134,-0.0019298318324388955,-0.6873900134699068,0.2160917658300616,0.0,-9.281780342727899,3.5381528664082285,9.256208568334579,0.0,0.0,0.0,0.0,0.0,6.6115992492675765e-06,0.0,0.0,0.00028210694274902334,0.0,0.0,0.0,0.0,0.0,0.0
0.08,-0.0011972769022831004,0.0005809468308273562,0.20177712080601035,-0.12769757357662972,0.03343222243692534,0.12475236263677031,0.0005782635977038251,0.00011539962956212129,0.20004909495229975,-0.012094564436483102,0.01038776572968639,0.013855791976091799,-9.422365529608126e-05,-0.011901193047764073,0.005295542403520648,-0.005415611142007941,-0.8355436385803933,0.2741106492975217,0.0,-9.281780342727899,3.5381528664082285,9.256208568334579,0.0,0.0,0.0,0.0,0.0,8.124309182167053e-06,0.0,0.0,0.0003234390020370483,0.0,0.0,0.0,0.0,0.0,0.0
0.085,-0.0019576065709699746,0.0007883864693499858,0.20252248815489268,-0.15457907087794653,0.043680662337926536,0.15159946638307426,0.0005782635977038251,0.00011539962956212129,0.20004909495229975,-0.012094564436483102,0.01038776572968639,0.013855791976091799,-0.00015486870167827452,-0.01690267852758447,0.0069769093754774685,-0.010650259643991182,-1.0165485975646842,0.34449899097651093,0.0,-9.281780342727899,3.5381528664082285,9.256208568334579,0.0,0.0,0.0,0.0,0.0,9.850600000000002e-06,0.0,0.0,0.0003675375,0.0,0.0,0.0,0.0,0.0,0.0
0.09000000000000001,-0.0027357241774752885,0.0010165693891748776,0.20328800035990569,-0.17721539842762932,0.05290720788341137,0.17425163883477288,0.0005782635977038251,0.00011539962956212129,0.20004909495229975,-0.012094564436483102,0.01038776572968639,0.013855791976091799,-0.00028250345201882225,-0.02200923333523687,0.00871239719512926,-0.026678800907597167,-1.1600490720630559,0.39476372736426524,0.0,-9.281780342727899,3.5381528664082285,9.256208568334579,0.0,0.0,0.0,0.0,0.0,1.1804276956748965e-05,0.0,0.0,0.00041439166316986094,0.0,0.0,0.0,0.0,0.0,0.0
0.09500000000000001,-0.0037603437354196243,0.0013330144856594356,0.20429494876451537,-0.203634458894784,0.06412117093024824,0.20014841860718832,0.0005782635977038251,0.00011539962956212129,0.20004909495229975,-0.012094564436483102,0.01038776572968639,0.013855791976091799,-0.0005475813897678928,-0.02868237160870855,0.010977237865738426,-0.054375629563235356,-1.3177854393407678,0.4437989702064508,0.0,-9.281780342727899,3.5381528664082285,9.256208568334579,0.0,0.0,0.0,0.0,0.0,1.3999091473388677e-05,0.0,0.0,0.0004639907318115235,0.0,0.0,0.0,0.0,0.0,0.0
0.10000000000000002,-0.00477124139512594,0.0016603574636753259,0.20528523119623812,-0.22689963205761973,0.07429895393642569,0.22210822262187319,0.0005782635977038251,0.00011539962956212129,0.20004909495229975,-0.012094564436483102,0.01038776572968639,0.013855791976091799,-0.0009187566553188745,-0.03519220361861038,0.013166808875213069,-0.07956200472384165,-1.4531024214884551,0.48540127504821245,0.0,-9.281780342727899,3.5381528664082285,9.256208568334579,0.0,0.0,0.0,0.0,0.0,1.6448741206550603e-05,0.0,0.0,0.0005163239599227907,0.0,0.0,0.0,0.0,0.0,0.0
0.10500000000000002,-0.006055324299391472,0.002093965231974211,0.20654191183455123,-0.2516503997683567,0.08696372369905281,0.2459319876113573,-0.006055324299391472,0.002093965231974211,0.20652274496443404,-0.2516503997683567,0.08696372369905281,0.24536060699612292,-0.0015787352035704014,-0.04334297434865458,0.01586978445367641,-0.1290813561876577,-1.5816309281692826,0.5143849249819434,0.0,-9.281780342727899,3.5381528664082285,9.256208568334579,0.0,0.0,0.0,0.0,0.0,1.9166870117187512e-05,0.0,0.0,0.0005713806152343752,0.0,0.0,0.0,0.0,0.0,0.0
0.11000000000000003,-0.007279052509659219,0.0025284026006963793,0.20773173747692852,-0.2698569103199078,0.09727703990344262,0.26077693208211583,-0.006055324299391472,0.002093965231974211,0.20652274496443404,-0.2516503997683567,0.08696372369905281,0.24536060699612292,-0.0023803097791729867,-0.0509630340962984,0.018329910555256897,-0.16221921607813483,-1.6661900615685445,0.5267003719417769,0.0,0.4287818786501884,-8.17273234257102,5.749544054567814,0.0,0.0,0.0,0.0,0.0,2.2167068539237992e-05,0.0,0.0,0.0006291499792099002,0.0,0.0,0.0,0.0,0.0,0.0
0.11500000000000003,-0.008763552343536466,0.0030710691894405774,0.209146725580936,-0.2839105838972842,0.10427555530761452,0.26734229558587225,-0.006055324299391472,0.002093965231974211,0.20652274496443404,-0.2516503997683567,0.08696372369905281,0.24536060699612292,-0.003430976586809288,-0.06003608023783455,0.021181935736991637,-0.17349957056774967,-1.720248259588395,0.5269123541725059,0.0,0.4287818786501884,-8.17273234257102,5.749544054567814,0.0,0.0,0.0,0.0,0.0,2.546287324829103e-05,0.0,0.0,0.0006896213470458988,0.0,0.0,0.0,0.0,0.0,0.0
0.12000000000000004,-0.01010682208993691,0.0035642681683255607,0.2103940218231682,-0.2906658383124147,0.1062393415280773,0.2664383632555216,-0.006055324299391472,0.002093965231974211,0.20652274496443404,-0.2516503997683567,0.08696372369905281,0.24536060699612292,-0.0043802156800786755,-0.0681160578904133,0.02367140748360126,-0.16594482767994143,-1.73966027818939,0.524335737465896,0.0,0.4287818786501884,-8.17273234257102,5.749544054567814,0.0,0.0,0.0,0.0,0.0,2.9067767530250576e-05,0.0,0.0,0.0007527840276718144,0.0,0.0,0.0,0.0,0.0,0.0
0.12500000000000003,-0.011670975182478149,0.0041259383231590525,0.2118086406619473,-0.29501280166755844,0.10415973297787887,0.2623288814521321,-0.006055324299391472,0.002093965231974211,0.20652274496443404,-0.2516503997683567,0.08696372369905281,0.24536060699612292,-0.005442217198900853,-0.07742325260544217,0.0265318673994724,-0.1506540846028176,-1.7468186422242267,0.5259815226422055,0.0,0.4287818786501884,-8.17273234257102,5.749544054567814,0.0,0.0,0.0,0.0,0.0,3.299518125000003e-05,0.0,0.0,0.0008186273437500005,0.0,0.0,0.0,0.0,0.0,0.0
0.13000000000000003,-0.013049410978281089,0.004601730742111289,0.21302008071736334,-0.2963074926632441,0.10061471224069728,0.25668946173868956,-0.006055324299391472,0.002093965231974211,0.20652274496443404,-0.2516503997683567,0.08696372369905281,0.24536060699612292,-0.006333563022286277,-0.08552691510974997,0.029029800927309102,-0.13644171614998582,-1.7392664538393505,0.5208756451808514,0.0,0.4287818786501884,-8.17273234257102,5.749544054567814,0.0,0.0,0.0,0.0,0.0,3.725849092006686e-05,0.0,0.0,0.0008871406316757206,0.0,0.0,0.0,0.0,0.0,0.0
0.13500000000000004,-0.014642121383625646,0.005140023995282787,0.21435102255541646,-0.3013735965766261,0.10106466356445022,0.24364855429903082,-0.006055324299391472,0.002093965231974211,0.20652274496443404,-0.2516503997683567,0.08696372369905281,0.24536060699612292,-0.007017686354710069,-0.09450287335607749,0.031827585237941484,-0.04310264438651849,-1.641049455479372,0.5042900690714952,0.0,0.4287818786501884,-8.17273234257102,5.749544054567814,0.0,0.0,0.0,0.0,0.0,4.187101976928713e-05,0.0,0.0,0.0009583132415771488,0.0,0.0,0.0,0.0,0.0,0.0
0.14000000000000004,-0.016060390471401075,0.00561320340576089,0.21546044843670623,-0.30666717079856143,0.10168741070377826,0.23329670456808946,-0.006055324299391472,0.002093965231974211,0.20652274496443404,-0.2516503997683567,0.08696372369905281,0.24536060699612292,-0.007173857019102309,-0.10189887085715602,0.03422096076045242,0.07004828588164966,-1.5331022296697514,0.49461816991562924,0.0,0.4287818786501884,-8.17273234257102,5.749544054567814,0.0,0.0,0.0,0.0,0.0,4.684603781147008e-05,0.0,0.0,0.0010321345373153694,0.0,0.0,0.0,0.0,0.0,0.0
0.14500000000000005,-0.01771520265767378,0.006161294079777233,0.21667175855046872,-0.31340251972125655,0.10344126593016938,0.2219954570293808,-0.006055324299391472,0.002093965231974211,0.20652274496443404,-0.2516503997683567,0.08696372369905281,0.24536060699612292,-0.006674566563359664,-0.1096126635358973,0.03689708220936395,0.21120974464018344,-1.3819750834734605,0.4855977489769749,0.0,0.4287818786501884,-8.17273234257102,5.749544054567814,0.0,0.0,0.0,0.0,0.0,5.2196761914062555e-05,0.0,0.0,0.0011085938964843754,0.0,0.0,0.0,0.0,0.0,0.0
0.15000000000000005,-0.019193618955217383,0.006650723588847149,0.21768022341640314,-0.31997363671637585,0.1059396844039155,0.2125243045010088,-0.006055324299391472,0.002093965231974211,0.20652274496443404,-0.2516503997683567,0.08696372369905281,0.24536060699612292,-0.005531449083839316,-0.11562699053073312,0.03918945724074369,0.3741099086965677,-1.2168536164714843,0.4762522414774339,0.0,0.4287818786501884,-8.17273234257102,5.749544054567814,0.0,0.0,0.0,0.0,0.0,5.793635586681371e-05,0.0,0.0,0.0011876807104110724,0.0,0.0,0.0,0.0,0.0,0.0
0.15500000000000005,-0.02091972281025934,0.007223107004330299,0.21878389991944827,-0.32738014235531315,0.10859239202879623,0.2030522345731997,-0.02091972281025934,0.007223107004330299,0.21871982198899784,-0.32738014235531315,0.10859239202879623,0.20178285018904443,-0.003283768513658455,-0.1215233232423586,0.041737664739546515,0.5763878972706086,-1.0136032871176077,0.46333310291805296,0.0,0.4287818786501884,-8.17273234257102,5.749544054567814,0.0,0.0,0.0,0.0,0.0,6.407793045043952e-05,0.0,0.0,0.0012693843841552744,0.0,0.0,0.0,0.0,0.0,0.0
0.16000000000000006,-0.02246689256031499,0.007736236044259036,0.21971538697604265,-0.3348659257168124,0.11059696015997937,0.19753387535638126,-0.02091972281025934,0.007223107004330299,0.21871982198899784,-0.32738014235531315,0.10859239202879623,0.20178285018904443,-0.00027714298379093524,-0.12563652693773875,0.043881727677324,0.7875220179005138,-0.7865923658474607,0.4466614048095273,0.0,5.64536017870903,-12.33197927686572,6.859670690596103,0.0,0.0,0.0,0.0,0.0,7.063454350528726e-05,0.0,0.0,0.0013536943365097056,0.0,0.0,0.0,0.0,0.0,0.0
0.16500000000000006,-0.024281982587557968,0.008335134677764722,0.22075305267199724,-0.34485643856882753,0.11308105654977102,0.19236882243493286,-0.02091972281025934,0.007223107004330299,0.21871982198899784,-0.32738014235531315,0.10859239202879623,0.20178285018904443,0.004453365497590221,-0.12899564003020592,0.04622290688971669,1.0652591942076859,-0.5008672369779419,0.4264911953309852,0.0,5.64536017870903,-12.33197927686572,6.859670690596103,0.0,0.0,0.0,0.0,0.0,7.761920000000007e-05,0.0,0.0,0.0014406000000000009,0.0,0.0,0.0,0.0,0.0,0.0
0.17000000000000007,-0.025916445550825576,0.008869286734739742,0.22164527441171145,-0.35464737379247047,0.1149567414490489,0.19058824254707757,-0.02091972281025934,0.007223107004330299,0.21871982198899784,-0.32738014235531315,0.10859239202879623,0.20178285018904443,0.0098838883499735,-0.13059890459727022,0.04817449232083078,1.3345769435614467,-0.20832087967349477,0.4089472208082233,0.0,5.64536017870903,-12.33197927686572,6.859670690596103,0.0,0.0,0.0,0.0,0.0,8.504485210018168e-05,0.0,0.0,0.0015300908208847057,0.0,0.0,0.0,0.0,0.0,0.0
0.17500000000000007,-0.027843647235079316,0.009491122075198422,0.22266043193414337,-0.36690270748993276,0.11727931118630988,0.19102905914750726,-0.02091972281025934,0.007223107004330299,0.21871982198899784,-0.32738014235531315,0.10859239202879623,0.20178285018904443,0.017719315666772657,-0.13067795385689024,0.05031320885815223,1.677348806877239,0.1555038927321549,0.38877092466944796,0.0,5.64536017870903,-12.33197927686572,6.859670690596103,0.0,0.0,0.0,0.0,0.0,9.292439923706067e-05,0.0,0.0,0.0016221562591552747,0.0,0.0,0.0,0.0,0.0,0.0
0.18000000000000008,-0.02958690268793568,0.010044354638907804,0.2235574520276691,-0.3787296174148649,0.11876727622553519,0.19369192032899246,-0.02091972281025934,0.007223107004330299,0.21871982198899784,-0.32738014235531315,0.10859239202879623,0.20178285018904443,0.026133710261716677,-0.1289969622772209,0.05214335804517901,1.9912076750580079,0.5290622528049225,0.37428345401374646,0.0,5.64536017870903,-12.33197927686572,6.859670690596103,0.0,0.0,0.0,0.0,0.0,0.00010127068817615522,0.0,0.0,0.001716785788536073,0.0,0.0,0.0,0.0,0.0,0.0
0.18500000000000008,-0.031648556681903216,0.010684011114039497,0.22460000542244038,-0.39279594785224414,0.1200145930859393,0.19828776168458445,-0.02091972281025934,0.007223107004330299,0.21871982198899784,-0.32738014235531315,0.10859239202879623,0.20178285018904443,0.03755313884345918,-0.12494761659647176,0.05424455528225671,2.362905401006718,0.9640263974643188,0.35979055338140153,0.0,5.64536017870903,-12.33197927686572,6.859670690596103,0.0,0.0,0.0,0.0,0.0,0.00011009651308593763,0.0,0.0,0.0018139688964843765,0.0,0.0,0.0,0.0,0.0,0.0
0.19000000000000009,-0.033515677309663615,0.011247011365698202,0.22553123717612505,-0.4055841322088716,0.12012485920097213,0.2026727697092076,-0.02091972281025934,0.007223107004330299,0.21871982198899784,-0.32738014235531315,0.10859239202879623,0.20178285018904443,0.049140248546784324,-0.11938229796775526,0.05614002880119542,2.666779874279468,1.3829186672006628,0.3443297177479424,0.0,5.64536017870903,-12.33197927686572,6.859670690596103,0.0,0.0,0.0,0.0,0.0,0.00011941461560649889,0.0,0.0,0.0019136950841903704,0.0,0.0,0.0,0.0,0.0,0.0
0.1950000000000001,-0.035723193668277246,0.011891512436163501,0.22662304774147427,-0.4205079800917894,0.12033525997001632,0.20914519482606847,-0.02091972281025934,0.007223107004330299,0.21871982198899784,-0.32738014235531315,0.10859239202879623,0.20178285018904443,0.0641218885316387,-0.11068559795113099,0.05841869471107708,3.024180460196926,1.8635508701480314,0.32035143518242387,0.0,5.64536017870903,-12.33197927686572,6.859670690596103,0.0,0.0,0.0,0.0,0.0,0.00012923768491821308,0.0,0.0,0.0020159538665771503,0.0,0.0,0.0,0.0,0.0,0.0
0.2000000000000001,-0.037721608281432395,0.0124551050358007,0.22760681645230185,-0.43377749753286904,0.11981859495273295,0.21567045622149628,-0.02091972281025934,0.007223107004330299,0.21871982198899784,-0.32738014235531315,0.10859239202879623,0.20178285018904443,0.07875313024121722,-0.10079582703635319,0.06056262030839341,3.3084247389803645,2.3422759935326782,0.29340496088288426,0.0,5.64536017870903,-12.33197927686572,6.859670690596103,0.0,0.0,0.0,0.0,0.0,0.00013957835781040211,0.0,0.0,0.002120734772300722,0.0,0.0,0.0,0.0,0.0,0.0
0.2050000000000001,-0.040079261112812375,0.013096289437679366,0.22876962621247102,-0.4481140319076462,0.11881760403217312,0.22419397060704893,-0.040079261112812375,0.013096289437679366,0.22861917699372103,-0.4481140319076462,0.11881760403217312,0.22196594326329894,0.097205751965548,-0.08686119024218976,0.0632908723143946,3.682281187450325,2.8738940731648817,0.26518192250910794,0.0,5.64536017870903,-12.33197927686572,6.859670690596103,0.0,0.0,0.0,0.0,0.0,0.0001504492187500002,0.0,0.0,0.002228027343750002,0.0,0.0,0.0,0.0,0.0,0.0
0.2100000000000001,-0.042203113978121015,0.013647472536673064,0.22981974030240568,-0.4593670962626475,0.11539859421271145,0.23090363598518837,-0.040079261112812375,0.013096289437679366,0.22861917699372103,-0.4481140319076462,0.11881760403217312,0.22196594326329894,0.11489359979602,-0.07231654192397688,0.06602583640364286,3.9302101054079475,3.34655499743155,0.24154406885347685,0.0,6.536470186963677,-13.528601318210363,4.891548071086406,0.0,0.0,0.0,0.0,0.0,0.00016186279995021846,0.0,0.0,0.002337821137046816,0.0,0.0,0.0,0.0,0.0,0.0
0.2150000000000001,-0.044689123684794295,0.014251018555656237,0.23104993220850847,-0.4704227636733527,0.1091400941358857,0.23579365829147028,-0.040079261112812375,0.013096289437679366,0.22861917699372103,-0.4481140319076462,0.11881760403217312,0.22196594326329894,0.13607432695452296,-0.053386360694816816,0.06963759192601254,4.0621075369992345,3.781865821020562,0.21088316514209446,0.0,6.536470186963677,-13.528601318210363,4.891548071086406,0.0,0.0,0.0,0.0,0.0,0.00017383158143920925,0.0,0.0,0.0024501057220459007,0.0,0.0,0.0,0.0,0.0,0.0
0.2200000000000001,-0.0469050009013877,0.014748208271972478,0.23212525130130834,-0.4765748529327837,0.101563083558782,0.2323885339961128,-0.040079261112812375,0.013096289437679366,0.22861917699372103,-0.4481140319076462,0.11881760403217312,0.22196594326329894,0.15496177994249646,-0.035218375863528585,0.07323739848801498,4.046521566160534,4.056622414494227,0.19064536239434673,0.0,6.536470186963677,-13.528601318210363,4.891548071086406,0.0,0.0,0.0,0.0,0.0,0.00018636799112873103,0.0,0.0,0.0025648706823349025,0.0,0.0,0.0,0.0,0.0,0.0
0.22500000000000012,-0.04946059443207111,0.0152671873806636,0.23333082182652326,-0.480657324826483,0.0911755580995636,0.22728987384674837,-0.040079261112812375,0.013096289437679366,0.22861917699372103,-0.4481140319076462,0.11881760403217312,0.22196594326329894,0.17623237572762382,-0.013731179967268171,0.07779673030029123,3.9431069566888106,4.194445548241607,0.16663403233202836,0.0,6.536470186963677,-13.528601318210363,4.891548071086406,0.0,0.0,0.0,0.0,0.0,0.00019948440488281284,0.0,0.0,0.002682105615234378,0.0,0.0,0.0,0.0,0.0,0.0
0.23000000000000012,-0.05171008427682842,0.015668695719324735,0.23436261851714874,-0.4814931677691059,0.08071169371074921,0.22261886133171155,-0.040079261112812375,0.013096289437679366,0.22861917699372103,-0.4481140319076462,0.11881760403217312,0.22196594326329894,0.19402871790819437,0.005532725565047853,0.08213360413252531,3.7564164559515434,4.22778661368798,0.14272324223437985,0.0,6.536470186963677,-13.528601318210363,4.891548071086406,0.0,0.0,0.0,0.0,0.0,0.00021319314658641846,0.0,0.0,0.0028018001317977937,0.0,0.0,0.0,0.0,0.0,0.0
0.23500000000000013,-0.054282328211289727,0.01606797586358443,0.2355040412358496,-0.4805064641598597,0.06752522790906934,0.21354692836632747,-0.040079261112812375,0.013096289437679366,0.22861917699372103,-0.4481140319076462,0.11881760403217312,0.22196594326329894,0.21346271022579616,0.027585927130811202,0.08739137772208579,3.495899108943386,4.201617920810073,0.11701417094921115,0.0,6.536470186963677,-13.528601318210363,4.891548071086406,0.0,0.0,0.0,0.0,0.0,0.00022750648821411168,0.0,0.0,0.0029239438568115267,0.0,0.0,0.0,0.0,0.0,0.0
0.24000000000000013,-0.05652109616552333,0.01635911420099212,0.23646398492687276,-0.4780956071568661,0.056021869196753955,0.20592981622935233,-0.040079261112812375,0.013096289437679366,0.22861917699372103,-0.4481140319076462,0.11881760403217312,0.22196594326329894,0.22945237527634282,0.04633474445827448,0.09210965379339428,3.2795516012262635,4.13353076739626,0.09139578772244347,0.0,6.536470186963677,-13.528601318210363,4.891548071086406,0.0,0.0,0.0,0.0,0.0,0.0002424366498987202,0.0,0.0,0.003048526428794864,0.0,0.0,0.0,0.0,0.0,0.0
0.24500000000000013,-0.05781352716303936,0.015795660873858017,0.2374743952401282,-0.16222963489618025,-0.1629680845074948,0.18225935051970468,-0.040079261112812375,0.013096289437679366,0.22861917699372103,-0.4481140319076462,0.11881760403217312,0.22196594326329894,0.23526000405956604,0.053699923512864886,0.0952999867040486,0.2795821644778396,0.5498992537226408,0.3134159463966081,0.0,6.536470186963677,-13.528601318210363,4.891548071086406,0.0,0.0,0.0,0.0,0.0,0.0002579958000000004,0.0,0.0,0.003175537500000003,0.0,0.0,0.0,0.0,0.0,0.0
0.2500000000000001,-0.058559614107121204,0.01500577645787856,0.2383025064817678,-0.15827806223492324,-0.17415073461888583,0.17420742713340012,-0.040079261112812375,0.013096289437679366,0.22861917699372103,-0.4481140319076462,0.11881760403217312,0.22196594326329894,0.2362108150339404,0.055523677738192445,0.09719222387811523,0.12103516862303082,0.4283148997955458,0.29443477187356976,0.0,6.536470186963677,-13.528601318210363,4.891548071086406,0.0,0.0,0.0,0.0,0.0,0.0002741960551733021,0.0,0.0,0.003304966736412052,0.0,0.0,0.0,0.0,0.0,0.0
0.2550000000000001,-0.059391382245838384,0.014040630720834647,0.23920497178515282,-0.15411264540127176,-0.18589893502340893,0.16567530395055205,-0.059391382245838384,0.014040630720834647,0.2389139223047146,-0.15411264540127176,-0.18589893502340893,0.16223850013280303,0.23666457655438602,0.05714214652261056,0.0991142495210582,0.03523609920166853,0.3509882264206787,0.2673695394724916,0.0,6.536470186963677,-13.528601318210363,4.891548071086406,0.0,0.0,0.0,0.0,0.0,0.00029104948043823286,0.0,0.0,0.0034368038177490265,0.0,0.0,0.0,0.0,0.0,0.0
0.2600000000000001,-0.06010410206952453,0.013148877017793242,0.2399569763139749,-0.15152464720715905,-0.1951388877366232,0.1580953851459358,-0.059391382245838384,0.014040630720834647,0.2389139223047146,-0.15411264540127176,-0.18589893502340893,0.16223850013280303,0.2369328396024286,0.05847267590242909,0.10064880275161062,0.04403316646504619,0.35927484448573144,0.24197424502950238,0.0,4.833574769765138,-5.582778555169702,14.54861940819025,0.0,0.0,0.0,0.0,0.0,0.0003085680892473225,0.0,0.0,0.0035710384374618557,0.0,0.0,0.0,0.0,0.0,0.0
0.2650000000000001,-0.06090413618554801,0.012079776770259815,0.24077508719020674,-0.14905244747336965,-0.20476997433459757,0.1498125489750919,-0.059391382245838384,0.014040630720834647,0.2389139223047146,-0.15411264540127176,-0.18589893502340893,0.16223850013280303,0.23745545603678236,0.060223666482891736,0.10232492251074024,0.11669243860890549,0.4384625632419637,0.21607220844594854,0.0,4.833574769765138,-5.582778555169702,14.54861940819025,0.0,0.0,0.0,0.0,0.0,0.00032676384355468795,0.0,0.0,0.003707660302734378,0.0,0.0,0.0,0.0,0.0,0.0
0.27000000000000013,-0.061595218425311855,0.011100851855538378,0.24145729849237635,-0.1471505371893776,-0.21336681775749677,0.14355540673528555,-0.059391382245838384,0.014040630720834647,0.2389139223047146,-0.15411264540127176,-0.18589893502340893,0.16223850013280303,0.23836431390151427,0.06225368523881872,0.1038073535406055,0.23089066487802623,0.5498820402540757,0.19694108581387482,0.0,4.833574769765138,-5.582778555169702,14.54861940819025,0.0,0.0,0.0,0.0,0.0,0.00034564865388469736,0.0,0.0,0.0038466591344833412,0.0,0.0,0.0,0.0,0.0,0.0
0.27500000000000013,-0.062377164358554796,0.009935643853918125,0.24220338610064898,-0.14609893278290714,-0.22255418623159748,0.13743182332013879,-0.059391382245838384,0.014040630720834647,0.2389139223047146,-0.15411264540127176,-0.18589893502340893,0.16223850013280303,0.24019415408244688,0.06537951912680469,0.10558161672615757,0.40299919256276356,0.7311382611701197,0.1713543829800264,0.0,4.833574769765138,-5.582778555169702,14.54861940819025,0.0,0.0,0.0,0.0,0.0,0.0003652343794006353,0.0,0.0,0.003988024667358402,0.0,0.0,0.0,0.0,0.0,0.0
0.28000000000000014,-0.06305787651091185,0.008878673235996878,0.24283151648874676,-0.14567521342952938,-0.2293268394390141,0.13236239524429375,-0.059391382245838384,0.014040630720834647,0.2389139223047146,-0.15411264540127176,-0.18589893502340893,0.16223850013280303,0.24266119525728846,0.0689870676363244,0.10723024658977408,0.5870882104479517,0.9130084424956818,0.14854742392750692,0.0,4.833574769765138,-5.582778555169702,14.54861940819025,0.0,0.0,0.0,0.0,0.0,0.00038553282797336636,0.0,0.0,0.00413174664974213,0.0,0.0,0.0,0.0,0.0,0.0
0.28500000000000014,-0.0638349226988482,0.007631885348251322,0.24351562165070995,-0.14514565958809628,-0.23745389241379808,0.12491265979312172,-0.059391382245838384,0.014040630720834647,0.2389139223047146,-0.15411264540127176,-0.18589893502340893,0.16223850013280303,0.24648004377430993,0.07414137899097911,0.10923781933064175,0.7585895438417611,1.0989232891419907,0.11697610558963692,0.0,4.833574769765138,-5.582778555169702,14.54861940819025,0.0,0.0,0.0,0.0,0.0,0.00040655575625000057,0.0,0.0,0.004277814843750004,0.0,0.0,0.0,0.0,0.0,0.0
0.29000000000000015,-0.06451034239645843,0.006508279187937324,0.24407354074274462,-0.14403672808256265,-0.2439666944441077,0.11554513457791224,-0.059391382245838384,0.014040630720834647,0.2389139223047146,-0.15411264540127176,-0.18589893502340893,0.16223850013280303,0.2504819726504128,0.07933951693056762,0.11106288099645491,0.8556515905651144,1.229541012693526,0.09490939282373144,0.0,4.833574769765138,-5.582778555169702,14.54861940819025,0.0,0.0,0.0,0.0,0.0,0.0004283148697225577,0.0,0.0,0.004426219025230412,0.0,0.0,0.0,0.0,0.0,0.0
0.29500000000000015,-0.06526796619112499,0.005180023979579,0.24465168092249734,-0.13999879967742276,-0.2531524280595356,0.10245940599622883,-0.059391382245838384,0.014040630720834647,0.2389139223047146,-0.15411264540127176,-0.18589893502340893,0.16223850013280303,0.25529030945082276,0.08572004721622362,0.11318140117259327,0.8775902568978594,1.2762130833390515,0.07757965790271817,0.0,4.833574769765138,-5.582778555169702,14.54861940819025,0.0,0.0,0.0,0.0,0.0,0.0004508218227966315,0.0,0.0,0.004576948983764653,0.0,0.0,0.0,0.0,0.0,0.0
0.30000000000000016,-0.06591182147236163,0.003975650986407023,0.24509166677478872,-0.13573005773286356,-0.26210899261519693,0.08831074402526339,-0.059391382245838384,0.014040630720834647,0.2389139223047146,-0.15411264540127176,-0.18589893502340893,0.16223850013280303,0.25942781472433707,0.09139196087246863,0.11502725441768523,0.8256280796114162,1.2561867678460203,0.06447540943466545,0.0,4.833574769765138,-5.582778555169702,14.54861940819025,0.0,0.0,0.0,0.0,0.0,0.00047408821886005465,0.0,0.0,0.004729994522666936,0.0,0.0,0.0,0.0,0.0,0.0
0.30500000000000016,-0.0665163174399584,0.002559896793360862,0.24552907158817217,-0.053048834375517245,-0.2636844175706152,0.08460014252650494,-0.0665163174399584,0.002559896793360862,0.2450309459778206,-0.053048834375517245,-0.2636844175706152,0.07971479706752056,0.26366562296378815,0.09633037519527114,0.11707518373692949,0.640088484840465,0.27379157820729233,0.35514325608984854,0.0,4.833574769765138,-5.582778555169702,14.54861940819025,0.0,0.0,0.0,0.0,0.0,0.0004981256103515632,0.0,0.0,0.00488534545898438,0.0,0.0,0.0,0.0,0.0,0.0
0.31000000000000016,-0.06674970004579492,0.0013041340611472454,0.24588661563231665,-0.047641439362542004,-0.2734831907229959,0.07118891468048558,-0.0665163174399584,0.002559896793360862,0.2450309459778206,-0.053048834375517245,-0.2636844175706152,0.07971479706752056,0.2665599923945456,0.09697148072335061,0.11890542880367534,0.5340279181175512,0.20923160267597052,0.3297179832572595,0.0,3.7987536566779014,-1.7963377971053123,16.48987068039179,0.0,0.0,0.0,0.0,0.0,0.000522945498829461,0.0,0.0,0.005042991623497015,0.0,0.0,0.0,0.0,0.0,0.0
0.31500000000000017,-0.06698257743608754,-0.00019274140009929025,0.2462325315970971,-0.040111768200651765,-0.28655663863919123,0.05993317892511727,-0.0665163174399584,0.002559896793360862,0.2450309459778206,-0.053048834375517245,-0.2636844175706152,0.07971479706752056,0.2690762306661996,0.09735794073445946,0.12075835059798587,0.3620866454122594,0.11439888133618308,0.3029668886030649,0.0,3.7987536566779014,-1.7963377971053123,16.48987068039179,0.0,0.0,0.0,0.0,0.0,0.000548559335040284,0.0,0.0,0.005202922860717779,0.0,0.0,0.0,0.0,0.0,0.0
0.3200000000000002,-0.0671496792341556,-0.0015634993221834564,0.2464912108943782,-0.03254156777658394,-0.2994188750587519,0.05254640149369101,-0.0665163174399584,0.002559896793360862,0.2450309459778206,-0.053048834375517245,-0.2636844175706152,0.07971479706752056,0.27045438831814267,0.09727824302548842,0.1221558306131564,0.1845788188844832,0.0206866721207524,0.2820665602620018,0.0,3.7987536566779014,-1.7963377971053123,16.48987068039179,0.0,0.0,0.0,0.0,0.0,0.0005749785189874658,0.0,0.0,0.005365129028892523,0.0,0.0,0.0,0.0,0.0,0.0
0.3250000000000002,-0.0672964759062277,-0.0032091057862293076,0.24675567736192028,-0.02350422626657136,-0.31558632062622416,0.04776974317259445,-0.0665163174399584,0.002559896793360862,0.2450309459778206,-0.053048834375517245,-0.2636844175706152,0.07971479706752056,0.27079462897505074,0.09667536055551644,0.1234633376644089,-0.07081565046760573,-0.08833669975302354,0.25203691234930253,0.0,3.7987536566779014,-1.7963377971053123,16.48987068039179,0.0,0.0,0.0,0.0,0.0,0.000602214400000001,0.0,0.0,0.005529600000000007,0.0,0.0,0.0,0.0,0.0,0.0
0.3300000000000002,-0.06738456837756657,-0.004719504303446323,0.2469704946124519,-0.015335700470429914,-0.3294959751899745,0.044108662211377284,-0.0665163174399584,0.002559896793360862,0.2450309459778206,-0.053048834375517245,-0.2636844175706152,0.07971479706752056,0.26994663772514804,0.09576107218475081,0.12436685295219517,-0.28735436782348667,-0.1688943835018184,0.2286557480862185,0.0,3.7987536566779014,-1.7963377971053123,16.48987068039179,0.0,0.0,0.0,0.0,0.0,0.0006302782768011103,0.0,0.0,0.005696325659751898,0.0,0.0,0.0,0.0,0.0,0.0
0.3350000000000002,-0.06744382695304943,-0.0065243821707137925,0.24719309394414524,-0.00819452492805307,-0.34523972910949785,0.04024335425129776,-0.0665163174399584,0.002559896793360862,0.2450309459778206,-0.053048834375517245,-0.2636844175706152,0.07971479706752056,0.2678907981898869,0.09450188772133314,0.12521566158829084,-0.4814800439095316,-0.17967214098078138,0.20305541125229917,0.0,3.7987536566779014,-1.7963377971053123,16.48987068039179,0.0,0.0,0.0,0.0,0.0,0.0006591813975769053,0.0,0.0,0.005865295907592779,0.0,0.0,0.0,0.0,0.0,0.0
0.3400000000000002,-0.06746703149831224,-0.00816780641727756,0.24737225906679897,-0.0026609167387043435,-0.35718458740229114,0.03727383242547338,-0.0665163174399584,0.002559896793360862,0.2450309459778206,-0.053048834375517245,-0.2636844175706152,0.07971479706752056,0.26544267734065885,0.09358359614587912,0.12588638612608766,-0.5803565355817091,-0.12469396122915846,0.1804521141894745,0.0,3.7987536566779014,-1.7963377971053123,16.48987068039179,0.0,0.0,0.0,0.0,0.0,0.0006889349600450527,0.0,0.0,0.0060365006567001415,0.0,0.0,0.0,0.0,0.0,0.0
0.3450000000000002,-0.06746749511177867,-0.010111177586017456,0.24755444469462998,0.0017553609136138713,-0.3697186526168353,0.03258075845077916,-0.0665163174399584,0.002559896793360862,0.2450309459778206,-0.053048834375517245,-0.2636844175706152,0.07971479706752056,0.2622624575640913,0.09307292844202342,0.12667072028593435,-0.619396692871931,0.011098031258071593,0.15639650479413214,0.0,3.7987536566779014,-1.7963377971053123,16.48987068039179,0.0,0.0,0.0,0.0,0.0,0.0007195501115234386,0.0,0.0,0.006209929833984381,0.0,0.0,0.0,0.0,0.0,0.0
0.3500000000000002,-0.06745082733282402,-0.01186257321814748,0.2476960449114156,0.005210447287749106,-0.3792459331048255,0.02889132076423012,-0.0665163174399584,0.002559896793360862,0.2450309459778206,-0.053048834375517245,-0.2636844175706152,0.07971479706752056,0.259452428381311,0.09332035708563768,0.12742816327688034,-0.6032287449731002,0.1503916341813763,0.13275681690688385,0.0,3.7987536566779014,-1.7963377971053123,16.48987068039179,0.0,0.0,0.0,0.0,0.0,0.0007510379489988339,0.0,0.0,0.006385573380088812,0.0,0.0,0.0,0.0,0.0,0.0
0.3550000000000002,-0.06741186000588338,-0.013915716028209214,0.24783492209852095,0.00896663817616817,-0.3893356699217433,0.02350585598760796,-0.06741186000588338,-0.013915716028209214,0.2470515125793254,0.00896663817616817,-0.3893356699217433,0.016942434738218305,0.2564486479991295,0.09446211439908775,0.12841393082859512,-0.5592452431849504,0.3283997466006697,0.11524797211892442,0.0,3.7987536566779014,-1.7963377971053123,16.48987068039179,0.0,0.0,0.0,0.0,0.0,0.000783409519195558,0.0,0.0,0.0065634212493896555,0.0,0.0,0.0,0.0,0.0,0.0
0.3600000000000002,-0.0673632621212912,-0.01575617424774064,0.24792929090150245,0.011972237662097143,-0.39829331064851337,0.01803216774209245,-0.06741186000588338,-0.013915716028209214,0.2470515125793254,0.00896663817616817,-0.3893356699217433,0.016942434738218305,0.25399356996876715,0.09615850241654812,0.1293640953536202,-0.5502940535390036,0.44787924134030993,0.0969049208936862,0.0,3.855249863617122,1.735219760879874,23.6765590685606,0.0,0.0,0.0,0.0,0.0,0.0008166758186441435,0.0,0.0,0.0067434634099960405,0.0,0.0,0.0,0.0,0.0,0.0
0.3650000000000002,-0.0672839135686041,-0.01790954437864812,0.24800209394146033,0.0172413080111321,-0.4083474753299087,0.010655867281452706,-0.06741186000588338,-0.013915716028209214,0.2470515125793254,0.00896663817616817,-0.3893356699217433,0.016942434738218305,0.2509679150656754,0.09846364134158483,0.13043550960388645,-0.6325382352605747,0.47967523638141796,0.0771003847070533,0.0,3.855249863617122,1.735219760879874,23.6765590685606,0.0,0.0,0.0,0.0,0.0,0.0008508477937500014,0.0,0.0,0.006925689843750009,0.0,0.0,0.0,0.0,0.0,0.0
0.3700000000000002,-0.06718854949433072,-0.019841414456842194,0.2480321798025149,0.022893214317297426,-0.41810235097603016,0.00384263732660855,-0.06741186000588338,-0.013915716028209214,0.2470515125793254,0.00896663817616817,-0.3893356699217433,0.016942434738218305,0.24772902005364106,0.10048134988200891,0.13128266709717418,-0.7780182206629602,0.4438087441529816,0.06101294551025157,0.0,3.855249863617122,1.735219760879874,23.6765590685606,0.0,0.0,0.0,0.0,0.0,0.0008859363408620849,0.0,0.0,0.007110090546226509,0.0,0.0,0.0,0.0,0.0,0.0
0.3750000000000002,-0.06704721757401144,-0.02210475177986689,0.24803090365672462,0.030057188381458728,-0.42930254863598194,-0.002715086787131498,-0.06741186000588338,-0.013915716028209214,0.2470515125793254,0.00896663817616817,-0.3893356699217433,0.016942434738218305,0.24312440687388273,0.10250628680798426,0.13206352403897068,-0.9684111197174425,0.3590896708549398,0.042110440226808016,0.0,3.855249863617122,1.735219760879874,23.6765590685606,0.0,0.0,0.0,0.0,0.0,0.0009219523063415542,0.0,0.0,0.007296655526733406,0.0,0.0,0.0,0.0,0.0,0.0
0.3800000000000002,-0.06688824377816381,-0.024133221228475873,0.24799868041670853,0.03724419472091514,-0.4388085149984549,-0.009283328342557944,-0.06741186000588338,-0.013915716028209214,0.2470515125793254,0.00896663817616817,-0.3893356699217433,0.016942434738218305,0.23816902010804536,0.10374619275680397,0.13252942334005594,-1.1451557687466456,0.22716281466010177,0.02673336729202939,0.0,3.855249863617122,1.735219760879874,23.6765590685606,0.0,0.0,0.0,0.0,0.0,0.0009589064866304415,0.0,0.0,0.007485374808311471,0.0,0.0,0.0,0.0,0.0,0.0
0.38500000000000023,-0.06666726305057558,-0.026506498863570552,0.24792248671984932,0.04467262476517041,-0.4496428331201057,-0.017566421166680172,-0.06741186000588338,-0.013915716028209214,0.2470515125793254,0.00896663817616817,-0.3893356699217433,0.016942434738218305,0.2314410333430407,0.10456129454888698,0.13282454886712272,-1.3486417404593465,0.10083389552887395,0.007380322478224125,0.0,3.855249863617122,1.735219760879874,23.6765590685606,0.0,0.0,0.0,0.0,0.0,0.0009968096283203142,0.0,0.0,0.007676238427734384,0.0,0.0,0.0,0.0,0.0,0.0
0.39000000000000024,-0.06644278168491252,-0.028623251216130362,0.24781538622600513,0.05061241563525255,-0.45656646863131634,-0.026445875293192877,-0.06741186000588338,-0.013915716028209214,0.2470515125793254,0.00896663817616817,-0.3893356699217433,0.016942434738218305,0.22488814637352617,0.10477480636221487,0.1328608391374067,-1.446520721657525,0.013088761588834655,-0.010673153929464425,0.0,3.855249863617122,1.735219760879874,23.6765590685606,0.0,0.0,0.0,0.0,0.0,0.0010356724282209414,0.0,0.0,0.007869236435508738,0.0,0.0,0.0,0.0,0.0,0.0
0.39500000000000024,-0.06615449039854322,-0.031078643446904735,0.2476301578309265,0.05662831978001917,-0.46298450395492524,-0.04045265803324487,-0.06741186000588338,-0.013915716028209214,0.2470515125793254,0.00896663817616817,-0.3893356699217433,0.016942434738218305,0.2170284380344407,0.10466577934875022,0.13270363784704883,-1.4758832728047688,-0.040436157030215115,-0.03333601466093,0.0,3.855249863617122,1.735219760879874,23.6765590685606,0.0,0.0,0.0,0.0,0.0,0.001075505533428957,0.0,0.0,0.008064358895874032,0.0,0.0,0.0,0.0,0.0,0.0
0.40000000000000024,-0.06588031752923605,-0.03325044371043664,0.24739767576513938,0.06035216049851765,-0.46721486833160375,-0.05568182426234476,-0.06741186000588338,-0.013915716028209214,0.2470515125793254,0.00896663817616817,-0.3893356699217433,0.016942434738218305,0.21021467626618134,0.10457376767169009,0.13246521717122264,-1.4284458504208901,-0.015850067134641932,-0.054936589242870745,0.0,3.855249863617122,1.735219760879874,23.6765590685606,0.0,0.0,0.0,0.0,0.0,0.0011163195413965243,0.0,0.0,0.008261595886802683,0.0,0.0,0.0,0.0,0.0,0.0
0.40500000000000025,-0.06554876238606486,-0.03575228832993621,0.24704392388171525,0.06364676556067506,-0.4706194324988488,-0.07393046528521154,-0.06554876238606486,-0.03575228832993621,0.24588579888171525,0.06364676556067506,-0.4706194324988488,-0.08239140278521155,0.20285248327942215,0.1047829875903263,0.13213573782550123,-1.331656200200669,0.062169627164186086,-0.0784838589357687,0.0,3.855249863617122,1.735219760879874,23.6765590685606,0.0,0.0,0.0,0.0,0.0,0.0011581250000000018,0.0,0.0,0.008460937500000012,0.0,0.0,0.0,0.0,0.0,0.0
0.41000000000000025,-0.06524228905662673,-0.037956339378677435,0.24665546789691034,0.06724376339339441,-0.47374559674994265,-0.08932650701740649,-0.06554876238606486,-0.03575228832993621,0.24588579888171525,0.06364676556067506,-0.4706194324988488,-0.08239140278521155,0.1968079489405302,0.10526764967042726,0.13180044316854317,-1.2593465434189297,0.11040209027405203,-0.09963057951522576,0.0,3.4325543663576243,6.147549113631248,30.20144356781244,0.0,0.0,0.0,0.0,0.0,0.0012009324076086064,0.0,0.0,0.008662373840904247,0.0,0.0,0.0,0.0,0.0,0.0
0.41500000000000026,-0.06486873357488529,-0.04049674126252803,0.2461211013440805,0.07248475371961736,-0.4787925324312043,-0.10745654580547559,-0.06554876238606486,-0.03575228832993621,0.24588579888171525,0.06364676556067506,-0.4706194324988488,-0.08239140278521155,0.19000956898498864,0.10602932085771641,0.13135305681615653,-1.2834074403826998,0.11531747354468638,-0.1162536993404496,0.0,3.4325543663576243,6.147549113631248,30.20144356781244,0.0,0.0,0.0,0.0,0.0,0.0012447522131530783,0.0,0.0,0.008865895028686533,0.0,0.0,0.0,0.0,0.0,0.0
0.42000000000000026,-0.06451885830259546,-0.042744183287359794,0.24557954639117474,0.07678212418860651,-0.48397653188757017,-0.12180826240255714,-0.06554876238606486,-0.03575228832993621,0.24588579888171525,0.06364676556067506,-0.4706194324988488,-0.08239140278521155,0.18385511996271975,0.10669105449545872,0.13088621212603735,-1.3387812002096247,0.1257857073718405,-0.12939680751991764,0.0,3.4325543663576243,6.147549113631248,30.20144356781244,0.0,0.0,0.0,0.0,0.0,0.0012895948161943459,0.0,0.0,0.009071491196250926,0.0,0.0,0.0,0.0,0.0,0.0
0.42500000000000027,-0.06409382389694993,-0.04534078355425533,0.24488082733341665,0.08193976425135709,-0.4891749252097228,-0.13686269747657367,-0.06554876238606486,-0.03575228832993621,0.24588579888171525,0.06364676556067506,-0.4706194324988488,-0.08239140278521155,0.17643671331105007,0.10738029151629636,0.13024646714163945,-1.406932146289693,0.09564853470641234,-0.14935494129354535,0.0,3.4325543663576243,6.147549113631248,30.20144356781244,0.0,0.0,0.0,0.0,0.0,0.00133547056699219,0.0,0.0,0.009279152490234387,0.0,0.0,0.0,0.0,0.0,0.0
0.43000000000000027,-0.06369969546217405,-0.04763417257351881,0.24420134801052862,0.08651269862526734,-0.4934137380723649,-0.1508216552726645,-0.06554876238606486,-0.03575228832993621,0.24588579888171525,0.06364676556067506,-0.4706194324988488,-0.08239140278521155,0.16957248637918307,0.10791970913306256,0.12959675648211263,-1.4898214330830652,0.07604025601451644,-0.16123800420345222,0.0,3.4325543663576243,6.147549113631248,30.20144356781244,0.0,0.0,0.0,0.0,0.0,0.0013823897665739087,0.0,0.0,0.009488869071006786,0.0,0.0,0.0,0.0,0.0,0.0
0.4350000000000003,-0.06322500296582419,-0.0502786912431242,0.2433491207644847,0.09074239343139437,-0.49800782947395283,-0.16567200043411145,-0.06554876238606486,-0.03575228832993621,0.24588579888171525,0.06364676556067506,-0.4706194324988488,-0.08239140278521155,0.16133256994288073,0.10845802699874697,0.12877872752327046,-1.5556298439117173,0.08134396316571099,-0.17057201807364936,0.0,3.4325543663576243,6.147549113631248,30.20144356781244,0.0,0.0,0.0,0.0,0.0,0.001430362666802981,0.0,0.0,0.00970063111267091,0.0,0.0,0.0,0.0,0.0,0.0
0.4400000000000003,-0.06279196887983249,-0.0526107124185508,0.24253953573482917,0.09425490410895415,-0.5011565422768384,-0.17806518768234827,-0.06554876238606486,-0.03575228832993621,0.24588579888171525,0.06364676556067506,-0.4706194324988488,-0.08239140278521155,0.15390526994485498,0.10894108122541338,0.12801940608098397,-1.584991143640934,0.07759651730693001,-0.17989858363190983,0.0,3.4325543663576243,6.147549113631248,30.20144356781244,0.0,0.0,0.0,0.0,0.0,0.0014793994704477339,0.0,0.0,0.00991442880306245,0.0,0.0,0.0,0.0,0.0,0.0
0.4450000000000003,-0.06227743789188897,-0.05529011794735193,0.2415399437404254,0.09839619694310635,-0.5038121297633631,-0.1936524194278827,-0.06554876238606486,-0.03575228832993621,0.24588579888171525,0.06364676556067506,-0.4706194324988488,-0.08239140278521155,0.14526581449474218,0.1094910144547215,0.1271174389722289,-1.6097425058967303,0.07334397726406384,-0.1818594868018144,0.0,3.4325543663576243,6.147549113631248,30.20144356781244,0.0,0.0,0.0,0.0,0.0,0.0015295103312500029,0.0,0.0,0.01013025234375001,0.0,0.0,0.0,0.0,0.0,0.0
0.4500000000000003,-0.06180836728421331,-0.05764654782548398,0.24059784967792297,0.10203148330033701,-0.50616759430544,-0.20674268148086572,-0.06554876238606486,-0.03575228832993621,0.24588579888171525,0.06364676556067506,-0.4706194324988488,-0.08239140278521155,0.1376376714049982,0.10996001156067056,0.12631441154083084,-1.6162262566247798,0.08067606804540099,-0.1848649798938544,0.0,3.4325543663576243,6.147549113631248,30.20144356781244,0.0,0.0,0.0,0.0,0.0,0.0015807053539938004,0.0,0.0,0.010348091950035106,0.0,0.0,0.0,0.0,0.0,0.0
0.4550000000000003,-0.061252610011798485,-0.060351688997393,0.2394462133767144,0.10590925112302821,-0.5082324067344907,-0.22119617016964943,-0.061252610011798485,-0.060351688997393,0.23781321878214043,0.10590925112302821,-0.5082324067344907,-0.2317641080206016,0.12897685294844624,0.1105881544426902,0.12537832168758348,-1.5884411618642802,0.10753416895592491,-0.19342334392081456,0.0,3.4325543663576243,6.147549113631248,30.20144356781244,0.0,0.0,0.0,0.0,0.0,0.0016329945945739778,0.0,0.0,0.010567937850952162,0.0,0.0,0.0,0.0,0.0,0.0
0.4600000000000003,-0.060748552086788365,-0.06272346054889244,0.23838091181522092,0.10983657095486553,-0.5084942678296213,-0.23236512029208162,-0.061252610011798485,-0.060351688997393,0.23781321878214043,0.10590925112302821,-0.5082324067344907,-0.2317641080206016,0.12161216486937738,0.11116691710376116,0.12452018024794442,-1.5366224323995723,0.07669956637778415,-0.1953975222241635,0.0,0.7083061920069158,9.028419582188128,38.31883069860935,0.0,0.0,0.0,0.0,0.0,0.001686388060064891,0.0,0.0,0.010789780289268507,0.0,0.0,0.0,0.0,0.0,0.0
0.4650000000000003,-0.06014258507230036,-0.06543513935930216,0.2371032714868617,0.1167537281703574,-0.5091900312808092,-0.24386027714331443,-0.061252610011798485,-0.060351688997393,0.23781321878214043,0.10590925112302821,-0.5082324067344907,-0.2317641080206016,0.11343008088873105,0.11137448076785725,0.12348716361026942,-1.5019450064726196,-0.035103939833267414,-0.1989874747595387,0.0,0.7083061920069158,9.028419582188128,38.31883069860935,0.0,0.0,0.0,0.0,0.0,0.0017408957087890658,0.0,0.0,0.011013609521484388,0.0,0.0,0.0,0.0,0.0,0.0
0.4700000000000003,-0.05958003204414254,-0.0678132565158829,0.23593973822291966,0.12330518802402113,-0.5101506491666319,-0.25149616608853653,-0.061252610011798485,-0.060351688997393,0.23781321878214043,0.10590925112302821,-0.5082324067344907,-0.2317641080206016,0.10643962644489748,0.1110053774391567,0.12249669190105772,-1.4400178525111207,-0.15620692149430634,-0.19973666536344503,0.0,0.7083061920069158,9.028419582188128,38.31883069860935,0.0,0.0,0.0,0.0,0.0,0.00179652745038586,0.0,0.0,0.01123941581783296,0.0,0.0,0.0,0.0,0.0,0.0
0.4750000000000003,-0.05890205019184778,-0.07052929920483242,0.2345774323742071,0.1306435800857048,-0.5092905419526433,-0.25716919495234264,-0.061252610011798485,-0.060351688997393,0.23781321878214043,0.10590925112302821,-0.5082324067344907,-0.2317641080206016,0.098844811013173,0.10980516063389652,0.12132463443099745,-1.3782036880136748,-0.31631660676677237,-0.19442836283862894,0.0,0.7083061920069158,9.028419582188128,38.31883069860935,0.0,0.0,0.0,0.0,0.0,0.0018532931458801305,0.0,0.0,0.011467189462280288,0.0,0.0,0.0,0.0,0.0,0.0
0.4800000000000003,-0.05827480193260966,-0.07290452180439536,0.2333639086676562,0.13710662601881524,-0.5089470029255341,-0.2603964346083071,-0.061252610011798485,-0.060351688997393,0.23781321878214043,0.10590925112302821,-0.5082324067344907,-0.2317641080206016,0.0924785419048312,0.10813436982884382,0.12022848325738184,-1.3017438663600094,-0.4253284874334458,-0.2003059124745407,0.0,0.7083061920069158,9.028419582188128,38.31883069860935,0.0,0.0,0.0,0.0,0.0,0.0019112026077508961,0.0,0.0,0.011696920752525344,0.0,0.0,0.0,0.0,0.0,0.0
0.4850000000000003,-0.05752212073697725,-0.07561162155746506,0.23196372363416806,0.1445291380688037,-0.5073959791131586,-0.26376604976804263,-0.061252610011798485,-0.060351688997393,0.23781321878214043,0.10590925112302821,-0.5082324067344907,-0.2317641080206016,0.08563879090072533,0.1055472940027216,0.11893529114770579,-1.2285728964491156,-0.5483573620419859,-0.19578891017597735,0.0,0.7083061920069158,9.028419582188128,38.31883069860935,0.0,0.0,0.0,0.0,0.0,0.001970265600000004,0.0,0.0,0.011928600000000013,0.0,0.0,0.0,0.0,0.0,0.0
0.4900000000000003,-0.05683347822179847,-0.07797964210408849,0.23072610055356244,0.14976560144445272,-0.5078651042835017,-0.2648329390243722,-0.061252610011798485,-0.060351688997393,0.23781321878214043,0.10590925112302821,-0.5082324067344907,-0.2317641080206016,0.07994923762463692,0.10296897904543968,0.11778390959506102,-1.1602352427736964,-0.5889852921945365,-0.20124886338510117,0.0,0.7083061920069158,9.028419582188128,38.31883069860935,0.0,0.0,0.0,0.0,0.0,0.002030491838220791,0.0,0.0,0.012162217529869096,0.0,0.0,0.0,0.0,0.0,0.0
0.49500000000000033,-0.0560223949703782,-0.0806836216262099,0.22931017501817,0.1540091707088947,-0.5067062232046056,-0.2652208093090274,-0.061252610011798485,-0.060351688997393,0.23781321878214043,0.10590925112302821,-0.5082324067344907,-0.2317641080206016,0.07384678674652899,0.09985571900461317,0.11647269975727663,-1.103888724640617,-0.5973596910771621,-0.20168647818708937,0.0,0.7083061920069158,9.028419582188128,38.31883069860935,0.0,0.0,0.0,0.0,0.0,0.0020918909896667525,0.0,0.0,0.012397763681030289,0.0,0.0,0.0,0.0,0.0,0.0
0.5000000000000003,-0.05529241416676302,-0.08304627918414266,0.2280693192351172,0.158191818888228,-0.5067736827812619,-0.2652866716952931,-0.061252610011798485,-0.060351688997393,0.23781321878214043,0.10590925112302821,-0.5082324067344907,-0.2317641080206016,0.06864320440213252,0.09724815584290196,0.11530106694335594,-1.076748045926419,-0.5501901366713668,-0.21196822275016985,0.0,0.7083061920069158,9.028419582188128,38.31883069860935,0.0,0.0,0.0,0.0,0.0,0.0021544726733202023,0.0,0.0,0.012635228806114212,0.0,0.0,0.0,0.0,0.0,0.0
0.5050000000000003,-0.05443965860705059,-0.08574803239156617,0.226657418177313,0.1611784721715632,-0.506761104724467,-0.2631985185113346,-0.05443965860705059,-0.08574803239156617,0.22443917171735206,0.1611784721715632,-0.506761104724467,-0.27607312178281895,0.06284153579791033,0.09461012435876849,0.11399113650037869,-1.0629906296746618,-0.47119503260734397,-0.21521384306719674,0.0,0.7083061920069158,9.028419582188128,38.31883069860935,0.0,0.0,0.0,0.0,0.0,0.002218246459960942,0.0,0.0,0.01287460327148439,0.0,0.0,0.0,0.0,0.0,0.0
0.5100000000000003,-0.05367773702453305,-0.08811411964104246,0.2254297509934904,0.1652149328800936,-0.5076217528049093,-0.26171915345409985,-0.05443965860705059,-0.08574803239156617,0.22443917171735206,0.1611784721715632,-0.506761104724467,-0.27607312178281895,0.0576852173937852,0.09262666764217374,0.11283003769672725,-1.100621730269184,-0.42424921856410636,-0.22378900514451391,0.0,-5.039181290835142,10.264483227342366,41.74579772150516,0.0,0.0,0.0,0.0,0.0,0.0022832218722349217,0.0,0.0,0.01311587745723726,0.0,0.0,0.0,0.0,0.0,0.0
0.5150000000000003,-0.05278500790330455,-0.09082444366099995,0.2240452467931613,0.16927034190283818,-0.5089256283594695,-0.25693914692530767,-0.05443965860705059,-0.08574803239156617,0.22443917171735206,0.1611784721715632,-0.506761104724467,-0.27607312178281895,0.051574008339119896,0.09040878175040422,0.1115058533513971,-1.1454731024785816,-0.4522463279900055,-0.22471585892042434,0.0,-5.039181290835142,10.264483227342366,41.74579772150516,0.0,0.0,0.0,0.0,0.0,0.0023494083847229053,0.0,0.0,0.013359041757202164,0.0,0.0,0.0,0.0,0.0,0.0
0.5200000000000004,-0.05198289234619474,-0.09319838472362835,0.22285416544536527,0.17388583955463016,-0.5090213054779571,-0.2529639842417344,-0.05443965860705059,-0.08574803239156617,0.22443917171735206,0.1611784721715632,-0.506761104724467,-0.27607312178281895,0.04595691693695911,0.08816587416414969,0.11031723181960072,-1.213719846045327,-0.5165240323818255,-0.23348167042170703,0.0,-5.039181290835142,10.264483227342366,41.74579772150516,0.0,0.0,0.0,0.0,0.0,0.002416815424009137,0.0,0.0,0.013604086578941363,0.0,0.0,0.0,0.0,0.0,0.0
0.5250000000000004,-0.051039153387809344,-0.09591456053917632,0.22152121939433989,0.17949179205140509,-0.5095536653744899,-0.24558227562884477,-0.05443965860705059,-0.08574803239156617,0.22443917171735206,0.1611784721715632,-0.506761104724467,-0.27607312178281895,0.03930125028572745,0.08514524948689382,0.10893166824523602,-1.2326486800677898,-0.6275873995570526,-0.23360123735519572,0.0,-5.039181290835142,10.264483227342366,41.74579772150516,0.0,0.0,0.0,0.0,0.0,0.002485452368750005,0.0,0.0,0.013851002343750017,0.0,0.0,0.0,0.0,0.0,0.0
0.5300000000000004,-0.0501900763998276,-0.0982924808716754,0.22039108131562085,0.18406766950579412,-0.5098007668656316,-0.2390880944699653,-0.05443965860705059,-0.08574803239156617,0.22443917171735206,0.1611784721715632,-0.506761104724467,-0.27607312178281895,0.0333731126850696,0.08199863444582957,0.10769198417341788,-1.2503579205689708,-0.7268421436432205,-0.24500329031991064,0.0,-5.039181290835142,10.264483227342366,41.74579772150516,0.0,0.0,0.0,0.0,0.0,0.002555328549742704,0.0,0.0,0.014099779486656206,0.0,0.0,0.0,0.0,0.0,0.0
0.5350000000000004,-0.049193752158026696,-0.10100831053794393,0.21913997084049452,0.1886907104758903,-0.5093221797492034,-0.22964311563284937,-0.05443965860705059,-0.08574803239156617,0.22443917171735206,0.1611784721715632,-0.506761104724467,-0.27607312178281895,0.026716614936436782,0.0778700540293873,0.10627272572357807,-1.2142227642056969,-0.8226715907680474,-0.24242458616137066,0.0,-5.039181290835142,10.264483227342366,41.74579772150516,0.0,0.0,0.0,0.0,0.0,0.0026264532499939023,0.0,0.0,0.014350408456420913,0.0,0.0,0.0,0.0,0.0,0.0
0.5400000000000004,-0.04830478885151539,-0.10338258037773548,0.2180858873180638,0.19190867752476667,-0.5081925598123569,-0.2216168905990198,-0.05443965860705059,-0.08574803239156617,0.22443917171735206,0.1611784721715632,-0.506761104724467,-0.27607312178281895,0.02114568121126189,0.07393329690183947,0.1050284152047039,-1.136839936219337,-0.8620216243124108,-0.24719999809609455,0.0,-5.039181290835142,10.264483227342366,41.74579772150516,0.0,0.0,0.0,0.0,0.0,0.0026988357047884044,0.0,0.0,0.014602879715538046,0.0,0.0,0.0,0.0,0.0,0.0
0.5450000000000004,-0.04727136912405436,-0.10608597776880445,0.21693136311267172,0.19503100070311527,-0.5067984965986804,-0.2120173745259956,-0.05443965860705059,-0.08574803239156617,0.22443917171735206,0.1611784721715632,-0.506761104724467,-0.27607312178281895,0.015206830306441406,0.06921603957737502,0.10361396541924205,-1.0547397504505462,-0.892647564058563,-0.2511993094123504,0.0,-5.039181290835142,10.264483227342366,41.74579772150516,0.0,0.0,0.0,0.0,0.0,0.0027724851017578178,0.0,0.0,0.014857183740234392,0.0,0.0,0.0,0.0,0.0,0.0
0.5500000000000004,-0.04635644812420398,-0.10844652788133648,0.21596376702929787,0.19703242664509843,-0.5050861834708574,-0.20203120546645634,-0.05443965860705059,-0.08574803239156617,0.22443917171735206,0.1611784721715632,-0.506761104724467,-0.27607312178281895,0.010445765667385719,0.06513905557758436,0.10238893325935393,-0.9667927959556296,-0.8779636730051361,-0.24985742223167748,0.0,-5.039181290835142,10.264483227342366,41.74579772150516,0.0,0.0,0.0,0.0,0.0,0.002847410580949217,0.0,0.0,0.015113311020469686,0.0,0.0,0.0,0.0,0.0,0.0
