time,pos_x,pos_y,pos_z,vel_x,vel_y,vel_z,pos_xo,pos_yo,pos_zo,vel_xo,vel_yo,vel_zo,roll,pitch,yaw,roll_vel,pitch_vel,yaw_vel,thrust_z,force_x,force_y,force_z,torque_x,torque_y,torque_z,pos_xd,pos_yd,pos_zd,vel_xd,vel_yd,vel_zd,roll_d,pitch_d,yaw_d,roll_vel_d,pitch_vel_d,yaw_vel_d,pos_xr,pos_yr,pos_zr,vel_xr,vel_yr,vel_zr
0.005,-7.608559281402189e-10,7.700932563907729e-11,0.20500533864569026,-1.1321745954480168e-07,1.9353898504525363e-09,0.0009998982603743314,-7.608559281402189e-10,7.700932563907729e-11,0.20500533864569026,-1.1321745954480168e-07,1.9353898504525363e-09,0.0009998982603743314,-6.296711804681009e-10,-5.964287257698821e-09,-1.537111584182156e-10,1.1422881017069028e-07,1.1108437781143113e-07,1.1537230544101219e-10,0.0,0.0,0.0,0.0,0.0,0.0,0.0,0.0,0.0,0.0,0.0,0.0,0.0,0.0,0.0,0.0,0.0,0.0,0.0,0.0,0.0,0.0,0.0,0.0,0.0
0.01,-3.0590568404061854e-09,-1.7184044954428168e-10,0.20501000484559717,1.9311778328393363e-08,-2.4660647580027577e-08,0.0009999026808773207,-7.608559281402189e-10,7.700932563907729e-11,0.20500533864569026,-1.1321745954480168e-07,1.9353898504525363e-09,0.0009998982603743314,5.725320753435253e-10,-5.51457951152235e-09,-1.1640293493504894e-10,1.1772616305091334e-07,9.536872399402378e-08,-2.0029173831871553e-10,0.0,-2.974974837607124,-1.1582382552212283,47.460883496137896,0.0,0.0,0.0,0.0,0.0,3.658677005767823e-09,0.0,0.0,2.1945199012756347e-06,0.0,0.0,0.0,0.0,0.0,0.0,0.0,0.0,3.658677005767823e-09,0.0,0.0,2.1945199012756347e-06
0.015,-2.9851533688654983e-09,-2.9754805849764145e-10,0.2050153376983163,9.336589876976415e-09,-2.2452601197960902e-08,0.0009999162067097509,-7.608559281402189e-10,7.700932563907729e-11,0.20500533864569026,-1.1321745954480168e-07,1.9353898504525363e-09,0.0009998982603743314,1.1739970579645308e-09,-5.143248247345887e-09,-1.1659258412779633e-10,1.0783331797761461e-07,4.8092600130143076e-08,2.0575720044191696e-10,0.0,-2.974974837607124,-1.1582382552212283,47.460883496137896,0.0,0.0,0.0,0.0,0.0,2.9241970825195318e-08,0.0,0.0,8.767103576660157e-06,0.0,0.0,0.0,0.0,0.0,0.0,0.0,0.0,2.924197082519532e-08,0.0,0.0,8.767103576660157e-06
0.02,-2.9611811802004294e-09,1.830642993233675e-09,0.20502000400442455,1.7074032881915837e-09,-1.9873392906290014e-08,0.00099992723145407,-7.608559281402189e-10,7.700932563907729e-11,0.20500533864569026,-1.1321745954480168e-07,1.9353898504525363e-09,0.0009998982603743314,1.6461529875384067e-09,-5.013757781442601e-09,-1.1560095263698633e-10,9.747226179185678e-08,1.103371753685689e-08,-1.3006794917931722e-10,0.0,-2.974974837607124,-1.1582382552212283,47.460883496137896,0.0,0.0,0.0,0.0,0.0,9.859907026290893e-08,0.0,0.0,1.9701302433013915e-05,0.0,0.0,0.0,0.0,0.0,0.0,0.0,0.0,9.859907026290893e-08,0.0,0.0,1.9701302433013915e-05
0.025,-3.0080069320811467e-09,1.7301741438488433e-09,0.20502533700353465,-1.7397082452621945e-08,-1.8275990196422554e-08,0.0009999469406540935,-7.608559281402189e-10,7.700932563907729e-11,0.20500533864569026,-1.1321745954480168e-07,1.9353898504525363e-09,0.0009998982603743314,2.1431876629967743e-09,-5.227497325885678e-09,-1.650168643075719e-10,9.095182863100293e-08,-8.216294640657484e-08,-6.091792013456507e-10,0.0,-2.974974837607124,-1.1582382552212283,47.460883496137896,0.0,0.0,0.0,0.0,0.0,2.3349697265625005e-07,0.0,0.0,3.4980688476562504e-05,0.0,0.0,0.0,0.0,0.0,0.0,0.0,0.0,2.3349697265625007e-07,0.0,0.0,3.4980688476562504e-05
0.030000000000000002,-3.1310436932420195e-09,1.6539341403112465e-09,0.20503000348431144,-2.7815987340388175e-08,-1.5208678134470733e-08,0.000999968271353002,-7.608559281402189e-10,7.700932563907729e-11,0.20500533864569026,-1.1321745954480168e-07,1.9353898504525363e-09,0.0009998982603743314,2.521485326389056e-09,-5.820818838697902e-09,-1.7457465347210027e-10,7.39032917944013e-08,-1.36067581396615e-07,-3.841709255618733e-09,0.0,-2.974974837607124,-1.1582382552212283,47.460883496137896,0.0,0.0,0.0,0.0,0.0,4.556205868721009e-07,0.0,0.0,5.458885431289673e-05,0.0,0.0,0.0,0.0,0.0,0.0,0.0,0.0,4.556205868721009e-07,0.0,0.0,5.458885431289673e-05
0.035,-9.180225870245601e-07,-2.09851642531265e-09,0.20503600931699856,-0.0007564562978524455,-2.1876909550983423e-08,0.0015533666598914557,-7.608559281402189e-10,7.700932563907729e-11,0.20500533864569026,-1.1321745954480168e-07,1.9353898504525363e-09,0.0009998982603743314,2.9853311061564352e-09,-4.489557367802344e-06,-1.2627619468790526e-10,8.923658833918935e-08,-0.0036894543424994403,-2.1448037833320327e-08,0.0,-2.974974837607124,-1.1582382552212283,47.460883496137896,0.0,0.0,0.0,0.0,0.0,7.865728363037112e-07,0.0,0.0,7.850941314697268e-05,0.0,0.0,0.0,0.0,0.0,0.0,0.0,0.0,7.865728363037112e-07,0.0,0.0,7.850941314697268e-05
0.04,-1.6814013784577557e-05,-5.0011504567970695e-08,0.20505237676537583,-0.005872050110750059,-4.124044879942334e-05,0.0053686837776728835,-7.608559281402189e-10,7.700932563907729e-11,0.20500533864569026,-1.1321745954480168e-07,1.9353898504525363e-09,0.0009998982603743314,3.705931396184449e-09,-8.2500476437235e-05,-6.643065277648489e-07,1.0962376756698533e-07,-0.029127999914586807,-0.000671541632950179,0.0,-2.974974837607124,-1.1582382552212283,47.460883496137896,0.0,0.0,0.0,0.0,0.0,1.2478747618675235e-06,0.0,0.0,0.00010672599878311159,0.0,0.0,0.0,0.0,0.0,0.0,0.0,0.0,1.2478747618675235e-06,0.0,0.0,0.0001067259987831
0.045,-6.738042304415415e-05,-5.203725385651791e-06,0.20510388972869487,-0.012733760936743561,-0.0019058941822316317,0.01380958474256019,-7.608559281402189e-10,7.700932563907729e-11,0.20500533864569026,-1.1321745954480168e-07,1.9353898504525363e-09,0.0009998982603743314,2.148722308131967e-05,-0.0003689709102196109,-5.5212868598180726e-05,0.008638090009141725,-0.07679130160699238,-0.02011171875956313,0.0,-2.974974837607124,-1.1582382552212283,47.460883496137896,0.0,0.0,0.0,0.0,0.0,1.8609656250000006e-06,0.0,0.0,0.000139222265625,0.0,0.0,0.0,0.0,0.0,0.0,0.0,0.0,1.8609656250000008e-06,0.0,0.0,0.000139222265625
0.049999999999999996,-0.0001467870025665646,-2.3222575760424454e-05,0.20519574585568437,-0.020255556428512872,-0.005500952141356206,0.02465205601293742,-7.608559281402189e-10,7.700932563907729e-11,0.20500533864569026,-1.1321745954480168e-07,1.9353898504525363e-09,0.0009998982603743314,6.600262851446227e-05,-0.0009062259179956066,-0.00021330941561062682,0.012780022887377656,-0.14504241612621097,-0.04394079994034026,0.0,-2.974974837607124,-1.1582382552212283,47.460883496137896,0.0,0.0,0.0,0.0,0.0,2.6472030106544494e-06,0.0,0.0,0.0001759818886756897,0.0,0.0,0.0,0.0,0.0,0.0,0.0,0.0,2.6472030106544494e-06,0.0,0.0,0.0001759818886756
0.05499999999999999,-0.00025743864587553586,-5.887195092004957e-05,0.2053488789411169,-0.02576139260525956,-0.009341926991581661,0.03941763708974045,-0.00025743864587553586,-5.887195092004957e-05,0.2053452510781866,-0.02576139260525956,-0.009341926991581661,0.03920064852620285,0.0001671884198906873,-0.0017968912363471715,-0.00044915610815716517,0.027866928116278458,-0.2287192618230451,-0.052744078873342655,0.0,-2.974974837607124,-1.1582382552212283,47.460883496137896,0.0,0.0,0.0,0.0,0.0,3.627862930297851e-06,0.0,0.0,0.00021698856353759763,0.0,0.0,0.0,0.0,0.0,0.0,0.0,0.0,3.627862930297851e-06,0.0,0.0,0.0002169885635375
0.05999999999999999,-0.0004041312090703518,-0.00012197970037910887,0.20561833179663183,-0.028591561709691415,-0.013247781874810257,0.059289492129632713,-0.00025743864587553586,-5.887195092004957e-05,0.2053452510781866,-0.02576139260525956,-0.009341926991581661,0.03920064852620285,0.00039447602197046017,-0.0033338645035907903,-0.0007203511684493564,0.058055848009767104,-0.3317086335199839,-0.0504789581192417,0.0,-2.2805148492954967,-0.8507476921635729,41.17253834825288,0.0,0.0,0.0,0.0,0.0,4.824139924907683e-06,0.0,0.0,0.00026222600641250606,0.0,0.0,0.0,0.0,0.0,0.0,0.0,0.0,4.824139924907683e-06,0.0,0.0,0.0002622260064125
0.06499999999999999,-0.000539454355842477,-0.00018682392476226296,0.20594378033302616,-0.02893416107021179,-0.013892871329157511,0.07810113728771664,-0.00025743864587553586,-5.887195092004957e-05,0.2053452510781866,-0.02576139260525956,-0.009341926991581661,0.03920064852620285,0.0008085366676732308,-0.0050690457786242175,-0.0009587119959115832,0.11847377680652917,-0.39836018172115084,-0.04916275570718676,0.0,-2.2805148492954967,-0.8507476921635729,41.17253834825288,0.0,0.0,0.0,0.0,0.0,6.257147167968748e-06,0.0,0.0,0.0003116779541015624,0.0,0.0,0.0,0.0,0.0,0.0,0.0,0.0,6.257147167968748e-06,0.0,0.0,0.0003116779541015
0.06999999999999999,-0.0006928303882053296,-0.0002575497281024037,0.20642830381441385,-0.02871474528110832,-0.012857370795359743,0.10080044008293021,-0.00025743864587553586,-5.887195092004957e-05,0.2053452510781866,-0.02576139260525956,-0.009341926991581661,0.03920064852620285,0.0016173645443583072,-0.007292303633825514,-0.0012172104730043061,0.16964664989264377,-0.4241563874829819,-0.047142335443899196,0.0,-2.2805148492954967,-0.8507476921635729,41.17253834825288,0.0,0.0,0.0,0.0,0.0,7.947916568469997e-06,0.0,0.0,0.00036532816400527946,0.0,0.0,0.0,0.0,0.0,0.0,0.0,0.0,7.947916568469997e-06,0.0,0.0,0.0003653281640052
0.075,-0.0008462553683964834,-0.00032485323595596695,0.2070388741293291,-0.029119521387907982,-0.012516477563839706,0.1246916360295495,-0.00025743864587553586,-5.887195092004957e-05,0.2053452510781866,-0.02576139260525956,-0.009341926991581661,0.03920064852620285,0.002646368974909423,-0.009502692121337078,-0.0014551899827289314,0.20180197205744205,-0.39075717016854733,-0.043538074416870666,0.0,-2.2805148492954967,-0.8507476921635729,41.17253834825288,0.0,0.0,0.0,0.0,0.0,9.917398873901365e-06,0.0,0.0,0.000423160414123535,0.0,0.0,0.0,0.0,0.0,0.0,0.0,0.0,9.917398873901365e-06,0.0,0.0,0.0004231604141235
0.08,-0.0009846262087399801,-0.0003845229293350918,0.2076766628059859,-0.030140927490441352,-0.0131232645903784,0.14600312285236614,-0.00025743864587553586,-5.887195092004957e-05,0.2053452510781866,-0.02576139260525956,-0.009341926991581661,0.03920064852620285,0.0035772290625258087,-0.011220087377963265,-0.0016621102985312683,0.194000845851766,-0.35504412442221456,-0.04140346755231898,0.0,-2.2805148492954967,-0.8507476921635729,41.17253834825288,0.0,0.0,0.0,0.0,0.0,1.218646377325058e-05,0.0,0.0,0.0004851585030555724,0.0,0.0,0.0,0.0,0.0,0.0,0.0,0.0,1.218646377325058e-05,0.0,0.0,0.0004851585030555
0.085,-0.0011505317378972765,-0.000455007034539976,0.20852461529135372,-0.03199360714832615,-0.013526899837588657,0.16927781105708387,-0.00025743864587553586,-5.887195092004957e-05,0.2053452510781866,-0.02576139260525956,-0.009341926991581661,0.03920064852620285,0.004541199399565788,-0.01286620908838959,-0.0018881464577102742,0.16292326981372768,-0.2683783673263265,-0.04072032390054367,0.0,-2.2805148492954967,-0.8507476921635729,41.17253834825288,0.0,0.0,0.0,0.0,0.0,1.4775900000000002e-05,0.0,0.0,0.00055130625,0.0,0.0,0.0,0.0,0.0,0.0,0.0,0.0,1.4775900000000002e-05,0.0,0.0,0.00055130625
0.09000000000000001,-0.0013036416755521853,-0.0005209002018676467,0.20937550861880425,-0.03347968120603069,-0.014242428343409625,0.19174805724370117,-0.00025743864587553586,-5.887195092004957e-05,0.2053452510781866,-0.02576139260525956,-0.009341926991581661,0.03920064852620285,0.00516137039006824,-0.013938335901943303,-0.0020764959812472924,0.12130506180806003,-0.19530752829909395,-0.03885576569840815,0.0,-2.2805148492954967,-0.8507476921635729,41.17253834825288,0.0,0.0,0.0,0.0,0.0,1.7706415435123446e-05,0.0,0.0,0.0006215874947547914,0.0,0.0,0.0,0.0,0.0,0.0,0.0,0.0,1.7706415435123446e-05,0.0,0.0,0.0006215874947547
0.09500000000000001,-0.001490530521227914,-0.0006028250564425666,0.21047510688858576,-0.03612544045413333,-0.016187891212607407,0.2180875991757809,-0.00025743864587553586,-5.887195092004957e-05,0.2053452510781866,-0.02576139260525956,-0.009341926991581661,0.03920064852620285,0.005576218094023345,-0.014630475321843082,-0.0022876637690031174,0.04470452584607634,-0.09858444994666958,-0.03883445490386182,0.0,-2.2805148492954967,-0.8507476921635729,41.17253834825288,0.0,0.0,0.0,0.0,0.0,2.0998637210083016e-05,0.0,0.0,0.0006959860977172852,0.0,0.0,0.0,0.0,0.0,0.0,0.0,0.0,2.0998637210083016e-05,0.0,0.0,0.0006959860977172
0.10000000000000002,-0.0016648489144647602,-0.0006791172947231458,0.2115558943045134,-0.0385823165528468,-0.016942013393986752,0.24179841415541048,-0.00025743864587553586,-5.887195092004957e-05,0.2053452510781866,-0.02576139260525956,-0.009341926991581661,0.03920064852620285,0.0056876059495594945,-0.014872196805429328,-0.0024616950701051815,-0.0037469454180228436,-0.0012582659927233286,-0.03568303987653985,0.0,-2.2805148492954967,-0.8507476921635729,41.17253834825288,0.0,0.0,0.0,0.0,0.0,2.4673111809825903e-05,0.0,0.0,0.0007744859398841861,0.0,0.0,0.0,0.0,0.0,0.0,0.0,0.0,2.4673111809825903e-05,0.0,0.0,0.0007744859398841
0.10500000000000002,-0.001874285603793709,-0.0007726034982068969,0.2129299411322009,-0.03978066741664389,-0.01760597694800454,0.26989116726632956,-0.001874285603793709,-0.0007726034982068969,0.21290119082702513,-0.03978066741664389,-0.01760597694800454,0.26903409634347797,0.005544154410751484,-0.014839035541413715,-0.00264442045296176,-0.031455777580424275,0.017754646814757608,-0.033211038946013655,0.0,-2.2805148492954967,-0.8507476921635729,41.17253834825288,0.0,0.0,0.0,0.0,0.0,2.8750305175781266e-05,0.0,0.0,0.0008570709228515628,0.0,0.0,0.0,0.0,0.0,0.0,0.0,0.0,2.8750305175781263e-05,0.0,0.0,0.0008570709228515
0.11000000000000003,-0.0020661903728272524,-0.000858804687675908,0.2142449805324721,-0.041704290340170556,-0.019049972273585687,0.28954575520443065,-0.001874285603793709,-0.0007726034982068969,0.21290119082702513,-0.03978066741664389,-0.01760597694800454,0.26903409634347797,0.005267049773964684,-0.014571821991420849,-0.00280409312042088,-0.07761952063991027,0.06353835373372871,-0.03628178428770238,0.0,1.2836747865319245,0.6200101039527123,18.850639831499155,0.0,0.0,0.0,0.0,0.0,3.3250602808856985e-05,0.0,0.0,0.0009437249688148503,0.0,0.0,0.0,0.0,0.0,0.0,0.0,0.0,3.3250602808856985e-05,0.0,0.0,0.0009437249688148
0.11500000000000003,-0.0022953889843734697,-0.0009620672044257481,0.215832725076984,-0.04433537069350355,-0.019722192923215816,0.30261684832662206,-0.001874285603793709,-0.0007726034982068969,0.21290119082702513,-0.03978066741664389,-0.01760597694800454,0.26903409634347797,0.004738717779120844,-0.01390969972148906,-0.0029816370979064686,-0.11971664467856113,0.1910612158513809,-0.03308523488021587,0.0,1.2836747865319245,0.6200101039527123,18.850639831499155,0.0,0.0,0.0,0.0,0.0,3.819430987243655e-05,0.0,0.0,0.0010344320205688483,0.0,0.0,0.0,0.0,0.0,0.0,0.0,0.0,3.819430987243655e-05,0.0,0.0,0.0010344320205688
0.12000000000000004,-0.002505330107653886,-0.0010566358772203662,0.21725930235678725,-0.045502008274819414,-0.020596187178878955,0.3081262509846987,-0.001874285603793709,-0.0007726034982068969,0.21290119082702513,-0.03978066741664389,-0.01760597694800454,0.26903409634347797,0.0040928242235407,-0.012873409632231833,-0.0031262457009175013,-0.15421630287628388,0.25703098640040484,-0.030626619001348113,0.0,1.2836747865319245,0.6200101039527123,18.850639831499155,0.0,0.0,0.0,0.0,0.0,4.3601651295375865e-05,0.0,0.0,0.0011291760415077217,0.0,0.0,0.0,0.0,0.0,0.0,0.0,0.0,4.3601651295375865e-05,0.0,0.0,0.0011291760415077
0.12500000000000003,-0.0027542857750051885,-0.0011676043414695879,0.21890321950242767,-0.04719059993529206,-0.020985177485197345,0.30698561019976245,-0.001874285603793709,-0.0007726034982068969,0.21290119082702513,-0.03978066741664389,-0.01760597694800454,0.26903409634347797,0.003234681596107402,-0.011155955914176743,-0.003290397916421566,-0.1725996486780884,0.3483426239681966,-0.03207147558732885,0.0,1.2836747865319245,0.6200101039527123,18.850639831499155,0.0,0.0,0.0,0.0,0.0,4.949277187500005e-05,0.0,0.0,0.0012279410156250008,0.0,0.0,0.0,0.0,0.0,0.0,0.0,0.0,4.949277187500005e-05,0.0,0.0,0.001227941015625
0.13000000000000003,-0.0029768728340314006,-0.001268408110593494,0.2203298299128808,-0.04804380962006533,-0.021658254474240832,0.304675142700016,-0.001874285603793709,-0.0007726034982068969,0.21290119082702513,-0.03978066741664389,-0.01760597694800454,0.26903409634347797,0.002345617058233883,-0.009415629631939539,-0.003425655827545776,-0.19129150820453175,0.39522987694288003,-0.02846197119750622,0.0,1.2836747865319245,0.6200101039527123,18.850639831499155,0.0,0.0,0.0,0.0,0.0,5.588773638010029e-05,0.0,0.0,0.001330710947513581,0.0,0.0,0.0,0.0,0.0,0.0,0.0,0.0,5.588773638010029e-05,0.0,0.0,0.0013307109475135
0.13500000000000004,-0.0032345626069726742,-0.0013835387492571825,0.22192675468201198,-0.048407813043978426,-0.021840102535353737,0.29531616817818956,-0.001874285603793709,-0.0007726034982068969,0.21290119082702513,-0.03978066741664389,-0.01760597694800454,0.26903409634347797,0.0013806287934779093,-0.0072225142120093035,-0.003562433640569449,-0.18768969413488049,0.41836683393962754,-0.022645720848384517,0.0,1.2836747865319245,0.6200101039527123,18.850639831499155,0.0,0.0,0.0,0.0,0.0,6.28065296539307e-05,0.0,0.0,0.0014374698623657233,0.0,0.0,0.0,0.0,0.0,0.0,0.0,0.0,6.28065296539307e-05,0.0,0.0,0.0014374698623657
0.14000000000000004,-0.003461680971541926,-0.0014854463943003466,0.22328363839739676,-0.04864829150628354,-0.021583161109278222,0.2871388363012722,-0.001874285603793709,-0.0007726034982068969,0.21290119082702513,-0.03978066741664389,-0.01760597694800454,0.26903409634347797,0.0005697240727349937,-0.005287332285371167,-0.0036567016325106533,-0.15874426755252014,0.4094046178941324,-0.021295070230707643,0.0,1.2836747865319245,0.6200101039527123,18.850639831499155,0.0,0.0,0.0,0.0,0.0,7.026905671720513e-05,0.0,0.0,0.001548201805973054,0.0,0.0,0.0,0.0,0.0,0.0,0.0,0.0,7.026905671720513e-05,0.0,0.0,0.001548201805973
0.14500000000000005,-0.0037204826336909203,-0.001599194355613575,0.22477354463012794,-0.04843328081549144,-0.02132248499673366,0.27334308813507785,-0.001874285603793709,-0.0007726034982068969,0.21290119082702513,-0.03978066741664389,-0.01760597694800454,0.26903409634347797,-0.00021431537169626524,-0.0031699072655301213,-0.003775570335556108,-0.1464448830051684,0.38789976184172087,-0.02083441236364625,0.0,1.2836747865319245,0.6200101039527123,18.850639831499155,0.0,0.0,0.0,0.0,0.0,7.829514287109383e-05,0.0,0.0,0.0016628908447265632,0.0,0.0,0.0,0.0,0.0,0.0,0.0,0.0,7.829514287109383e-05,0.0,0.0,0.0016628908447265
0.15000000000000005,-0.003946137501140079,-0.0016980838818643,0.22601700811004713,-0.04815736328130621,-0.021049384922216325,0.26136801401267834,-0.001874285603793709,-0.0007726034982068969,0.21290119082702513,-0.03978066741664389,-0.01760597694800454,0.26903409634347797,-0.0008273532273731502,-0.0014689489670441445,-0.003864689644756122,-0.11638097542620705,0.3463262236425952,-0.019798299379228036,0.0,1.2836747865319245,0.6200101039527123,18.850639831499155,0.0,0.0,0.0,0.0,0.0,8.690453380022056e-05,0.0,0.0,0.0017815210656166086,0.0,0.0,0.0,0.0,0.0,0.0,0.0,0.0,8.690453380022056e-05,0.0,0.0,0.0017815210656166
0.15500000000000005,-0.004200792810432483,-0.0018081371014418343,0.2273591963205986,-0.0474569875736139,-0.02023427020977533,0.24398222964795874,-0.004200792810432483,-0.0018081371014418343,0.22726307942492294,-0.0474569875736139,-0.02023427020977533,0.24207815307172584,-0.0013390821564763283,0.00021622023087362527,-0.003976431563393975,-0.08389564970945465,0.29312529466023896,-0.01923572183120347,0.0,1.2836747865319245,0.6200101039527123,18.850639831499155,0.0,0.0,0.0,0.0,0.0,9.611689567565928e-05,0.0,0.0,0.0019040765762329114,0.0,0.0,0.0,0.0,0.0,0.0,0.0,0.0,9.611689567565928e-05,0.0,0.0,0.0019040765762329
0.16000000000000006,-0.00442106667676879,-0.0019022119322197975,0.2284575443292829,-0.046841081717930194,-0.02035324623910285,0.2289935606371408,-0.004200792810432483,-0.0018081371014418343,0.22726307942492294,-0.0474569875736139,-0.02023427020977533,0.24207815307172584,-0.0016992761525804598,0.0014543835842605174,-0.004054303501905081,-0.07645517937618673,0.24540659759315575,-0.016078870578386598,0.0,2.083931532990323,0.7989683081295592,21.2590704658045,0.0,0.0,0.0,0.0,0.0,0.0001059518152579309,0.0,0.0,0.0020305415047645586,0.0,0.0,0.0,0.0,0.0,0.0,0.0,0.0,0.0001059518152579,0.0,0.0,0.0020305415047645
0.16500000000000006,-0.004668873670489268,-0.002010111911707826,0.2296239842207403,-0.04624253870984878,-0.019751954436598343,0.2104732204460755,-0.004200792810432483,-0.0018081371014418343,0.22726307942492294,-0.0474569875736139,-0.02023427020977533,0.24207815307172584,-0.002066545669458495,0.002671082523095938,-0.00416568690562947,-0.06356843737553032,0.22141192586507513,-0.02264259757224442,0.0,2.083931532990323,0.7989683081295592,21.2590704658045,0.0,0.0,0.0,0.0,0.0,0.0001164288000000001,0.0,0.0,0.002160900000000001,0.0,0.0,0.0,0.0,0.0,0.0,0.0,0.0,0.0001164288,0.0,0.0,0.0021609
0.17000000000000007,-0.004885021669504866,-0.0021011675503873075,0.2305651933767725,-0.0462423014710032,-0.019673611464147932,0.19500965544850135,-0.004200792810432483,-0.0018081371014418343,0.22726307942492294,-0.0474569875736139,-0.02023427020977533,0.24207815307172584,-0.002392230844267816,0.003696415395210879,-0.004262603033460274,-0.07996010539585463,0.2182712505745183,-0.018059546666449166,0.0,2.083931532990323,0.7989683081295592,21.2590704658045,0.0,0.0,0.0,0.0,0.0,0.00012756727815027252,0.0,0.0,0.0022951362313270588,0.0,0.0,0.0,0.0,0.0,0.0,0.0,0.0,0.0001275672781502,0.0,0.0,0.002295136231327
0.17500000000000007,-0.005131212662298695,-0.002208240036315099,0.23154892472248526,-0.04603344824360548,-0.019933472102710018,0.17636536487348353,-0.004200792810432483,-0.0018081371014418343,0.22726307942492294,-0.0474569875736139,-0.02023427020977533,0.24207815307172584,-0.0028693004775114934,0.004873189035192865,-0.004365631970275242,-0.09085854607742853,0.22585980903501224,-0.019649807072443033,0.0,2.083931532990323,0.7989683081295592,21.2590704658045,0.0,0.0,0.0,0.0,0.0,0.000139386598855591,0.0,0.0,0.002433234388732912,0.0,0.0,0.0,0.0,0.0,0.0,0.0,0.0,0.0001393865988555,0.0,0.0,0.0024332343887329
0.18000000000000008,-0.005346537873959298,-0.0023004573475662138,0.23233098548217218,-0.04623511325762962,-0.019835573700504674,0.16100107460726695,-0.004200792810432483,-0.0018081371014418343,0.22726307942492294,-0.0474569875736139,-0.02023427020977533,0.24207815307172584,-0.003358555830726328,0.006003587615043551,-0.004452457102329281,-0.117451712653522,0.2531264005371197,-0.01584627653998162,0.0,2.083931532990323,0.7989683081295592,21.2590704658045,0.0,0.0,0.0,0.0,0.0,0.00015190603226423284,0.0,0.0,0.0025751786828041093,0.0,0.0,0.0,0.0,0.0,0.0,0.0,0.0,0.0001519060322642,0.0,0.0,0.0025751786828041
0.18500000000000008,-0.005594055642403976,-0.0024083817818736477,0.23313380775606982,-0.04656214808851151,-0.020386164219031652,0.14265710268231677,-0.004200792810432483,-0.0018081371014418343,0.22726307942492294,-0.0474569875736139,-0.02023427020977533,0.24207815307172584,-0.004040504728259125,0.007425170818217001,-0.004545968663246543,-0.13137637285514384,0.27890334815439055,-0.01853599196431727,0.0,2.083931532990323,0.7989683081295592,21.2590704658045,0.0,0.0,0.0,0.0,0.0,0.00016514476962890644,0.0,0.0,0.002720953344726565,0.0,0.0,0.0,0.0,0.0,0.0,0.0,0.0,0.0001651447696289,0.0,0.0,0.0027209533447265
0.19000000000000009,-0.0058126374005232715,-0.0025028826704823945,0.23375879206263106,-0.0470218630719848,-0.02017471121478756,0.12725148814181242,-0.004200792810432483,-0.0018081371014418343,0.22726307942492294,-0.0474569875736139,-0.02023427020977533,0.24207815307172584,-0.0046957293375627365,0.008841223189408104,-0.004637539666434987,-0.1488918535155945,0.3191383834681892,-0.016438126388325706,0.0,2.083931532990323,0.7989683081295592,21.2590704658045,0.0,0.0,0.0,0.0,0.0,0.00017912192340974832,0.0,0.0,0.0028705426262855558,0.0,0.0,0.0,0.0,0.0,0.0,0.0,0.0,0.0001791219234097,0.0,0.0,0.0028705426262855
0.1950000000000001,-0.0060650315341217245,-0.0026110645735199847,0.23438310679636065,-0.0475222752473662,-0.020366772386428464,0.1093349616674785,-0.004200792810432483,-0.0018081371014418343,0.22726307942492294,-0.0474569875736139,-0.02023427020977533,0.24207815307172584,-0.005504288650320728,0.010606424513197668,-0.004719430939424596,-0.1502133454962804,0.3404464047662873,-0.013263091450274631,0.0,2.083931532990323,0.7989683081295592,21.2590704658045,0.0,0.0,0.0,0.0,0.0,0.0001938565273773196,0.0,0.0,0.0030239307998657255,0.0,0.0,0.0,0.0,0.0,0.0,0.0,0.0,0.0001938565273773,0.0,0.0,0.0030239307998657
0.2000000000000001,-0.0062890134701650904,-0.002706155879984822,0.23485242150385346,-0.048193101302612444,-0.020196545463806795,0.09381250055700621,-0.004200792810432483,-0.0018081371014418343,0.22726307942492294,-0.0474569875736139,-0.02023427020977533,0.24207815307172584,-0.006196828291491058,0.012282191476233462,-0.004787352741893778,-0.14633221328180185,0.37361527345777595,-0.01122653251525755,0.0,2.083931532990323,0.7989683081295592,21.2590704658045,0.0,0.0,0.0,0.0,0.0,0.00020936753671560318,0.0,0.0,0.003181102158451083,0.0,0.0,0.0,0.0,0.0,0.0,0.0,0.0,0.0002093675367156,0.0,0.0,0.003181102158451
0.2050000000000001,-0.006547102668759885,-0.002812652487780165,0.23529873573678536,-0.04840155307901238,-0.01987225643045181,0.07601979512443409,-0.006547102668759885,-0.002812652487780165,0.23507306190866037,-0.04840155307901238,-0.01987225643045181,0.07267775410880908,-0.00693227875213188,0.01430162612204427,-0.004850032027276181,-0.1300675241928218,0.3780563943241277,-0.00951951489693953,0.0,2.083931532990323,0.7989683081295592,21.2590704658045,0.0,0.0,0.0,0.0,0.0,0.0002256738281250003,0.0,0.0,0.003342041015625003,0.0,0.0,0.0,0.0,0.0,0.0,0.0,0.0,0.000225673828125,0.0,0.0,0.003342041015625
0.2100000000000001,-0.006773353232177412,-0.0029052268845948417,0.23561468566060348,-0.04843878963091904,-0.019643151533974085,0.061553738457162284,-0.006547102668759885,-0.002812652487780165,0.23507306190866037,-0.04840155307901238,-0.01987225643045181,0.07267775410880908,-0.0074875252284320945,0.0160475557774901,-0.00491289436187029,-0.10836303193733024,0.36874062095340665,-0.010133017390612323,0.0,1.0095558870068864,0.38985911625472275,26.960798485799454,0.0,0.0,0.0,0.0,0.0,0.00024279419992532768,0.0,0.0,0.003506731705570224,0.0,0.0,0.0,0.0,0.0,0.0,0.0,0.0,0.0002427941999253,0.0,0.0,0.0035067317055702
0.2150000000000001,-0.007028786316860571,-0.0030070930754934823,0.23589729517896627,-0.04734895962097111,-0.018784631574669197,0.04681162041852909,-0.006547102668759885,-0.002812652487780165,0.23507306190866037,-0.04840155307901238,-0.01987225643045181,0.07267775410880908,-0.007941211597931354,0.017841934454631406,-0.004961674900629342,-0.06397197293519799,0.2992804603237502,-0.004508564778208154,0.0,1.0095558870068864,0.38985911625472275,26.960798485799454,0.0,0.0,0.0,0.0,0.0,0.0002607473721588139,0.0,0.0,0.003675158583068851,0.0,0.0,0.0,0.0,0.0,0.0,0.0,0.0,0.0002607473721588,0.0,0.0,0.0036751585830688
0.2200000000000001,-0.007247116670874981,-0.003094414176946985,0.23608485664886483,-0.0463655995250726,-0.018498891076144906,0.03547587359850734,-0.006547102668759885,-0.002812652487780165,0.23507306190866037,-0.04840155307901238,-0.01987225643045181,0.07267775410880908,-0.00814279202819461,0.018999847977066883,-0.004990009211482225,-0.02694950089719504,0.21121394090050216,-0.0032814307128941006,0.0,1.0095558870068864,0.38985911625472275,26.960798485799454,0.0,0.0,0.0,0.0,0.0,0.00027955198669309654,0.0,0.0,0.0038473060235023537,0.0,0.0,0.0,0.0,0.0,0.0,0.0,0.0,0.000279551986693,0.0,0.0,0.0038473060235023
0.22500000000000012,-0.007488696884473389,-0.0031897606185313813,0.2362383157161884,-0.0444041060038381,-0.017697728857469605,0.02381460620458291,-0.006547102668759885,-0.002812652487780165,0.23507306190866037,-0.04840155307901238,-0.01987225643045181,0.07267775410880908,-0.008148947312875493,0.019799530395326108,-0.005000632568958531,0.01782442983255963,0.09726349257308134,-0.000519312055913214,0.0,1.0095558870068864,0.38985911625472275,26.960798485799454,0.0,0.0,0.0,0.0,0.0,0.0002992266073242193,0.0,0.0,0.004023158422851567,0.0,0.0,0.0,0.0,0.0,0.0,0.0,0.0,0.0002992266073242,0.0,0.0,0.0040231584228515
0.23000000000000012,-0.007692727245756573,-0.003272784046236662,0.2363238319445531,-0.04326078925980971,-0.017653425938730802,0.014255345766501214,-0.006547102668759885,-0.002812652487780165,0.23507306190866037,-0.04840155307901238,-0.01987225643045181,0.07267775410880908,-0.00801729672893462,0.019974641285140135,-0.005005224561092729,0.03744209496854011,-0.00585966070376346,-0.0003734839650816623,0.0,1.0095558870068864,0.38985911625472275,26.960798485799454,0.0,0.0,0.0,0.0,0.0,0.0003197897198796277,0.0,0.0,0.004202700197696691,0.0,0.0,0.0,0.0,0.0,0.0,0.0,0.0,0.0003197897198796,0.0,0.0,0.0042027001976966
0.23500000000000013,-0.007919787795189015,-0.0033638782576077744,0.23636849347026467,-0.04206856832565462,-0.017001328599608744,0.0036901856436732934,-0.006547102668759885,-0.002812652487780165,0.23507306190866037,-0.04840155307901238,-0.01987225643045181,0.07267775410880908,-0.0077646776156593345,0.019684527573153903,-0.004993601655725126,0.05147546769020137,-0.08814900702786854,0.0034735108880759136,0.0,1.0095558870068864,0.38985911625472275,26.960798485799454,0.0,0.0,0.0,0.0,0.0,0.0003412597323211675,0.0,0.0,0.00438591578521729,0.0,0.0,0.0,0.0,0.0,0.0,0.0,0.0,0.0003412597323211,0.0,0.0,0.0043859157852172
0.24000000000000013,-0.008114402893354519,-0.003443750676701082,0.2363635816359374,-0.041474874162335515,-0.017146170509416293,-0.004536801186400797,-0.006547102668759885,-0.002812652487780165,0.23507306190866037,-0.04840155307901238,-0.01987225643045181,0.07267775410880908,-0.007528344196248554,0.019132045651747222,-0.004961522556483848,0.049901648313656115,-0.13810625200953872,0.007628869899061319,0.0,1.0095558870068864,0.38985911625472275,26.960798485799454,0.0,0.0,0.0,0.0,0.0,0.0003636549748480803,0.0,0.0,0.004572789643192296,0.0,0.0,0.0,0.0,0.0,0.0,0.0,0.0,0.000363654974848,0.0,0.0,0.0045727896431922
0.24500000000000013,-0.00833589855409511,-0.003534860005034001,0.2363119904587046,-0.041738770498939,-0.017242235999758996,-0.014046441703301634,-0.006547102668759885,-0.002812652487780165,0.23507306190866037,-0.04840155307901238,-0.01987225643045181,0.07267775410880908,-0.007310284148187644,0.018351499090819824,-0.004916446730811599,0.03125873471339168,-0.14564235310355428,0.007069894558884684,0.0,1.0095558870068864,0.38985911625472275,26.960798485799454,0.0,0.0,0.0,0.0,0.0,0.0003869937000000006,0.0,0.0,0.004763306250000005,0.0,0.0,0.0,0.0,0.0,0.0,0.0,0.0,0.0003869937,0.0,0.0,0.00476330625
0.2500000000000001,-0.008532422601811408,-0.003616305595998381,0.23622616481459743,-0.042450862327748216,-0.017510701776120824,-0.021249257053637744,-0.006547102668759885,-0.002812652487780165,0.23507306190866037,-0.04840155307901238,-0.01987225643045181,0.07267775410880908,-0.007219386623472207,0.017724429391932455,-0.004872708304807534,0.010430490218003442,-0.12299344792890188,0.009793389946461614,0.0,1.0095558870068864,0.38985911625472275,26.960798485799454,0.0,0.0,0.0,0.0,0.0,0.00041129408275995317,0.0,0.0,0.004957450104618078,0.0,0.0,0.0,0.0,0.0,0.0,0.0,0.0,0.0004112940827599,0.0,0.0,0.004957450104618
0.2550000000000001,-0.008762333363920224,-0.003708794312123824,0.23609020507757536,-0.04367390487157621,-0.017310202615741038,-0.02934487479899199,-0.008762333363920224,-0.003708794312123824,0.235653630856918,-0.04367390487157621,-0.017310202615741038,-0.03450008052561553,-0.00725837681075538,0.017245044565097314,-0.004819126725719997,-0.021283495092207748,-0.06022520385025201,0.00935230922044775,0.0,1.0095558870068864,0.38985911625472275,26.960798485799454,0.0,0.0,0.0,0.0,0.0,0.0004365742206573493,0.0,0.0,0.0051552057266235395,0.0,0.0,0.0,0.0,0.0,0.0,0.0,0.0,0.0004365742206573,0.0,0.0,0.0051552057266235
0.2600000000000001,-0.008968817625996526,-0.00379057249296635,0.23593708633393917,-0.04465299351231018,-0.017700010914614022,-0.03482878031750384,-0.008762333363920224,-0.003708794312123824,0.235653630856918,-0.04367390487157621,-0.017310202615741038,-0.03450008052561553,-0.007417957081225931,0.01712722792433766,-0.004769787210427416,-0.042886378447181274,-0.0023892253359478815,0.011159293024227494,0.0,0.23886045015066967,0.09326205232971033,30.42508064360895,0.0,0.0,0.0,0.0,0.0,0.0004628521338709837,0.0,0.0,0.005356557656192784,0.0,0.0,0.0,0.0,0.0,0.0,0.0,0.0,0.0004628521338709,0.0,0.0,0.0053565576561927
0.2650000000000001,-0.009209811466737971,-0.003883080951094758,0.23573605883965876,-0.04552676383583428,-0.01709779475249448,-0.040147450953820184,-0.008762333363920224,-0.003708794312123824,0.235653630856918,-0.04367390487157621,-0.017310202615741038,-0.03450008052561553,-0.007670873795967425,0.017279652911809575,-0.004719163034289399,-0.04857748843532998,0.048553053784687675,0.007822089528496183,0.0,0.23886045015066967,0.09326205232971033,30.42508064360895,0.0,0.0,0.0,0.0,0.0,0.0004901457653320319,0.0,0.0,0.005561490454101568,0.0,0.0,0.0,0.0,0.0,0.0,0.0,0.0,0.000490145765332,0.0,0.0,0.0055614904541015
0.27000000000000013,-0.009423123053114666,-0.003963030777538229,0.23553956359650843,-0.045748253027390086,-0.017160459385660087,-0.04325621387369811,-0.008762333363920224,-0.003708794312123824,0.235653630856918,-0.04367390487157621,-0.017310202615741038,-0.03450008052561553,-0.007886644179287753,0.017569572217207428,-0.004689564511710447,-0.04387709364509879,0.06536393269407435,0.0059002013635029455,0.0,0.23886045015066967,0.09326205232971033,30.42508064360895,0.0,0.0,0.0,0.0,0.0,0.0005184729808270461,0.0,0.0,0.005769988701725012,0.0,0.0,0.0,0.0,0.0,0.0,0.0,0.0,0.000518472980827,0.0,0.0,0.005769988701725
0.27500000000000013,-0.009666765928409649,-0.004050010450771783,0.23529937828228825,-0.045551319855955244,-0.015735476357992176,-0.04657604853950857,-0.008762333363920224,-0.003708794312123824,0.235653630856918,-0.04367390487157621,-0.017310202615741038,-0.03450008052561553,-0.008064545497273114,0.017946231624882514,-0.00466642709569056,-0.02442080937776637,0.07222438695799145,0.00408758290801152,0.0,0.23886045015066967,0.09326205232971033,30.42508064360895,0.0,0.0,0.0,0.0,0.0,0.0005478515691009529,0.0,0.0,0.005982037001037603,0.0,0.0,0.0,0.0,0.0,0.0,0.0,0.0,0.0005478515691009,0.0,0.0,0.0059820370010376
0.28000000000000014,-0.009876748055386408,-0.004123142272904338,0.235077357470026,-0.044515189984341605,-0.015627327846629072,-0.048174995299671,-0.008762333363920224,-0.003708794312123824,0.235653630856918,-0.04367390487157621,-0.017310202615741038,-0.03450008052561553,-0.008121658999100412,0.018211066525328716,-0.004649882800686736,-0.0029508337752266194,0.03940472654563006,0.0028333450020442035,0.0,0.23886045015066967,0.09326205232971033,30.42508064360895,0.0,0.0,0.0,0.0,0.0,0.0005782992419600495,0.0,0.0,0.006197619974613195,0.0,0.0,0.0,0.0,0.0,0.0,0.0,0.0,0.00057829924196,0.0,0.0,0.0061976199746131
0.28500000000000014,-0.010111111857909492,-0.004202354513423484,0.23481538077789416,-0.043523082050776644,-0.014329487966465443,-0.0498341825998753,-0.008762333363920224,-0.003708794312123824,0.235653630856918,-0.04367390487157621,-0.017310202615741038,-0.03450008052561553,-0.008056139935079075,0.018348884646420868,-0.004652473563544302,0.02253157892168981,0.015136664123017144,-0.0022735968035241874,0.0,0.23886045015066967,0.09326205232971033,30.42508064360895,0.0,0.0,0.0,0.0,0.0,0.0006098336343750008,0.0,0.0,0.006416722265625006,0.0,0.0,0.0,0.0,0.0,0.0,0.0,0.0,0.000609833634375,0.0,0.0,0.006416722265625
0.29000000000000015,-0.010309914783093994,-0.004268749732586157,0.23458190899208362,-0.04188526206562427,-0.014166309239928388,-0.050319366202261566,-0.008762333363920224,-0.003708794312123824,0.235653630856918,-0.04367390487157621,-0.017310202615741038,-0.03450008052561553,-0.007890749088827233,0.01829228362402753,-0.004664226259124189,0.04202774412870628,-0.03196090833447539,-0.003701151099587407,0.0,0.23886045015066967,0.09326205232971033,30.42508064360895,0.0,0.0,0.0,0.0,0.0,0.0006424723045838365,0.0,0.0,0.006639328537845618,0.0,0.0,0.0,0.0,0.0,0.0,0.0,0.0,0.0006424723045838,0.0,0.0,0.0066393285378456
0.29500000000000015,-0.010529256673818247,-0.004340175664856328,0.23431211864959933,-0.04048860614710324,-0.01286218813368279,-0.05057043188678442,-0.008762333363920224,-0.003708794312123824,0.235653630856918,-0.04367390487157621,-0.017310202615741038,-0.03450008052561553,-0.007602007647095877,0.018043152685225737,-0.0046892203302957135,0.06391728652670493,-0.05884071569851187,-0.005324657841005491,0.0,0.23886045015066967,0.09326205232971033,30.42508064360895,0.0,0.0,0.0,0.0,0.0,0.0006762327341949473,0.0,0.0,0.006865423475646979,0.0,0.0,0.0,0.0,0.0,0.0,0.0,0.0,0.0006762327341949,0.0,0.0,0.0068654234756469
0.30000000000000016,-0.010713209947433609,-0.004400866534809403,0.234077387422661,-0.03866089166610421,-0.013119405457359373,-0.05014560266929953,-0.008762333363920224,-0.003708794312123824,0.235653630856918,-0.04367390487157621,-0.017310202615741038,-0.03450008052561553,-0.007296602455342183,0.017698792770602417,-0.004714007409250435,0.06560068512821567,-0.08113432847427321,-0.007704296120709789,0.0,0.23886045015066967,0.09326205232971033,30.42508064360895,0.0,0.0,0.0,0.0,0.0,0.0007111323282900819,0.0,0.0,0.007094991784000405,0.0,0.0,0.0,0.0,0.0,0.0,0.0,0.0,0.00071113232829,0.0,0.0,0.0070949917840004
0.30500000000000016,-0.01091627203945657,-0.0044686558954525665,0.23381198976299014,-0.03753933603230882,-0.012488020367340811,-0.04921960838820611,-0.01091627203945657,-0.0044686558954525665,0.2330648013474628,-0.03753933603230882,-0.012488020367340811,-0.05654762657668268,-0.006936264697118063,0.01724917853867244,-0.004767719404048791,0.06944845516536943,-0.08879666091125618,-0.011900311341434515,0.0,0.23886045015066967,0.09326205232971033,30.42508064360895,0.0,0.0,0.0,0.0,0.0,0.0007471884155273448,0.0,0.0,0.00732801818847657,0.0,0.0,0.0,0.0,0.0,0.0,0.0,0.0,0.0007471884155273,0.0,0.0,0.0073280181884765
0.31000000000000016,-0.011087137590862373,-0.004528505457679651,0.23358652825637613,-0.03591775565484704,-0.012885029114649296,-0.047563230849204975,-0.01091627203945657,-0.0044686558954525665,0.2330648013474628,-0.03753933603230882,-0.012488020367340811,-0.05654762657668268,-0.006650897579548605,0.01682883540113065,-0.004825572057472892,0.057154723145668634,-0.08763963286332495,-0.01454703963674916,0.0,0.12775997616849422,0.030097318300952268,32.14249873204385,0.0,0.0,0.0,0.0,0.0,0.0007844182482441914,0.0,0.0,0.007564487435245522,0.0,0.0,0.0,0.0,0.0,0.0,0.0,0.0,0.0007844182482441,0.0,0.0,0.0075644874352455
0.31500000000000017,-0.011275523357465539,-0.004595069566234008,0.23334055556299907,-0.034622530391566535,-0.0124762725718782,-0.04457001562894064,-0.01091627203945657,-0.0044686558954525665,0.2330648013474628,-0.03753933603230882,-0.012488020367340811,-0.05654762657668268,-0.006371494242723628,0.016391129042694182,-0.0049071268526577035,0.047747868542152155,-0.08100756803756895,-0.0158035064052979,0.0,0.12775997616849422,0.030097318300952268,32.14249873204385,0.0,0.0,0.0,0.0,0.0,0.0008228390025604261,0.0,0.0,0.007804384291076668,0.0,0.0,0.0,0.0,0.0,0.0,0.0,0.0,0.0008228390025604,0.0,0.0,0.0078043842910766
0.3200000000000002,-0.011432655241208296,-0.004656049291396611,0.2331411473284019,-0.03307815267301102,-0.01309336368755249,-0.04122928942973,-0.01091627203945657,-0.0044686558954525665,0.2330648013474628,-0.03753933603230882,-0.012488020367340811,-0.05654762657668268,-0.006192353397322937,0.016051506877806737,-0.004996815923099231,0.035698096953307015,-0.0645100441361861,-0.022904300215900245,0.0,0.12775997616849422,0.030097318300952268,32.14249873204385,0.0,0.0,0.0,0.0,0.0,0.0008624677784811988,0.0,0.0,0.008047693543338784,0.0,0.0,0.0,0.0,0.0,0.0,0.0,0.0,0.0008624677784811,0.0,0.0,0.0080476935433387
0.3250000000000002,-0.011606094244192816,-0.004724757422940171,0.23293240079580319,-0.03185282218376018,-0.01315607710526124,-0.036971380075178986,-0.01091627203945657,-0.0044686558954525665,0.2330648013474628,-0.03753933603230882,-0.012488020367340811,-0.05654762657668268,-0.0060350667026037984,0.015740695973877065,-0.005128324576979897,0.021156667906130612,-0.052831586049254656,-0.025407711663731885,0.0,0.12775997616849422,0.030097318300952268,32.14249873204385,0.0,0.0,0.0,0.0,0.0,0.0009033216000000015,0.0,0.0,0.00829440000000001,0.0,0.0,0.0,0.0,0.0,0.0,0.0,0.0,0.0009033216,0.0,0.0,0.0082944
0.3300000000000002,-0.011750498667960428,-0.004787621897465403,0.23277101128018984,-0.030404474676079037,-0.013292078122813897,-0.0330463644321722,-0.01091627203945657,-0.0044686558954525665,0.2330648013474628,-0.03753933603230882,-0.012488020367340811,-0.05654762657668268,-0.005975374519033284,0.015544734013376376,-0.0052590702282831765,0.008181379903918014,-0.03493995838346642,-0.0298866801260542,0.0,0.12775997616849422,0.030097318300952268,32.14249873204385,0.0,0.0,0.0,0.0,0.0,0.0009454174152016654,0.0,0.0,0.008544488489627848,0.0,0.0,0.0,0.0,0.0,0.0,0.0,0.0,0.0009454174152016,0.0,0.0,0.0085444884896278
0.3350000000000002,-0.011908962150078493,-0.004858886602970195,0.23261042667801296,-0.029059052096282015,-0.013876451733719406,-0.027914238431446553,-0.01091627203945657,-0.0044686558954525665,0.2330648013474628,-0.03753933603230882,-0.012488020367340811,-0.05654762657668268,-0.005957305615495196,0.015390336497877737,-0.0054167064361140965,-0.0015370749007342427,-0.023388685341826275,-0.03152679846820403,0.0,0.12775997616849422,0.030097318300952268,32.14249873204385,0.0,0.0,0.0,0.0,0.0,0.000988772096365358,0.0,0.0,0.008797943861389169,0.0,0.0,0.0,0.0,0.0,0.0,0.0,0.0,0.0009887720963653,0.0,0.0,0.0087979438613891
0.3400000000000002,-0.01204133396103138,-0.004923607661460329,0.232493153801331,-0.027929410706563688,-0.01360409246130279,-0.023189543359157867,-0.01091627203945657,-0.0044686558954525665,0.2330648013474628,-0.03753933603230882,-0.012488020367340811,-0.05654762657668268,-0.005991341660767435,0.015320212456906646,-0.005578720529024684,-0.007905767187749524,-0.012392036625270534,-0.035873308744064275,0.0,0.12775997616849422,0.030097318300952268,32.14249873204385,0.0,0.0,0.0,0.0,0.0,0.001033402440067579,0.0,0.0,0.009054750985050212,0.0,0.0,0.0,0.0,0.0,0.0,0.0,0.0,0.0010334024400675,0.0,0.0,0.0090547509850502
0.3450000000000002,-0.01218671774457059,-0.004997684363329218,0.23238786642048298,-0.02668437608555858,-0.014215552023486504,-0.01743682325661755,-0.01091627203945657,-0.0044686558954525665,0.2330648013474628,-0.03753933603230882,-0.012488020367340811,-0.05654762657668268,-0.006054451026509606,0.015276598109820603,-0.005765412885093608,-0.012603773049707048,-0.006740646180147988,-0.036010789580072707,0.0,0.12775997616849422,0.030097318300952268,32.14249873204385,0.0,0.0,0.0,0.0,0.0,0.0010793251672851579,0.0,0.0,0.009314894750976572,0.0,0.0,0.0,0.0,0.0,0.0,0.0,0.0,0.0010793251672851,0.0,0.0,0.0093148947509765
0.3500000000000002,-0.012308600092103286,-0.005062408118187846,0.23232080553929654,-0.025656061778462476,-0.01364801009464447,-0.011936722993599273,-0.01091627203945657,-0.0044686558954525665,0.2330648013474628,-0.03753933603230882,-0.012488020367340811,-0.05654762657668268,-0.0060904576906915895,0.015249119842012193,-0.005932032212023721,-0.003980098237610204,-0.005760062697639462,-0.03450808586857311,0.0,0.12775997616849422,0.030097318300952268,32.14249873204385,0.0,0.0,0.0,0.0,0.0,0.0011265569234982509,0.0,0.0,0.009578360070133218,0.0,0.0,0.0,0.0,0.0,0.0,0.0,0.0,0.0011265569234982,0.0,0.0,0.0095783600701332
0.3550000000000002,-0.012442464901167499,-0.0051378047017982,0.2322764405727392,-0.02471599579989244,-0.014326197421950392,-0.005474726550293167,-0.012442464901167499,-0.0051378047017982,0.23110132629394586,-0.02471599579989244,-0.014326197421950392,-0.01531985842437765,-0.006111021177006101,0.01521385615420979,-0.006123383876265351,-4.4411127911191464e-05,-0.007071953268889428,-0.03706388956802392,0.0,0.12775997616849422,0.030097318300952268,32.14249873204385,0.0,0.0,0.0,0.0,0.0,0.001175114278793337,0.0,0.0,0.009845131874084484,0.0,0.0,0.0,0.0,0.0,0.0,0.0,0.0,0.0011751142787933,0.0,0.0,0.0098451318740844
0.3600000000000002,-0.012554778920265715,-0.005202712127725177,0.23226699902548972,-0.02358826896069074,-0.013857656678786773,0.0008763798799141403,-0.012442464901167499,-0.0051378047017982,0.23110132629394586,-0.02471599579989244,-0.014326197421950392,-0.01531985842437765,-0.0060687459910558905,0.015141321792606627,-0.0062867413458448105,0.010515269328621738,-0.020345519621013622,-0.032821281243732514,0.0,0.16848147589707918,0.045019960360484945,33.45778224164014,0.0,0.0,0.0,0.0,0.0,0.0012250137279662151,0.0,0.0,0.01011519511499406,0.0,0.0,0.0,0.0,0.0,0.0,0.0,0.0,0.0012250137279662,0.0,0.0,0.010115195114994
0.3650000000000002,-0.012677346074085358,-0.005278738637308798,0.2322940540850404,-0.022551916394707855,-0.014059320507808629,0.008578970180416113,-0.012442464901167499,-0.0051378047017982,0.23110132629394586,-0.02471599579989244,-0.014326197421950392,-0.01531985842437765,-0.0060049895364849585,0.014994716365501036,-0.006453461504881904,0.01928165802394343,-0.032355672012400985,-0.02882888963704925,0.0,0.16848147589707918,0.045019960360484945,33.45778224164014,0.0,0.0,0.0,0.0,0.0,0.0012762716906250021,0.0,0.0,0.010388534765625013,0.0,0.0,0.0,0.0,0.0,0.0,0.0,0.0,0.001276271690625,0.0,0.0,0.010388534765625
0.3700000000000002,-0.012780007044089728,-0.005344018884665107,0.23235496098773312,-0.02161605164856593,-0.014284983493246355,0.016447075745248528,-0.012442464901167499,-0.0051378047017982,0.23110132629394586,-0.02471599579989244,-0.014326197421950392,-0.01531985842437765,-0.005921672772058738,0.014838933063292176,-0.006575846441119738,0.015252141949066798,-0.0358441232543527,-0.025627975644590885,0.0,0.16848147589707918,0.045019960360484945,33.45778224164014,0.0,0.0,0.0,0.0,0.0,0.0013289045112931273,0.0,0.0,0.010665135819339764,0.0,0.0,0.0,0.0,0.0,0.0,0.0,0.0,0.0013289045112931,0.0,0.0,0.0106651358193397
0.3750000000000002,-0.012893095528053462,-0.005420525313110265,0.2324685400448768,-0.020779285375119992,-0.01402913251795382,0.02534564487055055,-0.012442464901167499,-0.0051378047017982,0.23110132629394586,-0.02471599579989244,-0.014326197421950392,-0.01531985842437765,-0.005831213451460558,0.014616636127281882,-0.006700433576263677,0.018941887276011794,-0.04358196393977426,-0.019783658824795446,0.0,0.16848147589707918,0.045019960360484945,33.45778224164014,0.0,0.0,0.0,0.0,0.0,0.0013829284595123312,0.0,0.0,0.010944983290100109,0.0,0.0,0.0,0.0,0.0,0.0,0.0,0.0,0.0013829284595123,0.0,0.0,0.0109449832901001
0.3800000000000002,-0.012987788582860775,-0.005487556503926557,0.23260936960852296,-0.019971265043018726,-0.014677319418321955,0.03377032088472353,-0.012442464901167499,-0.0051378047017982,0.23110132629394586,-0.02471599579989244,-0.014326197421950392,-0.01531985842437765,-0.005760282217008039,0.014412950136374418,-0.006773462269477468,0.012694023614290973,-0.045270227894703065,-0.013298457786095435,0.0,0.16848147589707918,0.045019960360484945,33.45778224164014,0.0,0.0,0.0,0.0,0.0,0.0014383597299456622,0.0,0.0,0.011228062212467207,0.0,0.0,0.0,0.0,0.0,0.0,0.0,0.0,0.0014383597299456,0.0,0.0,0.0112280622124672
0.38500000000000023,-0.013091367246932207,-0.005564106036124195,0.23282054294150317,-0.01903469429090731,-0.014377292665365247,0.04415111060151551,-0.012442464901167499,-0.0051378047017982,0.23110132629394586,-0.02471599579989244,-0.014326197421950392,-0.01531985842437765,-0.0056873430391632274,0.014181009564167247,-0.006817966781639156,0.012373280053330006,-0.0383767318944076,-0.006351247468318498,0.0,0.16848147589707918,0.045019960360484945,33.45778224164014,0.0,0.0,0.0,0.0,0.0,0.0014952144424804712,0.0,0.0,0.011514357641601575,0.0,0.0,0.0,0.0,0.0,0.0,0.0,0.0,0.0014952144424804,0.0,0.0,0.0115143576416015
0.39000000000000024,-0.013178652209799984,-0.005633056694166857,0.23304943747810392,-0.01839021518595886,-0.014660172965575417,0.05279163033297374,-0.012442464901167499,-0.0051378047017982,0.23110132629394586,-0.02471599579989244,-0.014326197421950392,-0.01531985842437765,-0.005642612149998625,0.014006370770668394,-0.0068355797823236135,0.01368377087274472,-0.03749978986835308,-0.001443670257232684,0.0,0.16848147589707918,0.045019960360484945,33.45778224164014,0.0,0.0,0.0,0.0,0.0,0.0015535086423314121,0.0,0.0,0.011803854653263108,0.0,0.0,0.0,0.0,0.0,0.0,0.0,0.0,0.0015535086423314,0.0,0.0,0.0118038546532631
0.39500000000000024,-0.01327427541966968,-0.005710413164558087,0.2333643631929036,-0.017560003348708345,-0.014781561041798915,0.06338433620112956,-0.012442464901167499,-0.0051378047017982,0.23110132629394586,-0.02471599579989244,-0.014326197421950392,-0.01531985842437765,-0.005587941172878678,0.013827315356691247,-0.006816295162261364,0.008255093940120237,-0.03264367184703824,0.006663500666451821,0.0,0.16848147589707918,0.045019960360484945,33.45778224164014,0.0,0.0,0.0,0.0,0.0,0.0016132583001434355,0.0,0.0,0.012096538343811048,0.0,0.0,0.0,0.0,0.0,0.0,0.0,0.0,0.0016132583001434,0.0,0.0,0.012096538343811
0.40000000000000024,-0.013353639183026095,-0.005779111768872098,0.2336860697829859,-0.016590611118092437,-0.01439143521423333,0.07319575108085759,-0.012442464901167499,-0.0051378047017982,0.23110132629394586,-0.02471599579989244,-0.014326197421950392,-0.01531985842437765,-0.005549625268913301,0.013667493591611214,-0.006762422364839485,0.008638366212604574,-0.033623101745275594,0.015161617389325662,0.0,0.16848147589707918,0.045019960360484945,33.45778224164014,0.0,0.0,0.0,0.0,0.0,0.0016744793120947866,0.0,0.0,0.012392393830204025,0.0,0.0,0.0,0.0,0.0,0.0,0.0,0.0,0.0016744793120947,0.0,0.0,0.012392393830204
0.40500000000000025,-0.013440165720721618,-0.005856424355698478,0.23410917945705323,-0.015925979620819902,-0.014657500252270911,0.08409865035110053,-0.013440165720721618,-0.005856424355698478,0.23237199195705321,-0.015925979620819902,-0.014657500252270911,0.07140724410110051,-0.005484621787560826,0.013513808107878432,-0.006674184049246909,0.012425931519398036,-0.029143943672040866,0.01793759688943064,0.0,0.16848147589707918,0.045019960360484945,33.45778224164014,0.0,0.0,0.0,0.0,0.0,0.0017371875000000026,0.0,0.0,0.012691406250000018,0.0,0.0,0.0,0.0,0.0,0.0,0.0,0.0,0.0017371875,0.0,0.0,0.01269140625
0.41000000000000025,-0.013511592907277456,-0.005922946167659836,0.23452697369399267,-0.015000863283346764,-0.013947660040262627,0.0938375174578343,-0.013440165720721618,-0.005856424355698478,0.23237199195705321,-0.015925979620819902,-0.014657500252270911,0.07140724410110051,-0.005419217149690838,0.013368947468802423,-0.0065688498681234055,0.015358382816194968,-0.025838231190353073,0.025399100899541047,0.0,0.31875310930712186,0.1067290397612659,33.4410573514581,0.0,0.0,0.0,0.0,0.0,0.0018013986114129095,0.0,0.0,0.01299356076135637,0.0,0.0,0.0,0.0,0.0,0.0,0.0,0.0,0.0018013986114129,0.0,0.0,0.0129935607613563
0.41500000000000026,-0.013589993342708153,-0.005996717278874878,0.23505941009092457,-0.014148163493093223,-0.013681770357663678,0.1043960720366108,-0.013440165720721618,-0.005856424355698478,0.23237199195705321,-0.015925979620819902,-0.014657500252270911,0.07140724410110051,-0.00530710759775995,0.013259156377745662,-0.006414400908375614,0.02196781577928255,-0.02220981840213909,0.032604373108637515,0.0,0.31875310930712186,0.1067290397612659,33.4410573514581,0.0,0.0,0.0,0.0,0.0,0.0018671283197296174,0.0,0.0,0.0132988425430298,0.0,0.0,0.0,0.0,0.0,0.0,0.0,0.0,0.0018671283197296,0.0,0.0,0.0132988425430298
0.42000000000000026,-0.01365358243310914,-0.006058673817571604,0.2355712537780752,-0.013575487770842094,-0.0129504426213256,0.11358882661659166,-0.013440165720721618,-0.005856424355698478,0.23237199195705321,-0.015925979620819902,-0.014657500252270911,0.07140724410110051,-0.005210295781186369,0.013183975591519449,-0.006250794806017349,0.02566045648701757,-0.008408028616813933,0.0341439016709521,0.0,0.31875310930712186,0.1067290397612659,33.4410573514581,0.0,0.0,0.0,0.0,0.0,0.0019343922242915188,0.0,0.0,0.01360723679437639,0.0,0.0,0.0,0.0,0.0,0.0,0.0,0.0,0.0019343922242915,0.0,0.0,0.0136072367943763
0.42500000000000027,-0.013723817269176165,-0.00612622200477877,0.23620893329903628,-0.01253358246611855,-0.012351784637681452,0.12401190449504931,-0.013440165720721618,-0.005856424355698478,0.23237199195705321,-0.015925979620819902,-0.014657500252270911,0.07140724410110051,-0.005057260206707526,0.013147346917038944,-0.006058339439556676,0.025892379519225687,-0.0087498338982205,0.03965317015629822,0.0,0.31875310930712186,0.1067290397612659,33.4410573514581,0.0,0.0,0.0,0.0,0.0,0.002003205850488285,0.0,0.0,0.01391872873535158,0.0,0.0,0.0,0.0,0.0,0.0,0.0,0.0,0.0020032058504882,0.0,0.0,0.0139187287353515
0.43000000000000027,-0.013781469564563595,-0.006181871289619089,0.23681238440819466,-0.012351368466730865,-0.01164584177844329,0.13304153603623017,-0.013440165720721618,-0.005856424355698478,0.23237199195705321,-0.015925979620819902,-0.014657500252270911,0.07140724410110051,-0.0049393388090083245,0.013162906932996104,-0.005866485615482764,0.02368151628779186,0.007730539671423988,0.041352458584938266,0.0,0.31875310930712186,0.1067290397612659,33.4410573514581,0.0,0.0,0.0,0.0,0.0,0.002073584649860863,0.0,0.0,0.014233303606510178,0.0,0.0,0.0,0.0,0.0,0.0,0.0,0.0,0.0020735846498608,0.0,0.0,0.0142333036065101
0.4350000000000003,-0.013842579851380514,-0.006242066562146412,0.23755439902183595,-0.010829508182310016,-0.011040270717956697,0.14390954422719998,-0.013440165720721618,-0.005856424355698478,0.23237199195705321,-0.015925979620819902,-0.014657500252270911,0.07140724410110051,-0.004803907996854279,0.01319786281011415,-0.005625815524795386,0.021952226936973723,0.010336964341420564,0.04657595367489257,0.0,0.31875310930712186,0.1067290397612659,33.4410573514581,0.0,0.0,0.0,0.0,0.0,0.0021455440002044715,0.0,0.0,0.014550946669006366,0.0,0.0,0.0,0.0,0.0,0.0,0.0,0.0,0.0021455440002044,0.0,0.0,0.0145509466690063
0.4400000000000003,-0.013892840315434021,-0.0062908146032692284,0.23824831566542404,-0.010441962935367703,-0.010129106580200744,0.15264391983145045,-0.013440165720721618,-0.005856424355698478,0.23237199195705321,-0.015925979620819902,-0.014657500252270911,0.07140724410110051,-0.004670063575661747,0.013237731904568088,-0.005426645675642566,0.03233863843687399,0.0009436634661145957,0.0421122769215972,0.0,0.31875310930712186,0.1067290397612659,33.4410573514581,0.0,0.0,0.0,0.0,0.0,0.002219099205671601,0.0,0.0,0.014871643204593674,0.0,0.0,0.0,0.0,0.0,0.0,0.0,0.0,0.0022190992056716,0.0,0.0,0.0148716432045936
0.4450000000000003,-0.013944201520151751,-0.006342691727778625,0.23909554248857595,-0.009276109508225949,-0.009343847367277256,0.1636502803732226,-0.013440165720721618,-0.005856424355698478,0.23237199195705321,-0.015925979620819902,-0.014657500252270911,0.07140724410110051,-0.004522884410012386,0.013226706679123977,-0.005186868076949788,0.024067951189280276,-0.005245189971567669,0.04427834146935761,0.0,0.31875310930712186,0.1067290397612659,33.4410573514581,0.0,0.0,0.0,0.0,0.0,0.0022942654968750044,0.0,0.0,0.015195378515625016,0.0,0.0,0.0,0.0,0.0,0.0,0.0,0.0,0.002294265496875,0.0,0.0,0.015195378515625
0.4500000000000003,-0.01398536985155057,-0.006384916407997592,0.23988405711230176,-0.008211306837682916,-0.008829746860900118,0.17300662342644313,-0.013440165720721618,-0.005856424355698478,0.23237199195705321,-0.015925979620819902,-0.014657500252270911,0.07140724410110051,-0.00440263900839416,0.01313493057394943,-0.004979567718590308,0.0245495087139968,-0.028598730188965936,0.04641087605674867,0.0,0.31875310930712186,0.1067290397612659,33.4410573514581,0.0,0.0,0.0,0.0,0.0,0.0023710580309907006,0.0,0.0,0.01552213792505266,0.0,0.0,0.0,0.0,0.0,0.0,0.0,0.0,0.0023710580309907,0.0,0.0,0.0155221379250526
0.4550000000000003,-0.014026500682378505,-0.006430366052814772,0.24084046767669637,-0.007583341996605186,-0.008299856436589535,0.18395138189220728,-0.014026500682378505,-0.006430366052814772,0.2383909757848354,-0.007583341996605186,-0.008299856436589535,0.16809947511577902,-0.004295994441653296,0.012961477139202983,-0.004744959701526142,0.01965320861592493,-0.04165777210461315,0.039811628833912045,0.0,0.31875310930712186,0.1067290397612659,33.4410573514581,0.0,0.0,0.0,0.0,0.0,0.002449491891860967,0.0,0.0,0.015851906776428244,0.0,0.0,0.0,0.0,0.0,0.0,0.0,0.0,0.0024494918918609,0.0,0.0,0.0158519067764282
0.4600000000000003,-0.014059111637428477,-0.006468020285838482,0.24172469340437794,-0.006529910730584837,-0.007927653988245837,0.19383334804250396,-0.014026500682378505,-0.006430366052814772,0.2383909757848354,-0.007583341996605186,-0.008299856436589535,0.16809947511577902,-0.004192308340052515,0.012740113936561166,-0.004552094166805273,0.01883463125002235,-0.04643257008306367,0.042825232572220706,0.0,0.40929523763111914,0.1359767915065578,32.44545060051833,0.0,0.0,0.0,0.0,0.0,0.0025295820900973365,0.0,0.0,0.01618467043390276,0.0,0.0,0.0,0.0,0.0,0.0,0.0,0.0,0.0025295820900973,0.0,0.0,0.0161846704339027
0.4650000000000003,-0.014093065302727492,-0.006509623065954694,0.24279088648487906,-0.006150457544209542,-0.007776923682624255,0.20433628106416935,-0.014026500682378505,-0.006430366052814772,0.2383909757848354,-0.007583341996605186,-0.008299856436589535,0.16809947511577902,-0.004090298263163305,0.012502764536624885,-0.004335420562755688,0.021277669136396022,-0.04681586731265732,0.03902490274672004,0.0,0.40929523763111914,0.1359767915065578,32.44545060051833,0.0,0.0,0.0,0.0,0.0,0.0026113435631835986,0.0,0.0,0.01652041428222658,0.0,0.0,0.0,0.0,0.0,0.0,0.0,0.0,0.0026113435631835,0.0,0.0,0.0165204142822265
0.4700000000000003,-0.014118989190948568,-0.006545202260975868,0.24376903177101122,-0.005332340450859796,-0.007510530504436729,0.2135577062379742,-0.014026500682378505,-0.006430366052814772,0.2383909757848354,-0.007583341996605186,-0.008299856436589535,0.16809947511577902,-0.004003579560179677,0.012317636042725991,-0.004148785271331695,0.015216108299638643,-0.03165762847650165,0.03724647057379389,0.0,0.40929523763111914,0.1359767915065578,32.44545060051833,0.0,0.0,0.0,0.0,0.0,0.00269479117557879,0.0,0.0,0.016859123726749442,0.0,0.0,0.0,0.0,0.0,0.0,0.0,0.0,0.0026947911755787,0.0,0.0,0.0168591237267494
0.4750000000000003,-0.014146598868263242,-0.006585583052310046,0.2449382960771062,-0.004773360541083885,-0.007641672983878879,0.22359477181133072,-0.014026500682378505,-0.006430366052814772,0.2383909757848354,-0.007583341996605186,-0.008299856436589535,0.16809947511577902,-0.003917448075197465,0.012153632172603908,-0.00397965986858403,0.01508494966852927,-0.02875971941495746,0.030845746734654227,0.0,0.40929523763111914,0.1359767915065578,32.44545060051833,0.0,0.0,0.0,0.0,0.0,0.0027799397188201956,0.0,0.0,0.017200784193420433,0.0,0.0,0.0,0.0,0.0,0.0,0.0,0.0,0.0027799397188201,0.0,0.0,0.0172007841934204
0.4800000000000003,-0.014167102176290124,-0.006620309796778214,0.2460035030800518,-0.004291247115576924,-0.007366788934172724,0.23184470263405277,-0.014026500682378505,-0.006430366052814772,0.2383909757848354,-0.007583341996605186,-0.008299856436589535,0.16809947511577902,-0.003844970271184274,0.012072363298492785,-0.0038395424430335426,0.014934402778602252,-0.014384105808649421,0.026732071731598892,0.0,0.40929523763111914,0.1359767915065578,32.44545060051833,0.0,0.0,0.0,0.0,0.0,0.002866803911626344,0.0,0.0,0.017545381128788014,0.0,0.0,0.0,0.0,0.0,0.0,0.0,0.0,0.0028668039116263,0.0,0.0,0.017545381128788
0.4850000000000003,-0.014187670918764552,-0.006660358474369227,0.24726856505090206,-0.0033668822213724714,-0.007393395007450097,0.2411744257092117,-0.014026500682378505,-0.006430366052814772,0.2383909757848354,-0.007583341996605186,-0.008299856436589535,0.16809947511577902,-0.003765761244088526,0.012027707510338404,-0.0037088814898424334,0.010772532875904338,-0.002008916314932913,0.024976375070214298,0.0,0.40929523763111914,0.1359767915065578,32.44545060051833,0.0,0.0,0.0,0.0,0.0,0.002955398400000006,0.0,0.0,0.01789290000000002,0.0,0.0,0.0,0.0,0.0,0.0,0.0,0.0,0.0029553984,0.0,0.0,0.0178929
