time,pos_x,pos_y,pos_z,vel_x,vel_y,vel_z,pos_xo,pos_yo,pos_zo,vel_xo,vel_yo,vel_zo,roll,pitch,yaw,roll_vel,pitch_vel,yaw_vel,thrust_z,force_x,force_y,force_z,torque_x,torque_y,torque_z,pos_xd,pos_yd,pos_zd,vel_xd,vel_yd,vel_zd,roll_d,pitch_d,yaw_d,roll_vel_d,pitch_vel_d,yaw_vel_d,pos_xr,pos_yr,pos_zr,vel_xr,vel_yr,vel_zr
0.005,-7.607671431589901e-10,7.688491769627143e-11,0.20500533864569026,-1.1311867666178328e-07,1.8377537920169487e-09,0.0009998982603745474,-7.607671431589901e-10,7.688491769627143e-11,0.005005338645690249,-1.1311867666178328e-07,1.8377537920169487e-09,0.0009998982603745474,-6.296724116801269e-10,-5.964274111453214e-09,-1.537124657921855e-10,1.1422880173169716e-07,1.1110656303017217e-07,1.1378174398123382e-10,0.0,0.0,0.0,0.0,0.0,0.0,0.0,0.0,0.0,0.2,0.0,0.0,0.0,0.0,0.0,0.0,0.0,0.0,0.0,0.0,0.0,0.2,0.0,0.0,0.0
0.01,-2.4002458154954923e-09,-1.3867186832215316e-10,0.20501000484157914,2.196573840239139e-08,-2.4776970040949442e-08,0.000999900501737663,-7.607671431589901e-10,7.688491769627143e-11,0.005005338645690249,-1.1311867666178328e-07,1.8377537920169487e-09,0.0009998982603745474,4.099143815558851e-10,-5.471321543076124e-09,-1.4907396203098702e-10,1.1806333213267093e-07,1.0812555690266674e-07,-3.4910956989051375e-10,0.0,1.177098342980706e-06,-1.9672633944415418e-08,31.720046113433234,0.0,0.0,0.0,0.0,0.0,0.20000000195129441,0.0,0.0,1.170410614013672e-06,0.0,0.0,0.0,0.0,0.0,0.0,0.0,0.0,0.2000000019512944,0.0,0.0,1.170410614013672e-06
0.015,-2.2908946242903944e-09,-2.6480192102635033e-10,0.2050153376640087,1.922641194675949e-08,-2.2594446154963824e-08,0.000999907560382012,-7.607671431589901e-10,7.688491769627143e-11,0.005005338645690249,-1.1311867666178328e-07,1.8377537920169487e-09,0.0009998982603745474,1.0120040625050318e-09,-4.927595420503286e-09,-1.5245832402083303e-10,1.080984077189782e-07,9.652134500244081e-08,-4.5324092534202457e-10,0.0,1.177098342980706e-06,-1.9672633944415418e-08,31.720046113433234,0.0,0.0,0.0,0.0,0.0,0.20000001559571778,0.0,0.0,4.67578857421875e-06,0.0,0.0,0.0,0.0,0.0,0.0,0.0,0.0,0.2000000155957177,0.0,0.0,4.67578857421875e-06
0.02,-2.2065455753225196e-09,-1.8646146589030045e-10,0.20502000391717193,1.7486842251141886e-08,1.0886493267367411e-07,0.0009999138023533511,-7.607671431589901e-10,7.688491769627143e-11,0.005005338645690249,-1.1311867666178328e-07,1.8377537920169487e-09,0.0009998982603745474,6.232217988341756e-10,-4.50155473516251e-09,-1.6182495340865064e-10,-5.31791473862197e-07,8.841654635456837e-08,-6.605315281114118e-10,0.0,1.177098342980706e-06,-1.9672633944415418e-08,31.720046113433234,0.0,0.0,0.0,0.0,0.0,0.20000005258617082,0.0,0.0,1.0507361297607422e-05,0.0,0.0,0.0,0.0,0.0,0.0,0.0,0.0,0.2000000525861708,0.0,0.0,1.0507361297607422e-05
0.025,-2.1163729182923394e-09,2.0908940981285833e-09,0.20502533680306417,1.633150414743614e-08,-1.764860335746503e-08,0.0009999186542236486,-7.607671431589901e-10,7.688491769627143e-11,0.005005338645690249,-1.1311867666178328e-07,1.8377537920169487e-09,0.0009998982603745474,1.1163972179940829e-09,-4.046238954241354e-09,-1.6440746316804897e-10,8.713041090795787e-08,8.230308157745761e-08,-3.7570381026630177e-10,0.0,1.177098342980706e-06,-1.9672633944415418e-08,31.720046113433234,0.0,0.0,0.0,0.0,0.0,0.20000012453171875,0.0,0.0,1.8656367187500002e-05,0.0,0.0,0.0,0.0,0.0,0.0,0.0,0.0,0.2000001245317187,0.0,0.0,1.86563671875e-05
0.030000000000000002,-2.036197642874919e-09,2.0170492572560986e-09,0.20503000311418584,1.5083416357134012e-08,-1.4460364059230963e-08,0.0009999281430494286,-7.607671431589901e-10,7.688491769627143e-11,0.005005338645690249,-1.1311867666178328e-07,1.8377537920169487e-09,0.0009998982603745474,1.4854294929546072e-09,-3.6457262460068344e-09,-1.0302932002016018e-10,7.294566081749755e-08,7.481196377957778e-08,1.209851853944456e-10,0.0,1.177098342980706e-06,-1.9672633944415418e-08,31.720046113433234,0.0,0.0,0.0,0.0,0.0,0.20000024299764635,0.0,0.0,2.9114055633544923e-05,0.0,0.0,0.0,0.0,0.0,0.0,0.0,0.0,0.2000002429976463,0.0,0.0,2.9114055633544923e-05
0.035,-2.244945644386033e-10,1.9484713853477846e-09,0.20503533610885902,1.4425358554756604e-08,-1.2307869603920462e-08,0.0009999417397098954,-7.607671431589901e-10,7.688491769627143e-11,0.005005338645690249,-1.1311867666178328e-07,1.8377537920169487e-09,0.0009998982603745474,1.8323024591074622e-09,-3.268210564164724e-09,-2.0220796129250675e-10,6.168441949807072e-08,6.854614870483344e-08,1.5288033683512163e-10,0.0,1.177098342980706e-06,-1.9672633944415418e-08,31.720046113433234,0.0,0.0,0.0,0.0,0.0,0.2000004195055127,0.0,0.0,4.187168701171876e-05,0.0,0.0,0.0,0.0,0.0,0.0,0.0,0.0,0.2000004195055127,0.0,0.0,4.187168701171876e-05
0.04,-1.5426065330143772e-10,-5.087361750913563e-09,0.20504000250346618,1.550618175229908e-08,-1.4893814992120471e-08,0.0009999407020619528,-7.607671431589901e-10,7.688491769627143e-11,0.005005338645690249,-1.1311867666178328e-07,1.8377537920169487e-09,0.0009998982603745474,2.6265041737330944e-09,-2.9377992734305473e-09,-1.6611460921006621e-10,7.112648794253601e-08,7.263966089115852e-08,-5.275075690792724e-11,0.0,1.177098342980706e-06,-1.9672633944415418e-08,31.720046113433234,0.0,0.0,0.0,0.0,0.0,0.20000066553320633,0.0,0.0,5.6920532684326184e-05,0.0,0.0,0.0,0.0,0.0,0.0,0.0,0.0,0.2000006655332063,0.0,0.0,5.692053268432618e-05
0.045,-1.0566085065137368e-09,-5.1808053603592e-09,0.20504533554664206,-1.4501102554287348e-06,-1.203791364919885e-08,0.0009999520325818497,-7.607671431589901e-10,7.688491769627143e-11,0.005005338645690249,-1.1311867666178328e-07,1.8377537920169487e-09,0.0009998982603745474,3.071543382596382e-09,-2.5968338706551143e-09,-7.78699767441626e-11,5.711354823721864e-08,5.3642849053514384e-08,-3.695289772418474e-10,0.0,1.177098342980706e-06,-1.9672633944415418e-08,31.720046113433234,0.0,0.0,0.0,0.0,0.0,0.200000992515,0.0,0.0,7.4251875e-05,0.0,0.0,0.0,0.0,0.0,0.0,0.0,0.0,0.200000992515,0.0,0.0,7.4251875e-05
0.049999999999999996,-1.0235770534280418e-09,1.1533155506192691e-09,0.20505000202273224,1.1087911384301011e-09,2.3011639223919476e-07,0.0009999607271516267,-7.607671431589901e-10,7.688491769627143e-11,0.005005338645690249,-1.1311867666178328e-07,1.8377537920169487e-09,0.0009998982603745474,2.367952768794554e-09,-2.4280697553749607e-09,-1.602513416747663e-10,-1.12008323158081e-06,7.756367424769197e-09,1.2153834478920579e-10,0.0,1.177098342980706e-06,-1.9672633944415418e-08,31.720046113433234,0.0,0.0,0.0,0.0,0.0,0.2000014118416057,0.0,0.0,9.385700729370117e-05,0.0,0.0,0.0,0.0,0.0,0.0,0.0,0.0,0.2000014118416057,0.0,0.0,9.385700729370116e-05
0.05499999999999999,4.699760211386586e-10,1.11791508776798e-09,0.20505466849804194,9.245186458024352e-09,-7.316969027201181e-09,0.000999960042471591,4.699760211386586e-10,1.11791508776798e-09,0.0050527336378124454,9.245186458024352e-09,-7.316969027201181e-09,0.0008842328085848722,2.55116373687681e-09,-2.078498334477158e-09,-1.4358955330815824e-10,3.784638384380246e-08,4.425849832024426e-08,7.206926228351231e-10,0.0,1.177098342980706e-06,-1.9672633944415418e-08,31.720046113433234,0.0,0.0,0.0,0.0,0.0,0.2000019348602295,0.0,0.0,0.00011572723388671873,0.0,0.0,0.0,0.0,0.0,0.0,0.0,0.0,0.2000019348602295,0.0,0.0,0.0001157272338867
0.05999999999999999,5.177249082207789e-10,-1.3228180381661583e-08,0.20506000166454338,8.226527992174837e-09,-1.899079473974552e-05,0.000999974532346449,4.699760211386586e-10,1.11791508776798e-09,0.0050527336378124454,9.245186458024352e-09,-7.316969027201181e-09,0.0008842328085848722,3.5558682486625324e-09,-1.8600195546508896e-09,-8.325632597136561e-11,3.0207035137878695e-08,3.665165044161307e-08,8.070692262350629e-10,0.0,4.375941273096103e-07,2.9886055255384194e-08,31.719917124162173,0.0,0.0,0.0,0.0,0.0,0.20000257287462664,0.0,0.0,0.0001398538700866699,0.0,0.0,0.0,0.0,0.0,0.0,0.0,0.0,0.2000025728746266,0.0,0.0,0.0001398538700866
0.06499999999999999,4.940753486536219e-10,-1.3263711424626488e-08,0.20506466821271507,-6.71827596540193e-08,-7.185573280506332e-09,0.000999975981697669,4.699760211386586e-10,1.11791508776798e-09,0.0050527336378124454,9.245186458024352e-09,-7.316969027201181e-09,0.0008842328085848722,3.718988382926572e-09,-1.9896470600224226e-09,-1.176812749848516e-10,3.2898643846770775e-08,-3.3072245398515024e-07,9.332682080620417e-10,0.0,4.375941273096103e-07,2.9886055255384194e-08,31.719917124162173,0.0,0.0,0.0,0.0,0.0,0.20000333714515625,0.0,0.0,0.00016622824218749996,0.0,0.0,0.0,0.0,0.0,0.0,0.0,0.0,0.2000033371451562,0.0,0.0,0.0001662282421874
0.06999999999999999,4.2988007610995385e-10,1.0581775677944858e-08,0.20507000143893653,-2.870858292280382e-06,2.5692278389775287e-05,0.0009999839708449028,4.699760211386586e-10,1.11791508776798e-09,0.0050527336378124454,9.245186458024352e-09,-7.316969027201181e-09,0.0008842328085848722,3.85002576459e-09,-1.8579404060256113e-09,-3.227207516012738e-10,1.7253787740189057e-08,1.7977049747880695e-08,5.330645503256863e-10,0.0,4.375941273096103e-07,2.9886055255384194e-08,31.719917124162173,0.0,0.0,0.0,0.0,0.0,0.20000423888883653,0.0,0.0,0.00019484168746948237,0.0,0.0,0.0,0.0,0.0,0.0,0.0,0.0,0.2000042388888365,0.0,0.0,0.0001948416874694
0.075,1.2454447613664758e-08,1.0664895288593692e-08,0.20507533470897668,3.900234091275439e-09,-1.1672549481534014e-09,0.0009999884371327413,4.699760211386586e-10,1.11791508776798e-09,0.0050527336378124454,9.245186458024352e-09,-7.316969027201181e-09,0.0008842328085848722,3.4597337362090355e-09,-1.7843306665297783e-09,-4.144339031167542e-11,7.91182547764651e-09,1.69358757237003e-08,1.2875973626208384e-09,0.0,4.375941273096103e-07,2.9886055255384194e-08,31.719917124162173,0.0,0.0,0.0,0.0,0.0,0.20000528927939942,0.0,0.0,0.00022568555419921868,0.0,0.0,0.0,0.0,0.0,0.0,0.0,0.0,0.2000052892793994,0.0,0.0,0.0002256855541992
0.08,1.2479126093022954e-08,-5.457147572103339e-09,0.20508000132367774,5.600817427301596e-09,-1.909935547582084e-05,0.000999989306298765,4.699760211386586e-10,1.11791508776798e-09,0.0050527336378124454,9.245186458024352e-09,-7.316969027201181e-09,0.0008842328085848722,3.2771037668864606e-09,-1.6818792872306838e-09,-1.071840152351525e-10,-8.882996096944308e-07,2.279827573912498e-08,2.063135998176815e-07,0.0,4.375941273096103e-07,2.9886055255384194e-08,31.719917124162173,0.0,0.0,0.0,0.0,0.0,0.20000649944734575,0.0,0.0,0.00025875120162963865,0.0,0.0,0.0,0.0,0.0,0.0,0.0,0.0,0.2000064994473457,0.0,0.0,0.0002587512016296
0.085,1.2500981079395981e-08,-5.771025337306648e-09,0.20508533461477463,3.280816422457324e-09,-2.648737675828852e-09,0.0009999916076902499,4.699760211386586e-10,1.11791508776798e-09,0.0050527336378124454,9.245186458024352e-09,-7.316969027201181e-09,0.0008842328085848722,4.794446207943763e-09,-1.5898650337962714e-09,9.528210190733588e-11,1.1194697143373589e-08,1.4640856292624273e-08,9.65779180993288e-10,0.0,4.375941273096103e-07,2.9886055255384194e-08,31.719917124162173,0.0,0.0,0.0,0.0,0.0,0.20000788048,0.0,0.0,0.00029403000000000003,0.0,0.0,0.0,0.0,0.0,0.0,0.0,0.0,0.20000788048,0.0,0.0,0.00029403
0.09000000000000001,-6.967102775307815e-09,1.4371995705285495e-09,0.2050900012591169,2.2252064356183864e-10,-4.080999095849987e-10,0.0009999935699073668,4.699760211386586e-10,1.11791508776798e-09,0.0050527336378124454,9.245186458024352e-09,-7.316969027201181e-09,0.0008842328085848722,3.104752745814493e-09,-1.5611634975736056e-09,1.006979697272582e-10,3.54415401782488e-09,3.4581111288856277e-09,1.049829413370595e-09,0.0,4.375941273096103e-07,2.9886055255384194e-08,31.719917124162173,0.0,0.0,0.0,0.0,0.0,0.2000094434215654,0.0,0.0,0.0003315133305358888,0.0,0.0,0.0,0.0,0.0,0.0,0.0,0.0,0.2000094434215654,0.0,0.0,0.0003315133305358
0.09500000000000001,2.3120898290796234e-08,1.2042696559629753e-08,0.2050953556342896,2.732329821897994e-05,1.5906676126686817e-05,0.0010316095608761443,4.699760211386586e-10,1.11791508776798e-09,0.0050527336378124454,9.245186458024352e-09,-7.316969027201181e-09,0.0008842328085848722,-4.85930384344297e-08,8.729738495438144e-08,-3.2907039172930724e-11,-7.755461349236143e-05,0.0001332242117759757,-6.879508452435536e-11,0.0,4.375941273096103e-07,2.9886055255384194e-08,31.719917124162173,0.0,0.0,0.0,0.0,0.0,0.20001119927317873,0.0,0.0,0.00037119258544921884,0.0,0.0,0.0,0.0,0.0,0.0,0.0,0.0,0.2000111992731787,0.0,0.0,0.0003711925854492
0.10000000000000002,7.292135175716741e-07,1.6980504199800209e-07,0.20510274133640952,0.00025949600697245046,-7.812857804072936e-09,0.0011149937656335556,4.699760211386586e-10,1.11791508776798e-09,0.0050527336378124454,9.245186458024352e-09,-7.316969027201181e-09,0.0008842328085848722,-1.8922151712814904e-06,6.5681630369642464e-06,1.1470483276131088e-06,9.998664016533376e-09,0.0007696266948163937,4.093728992609919e-08,0.0,4.375941273096103e-07,2.9886055255384194e-08,31.719917124162173,0.0,0.0,0.0,0.0,0.0,0.20001315899296526,0.0,0.0,0.0004130591679382326,0.0,0.0,0.0,0.0,0.0,0.0,0.0,0.0,0.2000131589929652,0.0,0.0,0.0004130591679382
0.10500000000000002,1.6977606757573604e-06,1.3490819572004524e-07,0.20510894840016586,7.20447212579413e-05,-1.623428271062196e-05,0.0018790070001171535,1.6977606757573604e-06,1.3490819572004524e-07,0.005093614904072091,7.20447212579413e-05,-1.623428271062196e-05,0.0014219025079296533,-2.6408181529350765e-06,9.16470980832357e-06,1.721752831428745e-06,-0.0007050394701104449,0.001871999932904015,0.00016995462139088855,0.0,4.375941273096103e-07,2.9886055255384194e-08,31.719917124162173,0.0,0.0,0.0,0.0,0.0,0.20001533349609377,0.0,0.0,0.0004571044921875002,0.0,0.0,0.0,0.0,0.0,0.0,0.0,0.0,0.2000153334960937,0.0,0.0,0.0004571044921875
0.11000000000000003,1.390653611527375e-06,4.501793218662767e-07,0.20512315913351453,-0.00017519543908907506,0.00013624225590819268,0.002307274493201735,1.6977606757573604e-06,1.3490819572004524e-07,0.005093614904072091,7.20447212579413e-05,-1.623428271062196e-05,0.0014219025079296533,-5.0362102874430625e-06,1.9216456326262683e-05,2.395708316780817e-06,-0.0005003310861960025,0.0027105915270664816,0.00016117070780186473,0.0,-0.00037555541063006464,8.217081933172257e-05,31.76446225701922,0.0,0.0,0.0,0.0,0.0,0.20001773365483141,0.0,0.0,0.0005033199833679202,0.0,0.0,0.0,0.0,0.0,0.0,0.0,0.0,0.2000177336548314,0.0,0.0,0.0005033199833679
0.11500000000000003,6.398511432775032e-07,1.8576055938077258e-06,0.2051353576562633,-8.138817886932239e-05,0.0003333833330336696,0.003504125323463348,1.6977606757573604e-06,1.3490819572004524e-07,0.005093614904072091,7.20447212579413e-05,-1.623428271062196e-05,0.0014219025079296533,-1.7520747639028657e-05,4.059200789921919e-05,2.0209192270679625e-06,-0.0032698975656025404,0.005160603115813615,-0.0005046250207216155,0.0,-0.00037555541063006464,8.217081933172257e-05,31.76446225701922,0.0,0.0,0.0,0.0,0.0,0.20002037029859865,0.0,0.0,0.0005516970776367191,0.0,0.0,0.0,0.0,0.0,0.0,0.0,0.0,0.2000203702985986,0.0,0.0,0.0005516970776367
0.12000000000000004,6.703668118818286e-07,2.983865164346682e-06,0.2051561619709661,5.278320548435348e-05,0.00011549134887769494,0.004030979677932424,1.6977606757573604e-06,1.3490819572004524e-07,0.005093614904072091,7.20447212579413e-05,-1.623428271062196e-05,0.0014219025079296533,-3.2606104842059004e-05,6.799647536797466e-05,-1.6018137556600761e-06,-0.0033554918430208163,0.005986917804567997,-0.0008622551526019077,0.0,-0.00037555541063006464,8.217081933172257e-05,31.76446225701922,0.0,0.0,0.0,0.0,0.0,0.2000232542140242,0.0,0.0,0.0006022272221374515,0.0,0.0,0.0,0.0,0.0,0.0,0.0,0.0,0.2000232542140242,0.0,0.0,0.0006022272221374
0.12500000000000003,6.832011811497355e-07,2.8820909548880496e-06,0.20518318146247058,-5.101194376003154e-05,-3.1847928881020395e-05,0.006566165304109712,1.6977606757573604e-06,1.3490819572004524e-07,0.005093614904072091,7.20447212579413e-05,-1.623428271062196e-05,0.0014219025079296533,-5.759020757386194e-05,0.00010357889429019931,-9.694516065122821e-06,-0.004666956809839788,0.006132842616737822,-0.0020090617384620675,0.0,-0.00037555541063006464,8.217081933172257e-05,31.76446225701922,0.0,0.0,0.0,0.0,0.0,0.200026396145,0.0,0.0,0.0006549018750000005,0.0,0.0,0.0,0.0,0.0,0.0,0.0,0.0,0.200026396145,0.0,0.0,0.000654901875
0.13000000000000003,1.3676609266259442e-08,3.121757741868193e-06,0.20521847970061138,-0.00017593493401213414,0.00013009129153243853,0.00801516200723016,1.6977606757573604e-06,1.3490819572004524e-07,0.005093614904072091,7.20447212579413e-05,-1.623428271062196e-05,0.0014219025079296533,-7.950819751223828e-05,0.0001310757851207729,-2.0342703312701998e-05,-0.004936176668100458,0.00563347241936925,-0.002426942865595795,0.0,-0.00037555541063006464,8.217081933172257e-05,31.76446225701922,0.0,0.0,0.0,0.0,0.0,0.20002980679273608,0.0,0.0,0.0007097125053405766,0.0,0.0,0.0,0.0,0.0,0.0,0.0,0.0,0.200029806792736,0.0,0.0,0.0007097125053405
0.13500000000000004,-6.720575254617599e-07,4.039854713750588e-06,0.20527418090788774,-3.412765124392433e-05,0.00014198835856843553,0.012651664236539267,1.6977606757573604e-06,1.3490819572004524e-07,0.005093614904072091,7.20447212579413e-05,-1.623428271062196e-05,0.0014219025079296533,-0.00010516346004325108,0.0001638306861636159,-3.565259914981859e-05,-0.004189331196197671,0.00597760333804034,-0.0030627086190035367,0.0,-0.00037555541063006464,8.217081933172257e-05,31.76446225701922,0.0,0.0,0.0,0.0,0.0,0.20003349681581545,0.0,0.0,0.0007666505932617191,0.0,0.0,0.0,0.0,0.0,0.0,0.0,0.0,0.2000334968158154,0.0,0.0,0.0007666505932617
0.14000000000000004,-5.76749713575559e-07,4.104808353378283e-06,0.20533587950420853,-1.2062255200440469e-05,-4.952302176998965e-05,0.014427965394728253,1.6977606757573604e-06,1.3490819572004524e-07,0.005093614904072091,7.20447212579413e-05,-1.623428271062196e-05,0.0014219025079296533,-0.0001244665021612458,0.00018782215194933693,-4.998851508939169e-05,-0.0027969150739353293,0.005118070418911079,-0.0030412335285490712,0.0,-0.00037555541063006464,8.217081933172257e-05,31.76446225701922,0.0,0.0,0.0,0.0,0.0,0.2000374768302492,0.0,0.0,0.0008257076298522955,0.0,0.0,0.0,0.0,0.0,0.0,0.0,0.0,0.2000374768302492,0.0,0.0,0.0008257076298522
0.14500000000000005,-1.5975016618985304e-06,4.0408921174702005e-06,0.2054315124817858,-0.0003306630323169846,5.963022259091413e-05,0.019738098266837173,1.6977606757573604e-06,1.3490819572004524e-07,0.005093614904072091,7.20447212579413e-05,-1.623428271062196e-05,0.0014219025079296533,-0.00013827154239873734,0.00021084141947953867,-6.516432500664417e-05,-0.0032472776848140243,0.003868710275807805,-0.0027491256836107173,0.0,-0.00037555541063006464,8.217081933172257e-05,31.76446225701922,0.0,0.0,0.0,0.0,0.0,0.20004175740953126,0.0,0.0,0.0008868751171875003,0.0,0.0,0.0,0.0,0.0,0.0,0.0,0.0,0.2000417574095312,0.0,0.0,0.0008868751171875
0.15000000000000005,-3.4436588276749993e-06,4.894098001228393e-06,0.20552843522461264,-0.00042807761436917176,0.0002463754689069085,0.023037090420829985,1.6977606757573604e-06,1.3490819572004524e-07,0.005093614904072091,7.20447212579413e-05,-1.623428271062196e-05,0.0014219025079296533,-0.00015126054835707165,0.0002200234452257093,-7.677990396958227e-05,-0.002368567100878933,0.0017120000999035505,-0.0023167076686876043,0.0,-0.00037555541063006464,8.217081933172257e-05,31.76446225701922,0.0,0.0,0.0,0.0,0.0,0.20004634908469346,0.0,0.0,0.0009501445683288579,0.0,0.0,0.0,0.0,0.0,0.0,0.0,0.0,0.2000463490846934,0.0,0.0,0.0009501445683288
0.15500000000000005,-5.338513233211696e-06,5.837969527333554e-06,0.2056694737083943,-0.0003073379716320184,7.165760089412318e-05,0.027119749326399233,-5.338513233211696e-06,5.837969527333554e-06,0.005618211364033954,-0.0003073379716320184,7.165760089412318e-05,0.026104241819075013,-0.000160066546520512,0.00022544905948818146,-8.595388581268471e-05,-0.0012387711003364556,-0.00037198781363061584,-0.0016258601286877551,0.0,-0.00037555541063006464,8.217081933172257e-05,31.76446225701922,0.0,0.0,0.0,0.0,0.0,0.20005126234436035,0.0,0.0,0.0010155075073242194,0.0,0.0,0.0,0.0,0.0,0.0,0.0,0.0,0.2000512623443603,0.0,0.0,0.0010155075073242
0.16000000000000006,-7.2467079910207e-06,6.0382639140501855e-06,0.205812976390555,-0.0005365251384013081,5.4536789119846894e-05,0.033599943282308475,-5.338513233211696e-06,5.837969527333554e-06,0.005618211364033954,-0.0003073379716320184,7.165760089412318e-05,0.026104241819075013,-0.00015745265310389782,0.00021690944633563503,-9.011165090731834e-05,0.0010052226007493843,-0.0029739789182119574,7.229945945139182e-05,0.0,0.001423971512967677,-0.0003539352815105851,31.63680056025313,0.0,0.0,0.0,0.0,0.0,0.20005650763480423,0.0,0.0,0.0010829554692077645,0.0,0.0,0.0,0.0,0.0,0.0,0.0,0.0,0.2000565076348042,0.0,0.0,0.0010829554692077
0.16500000000000006,-1.1105408239448278e-05,6.892358798786652e-06,0.206005813255069,-0.0007633420105193087,0.0002904636818703186,0.038470716195663196,-5.338513233211696e-06,5.837969527333554e-06,0.005618211364033954,-0.0003073379716320184,7.165760089412318e-05,0.026104241819075013,-0.00014980604325152703,0.00020542425140350216,-8.743478301158483e-05,0.0026224513022548366,-0.0028507840330020563,0.0008615011861765286,0.0,0.001423971512967677,-0.0003539352815105851,31.63680056025313,0.0,0.0,0.0,0.0,0.0,0.20006209536,0.0,0.0,0.0011524800000000006,0.0,0.0,0.0,0.0,0.0,0.0,0.0,0.0,0.20006209536,0.0,0.0,0.00115248
0.17000000000000007,-1.4699464883582146e-05,8.461480007340197e-06,0.20620228075994645,-0.0007444041287328301,0.0003061758206225921,0.04476383252919051,-5.338513233211696e-06,5.837969527333554e-06,0.005618211364033954,-0.0003073379716320184,7.165760089412318e-05,0.026104241819075013,-0.00014017445818053961,0.00020324732232235106,-7.607369027964655e-05,0.0025200385270599153,0.001018099340128298,0.0036235877907594707,0.0,0.001423971512967677,-0.0003539352815105851,31.63680056025313,0.0,0.0,0.0,0.0,0.0,0.20006803588168015,0.0,0.0,0.0012240726567077647,0.0,0.0,0.0,0.0,0.0,0.0,0.0,0.0,0.2000680358816801,0.0,0.0,0.0012240726567077
0.17500000000000007,-1.8648687569229716e-05,9.409798109161514e-06,0.2064558887203733,-0.0007208615547371607,0.00012565382857825848,0.0505771432498914,-5.338513233211696e-06,5.837969527333554e-06,0.005618211364033954,-0.0003073379716320184,7.165760089412318e-05,0.026104241819075013,-0.00012635143300540158,0.00022114178809861,-5.472389264543558e-05,0.003586466007506815,0.004833671120081275,0.004602231419107344,0.0,0.001423971512967677,-0.0003539352815105851,31.63680056025313,0.0,0.0,0.0,0.0,0.0,0.20007433951938966,0.0,0.0,0.0012977250073242198,0.0,0.0,0.0,0.0,0.0,0.0,0.0,0.0,0.2000743395193896,0.0,0.0,0.0012977250073242
0.18000000000000008,-2.2855746545550887e-05,1.0294506925960096e-05,0.2067099699027302,-0.001065449723150344,0.00023545151366716847,0.05690811919595715,-5.338513233211696e-06,5.837969527333554e-06,0.005618211364033954,-0.0003073379716320184,7.165760089412318e-05,0.026104241819075013,-0.00011012784895252882,0.0002458397278795909,-2.451360391610256e-05,0.0022581202089998224,0.00694823511377095,0.007352730149290394,0.0,0.001423971512967677,-0.0003539352815105851,31.63680056025313,0.0,0.0,0.0,0.0,0.0,0.20008101655054095,0.0,0.0,0.0013734286308288584,0.0,0.0,0.0,0.0,0.0,0.0,0.0,0.0,0.2000810165505409,0.0,0.0,0.0013734286308288
0.18500000000000008,-2.845357137801567e-05,1.2392676598431378e-05,0.20702786397581271,-0.0009290731543978562,0.0004923611974746901,0.06300801359137127,-5.338513233211696e-06,5.837969527333554e-06,0.005618211364033954,-0.0003073379716320184,7.165760089412318e-05,0.026104241819075013,-0.00010243815716484609,0.0002861615386520356,1.84972921644125e-05,0.0005770169733945774,0.007085007396115549,0.009070960712719008,0.0,0.001423971512967677,-0.0003539352815105851,31.63680056025313,0.0,0.0,0.0,0.0,0.0,0.20008807721046876,0.0,0.0,0.0014511751171875013,0.0,0.0,0.0,0.0,0.0,0.0,0.0,0.0,0.2000880772104687,0.0,0.0,0.0014511751171875
0.19000000000000009,-3.2374943171740726e-05,1.4461795737507353e-05,0.2073379459891139,-0.0008363068916459461,0.00039518109249480954,0.06773162983482614,-5.338513233211696e-06,5.837969527333554e-06,0.005618211364033954,-0.0003073379716320184,7.165760089412318e-05,0.026104241819075013,-0.00010294409920819974,0.00032773800819705653,6.71842016199281e-05,-0.00029939336683713165,0.010782612455746948,0.010800804234875134,0.0,0.001423971512967677,-0.0003539352815105851,31.63680056025313,0.0,0.0,0.0,0.0,0.0,0.2000955316924852,0.0,0.0,0.0015309560673522965,0.0,0.0,0.0,0.0,0.0,0.0,0.0,0.0,0.2000955316924852,0.0,0.0,0.0015309560673522
0.1950000000000001,-3.614421652598415e-05,1.647661088751355e-05,0.2077177494091342,-0.0006719181670759023,0.0003810738694116067,0.07476834522372443,-5.338513233211696e-06,5.837969527333554e-06,0.005618211364033954,-0.0003073379716320184,7.165760089412318e-05,0.026104241819075013,-0.00010146300987540254,0.00036728321831032705,0.00012856319517672496,-0.00043003472837212676,0.004750669981186181,0.012372867969501648,0.0,0.001423971512967677,-0.0003539352815105851,31.63680056025313,0.0,0.0,0.0,0.0,0.0,0.20010339014793457,0.0,0.0,0.0016127630932617203,0.0,0.0,0.0,0.0,0.0,0.0,0.0,0.0,0.2001033901479345,0.0,0.0,0.0016127630932617
0.2000000000000001,-4.023683293485e-05,1.8938824379196015e-05,0.20807676845551296,-0.0009092402498037082,0.0006648658520314276,0.0785188091984706,-5.338513233211696e-06,5.837969527333554e-06,0.005618211364033954,-0.0003073379716320184,7.165760089412318e-05,0.026104241819075013,-0.00010199219956023658,0.00039613063904769444,0.0001876424825620419,0.0014285238905036054,0.005063267348985523,0.012721488362669672,0.0,0.001423971512967677,-0.0003539352815105851,31.63680056025313,0.0,0.0,0.0,0.0,0.0,0.20011166268624833,0.0,0.0,0.0016965878178405776,0.0,0.0,0.0,0.0,0.0,0.0,0.0,0.0,0.2001116626862483,0.0,0.0,0.0016965878178405
0.2050000000000001,-4.3827892769132166e-05,2.3012328927681105e-05,0.2085171483465099,-0.0005570240086329288,0.0007502185238984139,0.08503562138278331,-4.3827892769132166e-05,2.3012328927681105e-05,0.008396788971509889,-0.0005570240086329288,0.0007502185238984139,0.08325319950778332,-9.807120356477051e-05,0.0004126256486032108,0.00025737371620323293,-0.0003330226669964801,0.0022369617561213426,0.013475177767083811,0.0,0.001423971512967677,-0.0003539352815105851,31.63680056025313,0.0,0.0,0.0,0.0,0.0,0.200120359375,0.0,0.0,0.0017824218750000017,0.0,0.0,0.0,0.0,0.0,0.0,0.0,0.0,0.200120359375,0.0,0.0,0.001782421875
0.2100000000000001,-4.6535873656481836e-05,2.626343177338823e-05,0.20892458017218257,-0.0005577517381886425,0.0006900085003804854,0.08981104698688304,-4.3827892769132166e-05,2.3012328927681105e-05,0.008396788971509889,-0.0005570240086329288,0.0007502185238984139,0.08325319950778332,-9.305150231288729e-05,0.0004133062783381406,0.00031949493187639053,0.002745376261528536,-0.0011088864849873937,0.013006639798690715,0.0,0.0020116398233498635,-0.002512576939348293,31.46263267395521,0.0,0.0,0.0,0.0,0.0,0.20012949023996018,0.0,0.0,0.0018702569096374529,0.0,0.0,0.0,0.0,0.0,0.0,0.0,0.0,0.2001294902399601,0.0,0.0,0.0018702569096374
0.2150000000000001,-5.005954243053697e-05,3.0201969497439128e-05,0.2094204276528151,-0.0008367366652689736,0.0008145594665273086,0.09441310692420028,-4.3827892769132166e-05,2.3012328927681105e-05,0.008396788971509889,-0.0005570240086329288,0.0007502185238984139,0.08325319950778332,-9.305710949292676e-05,0.0003943700782725884,0.0003914800598031621,-0.0016712238157681116,-0.00607714213127686,0.014001854065521895,0.0,0.0020116398233498635,-0.002512576939348293,31.46263267395521,0.0,0.0,0.0,0.0,0.0,0.20013906526515138,0.0,0.0,0.0019600845776367205,0.0,0.0,0.0,0.0,0.0,0.0,0.0,0.0,0.2001390652651513,0.0,0.0,0.0019600845776367
0.2200000000000001,-5.441597713006813e-05,3.4888835984040716e-05,0.2098743085137539,-0.0009659333072911583,0.0011479677425212079,0.10006224561299952,-4.3827892769132166e-05,2.3012328927681105e-05,0.008396788971509889,-0.0005570240086329288,0.0007502185238984139,0.08325319950778332,-9.941247207435118e-05,0.000349824269293915,0.00045339175361995993,-0.0015731955967985141,-0.010172326886995632,0.012759844706914443,0.0,0.0020116398233498635,-0.002512576939348293,31.46263267395521,0.0,0.0,0.0,0.0,0.0,0.200149094392903,0.0,0.0,0.002051896545867922,0.0,0.0,0.0,0.0,0.0,0.0,0.0,0.0,0.200149094392903,0.0,0.0,0.0020518965458679
0.22500000000000012,-5.984286182680728e-05,4.088125099495597e-05,0.21042075064751467,-0.0011507383587338062,0.001042750968554631,0.1035867129216325,-4.3827892769132166e-05,2.3012328927681105e-05,0.008396788971509889,-0.0005570240086329288,0.0007502185238984139,0.08325319950778332,-0.00011183743930679181,0.0003062920919564063,0.0005263494678644229,-0.0028215990434399788,-0.008449040007328495,0.013797180783558568,0.0,0.0020116398233498635,-0.002512576939348293,31.46263267395521,0.0,0.0,0.0,0.0,0.0,0.20015958752390625,0.0,0.0,0.0021456844921875023,0.0,0.0,0.0,0.0,0.0,0.0,0.0,0.0,0.2001595875239062,0.0,0.0,0.0021456844921875
0.23000000000000012,-6.59370047281069e-05,4.604038652006976e-05,0.21092187976922208,-0.0014960440847062106,0.001183773219131926,0.11029604608604886,-4.3827892769132166e-05,2.3012328927681105e-05,0.008396788971509889,-0.0005570240086329288,0.0007502185238984139,0.08325319950778332,-0.00011542182640621224,0.00025052895943879775,0.000586040692175661,-0.001991563840830283,-0.011445778330071748,0.012322064751547915,0.0,0.0020116398233498635,-0.002512576939348293,31.46263267395521,0.0,0.0,0.0,0.0,0.0,0.20017055451726914,0.0,0.0,0.002241440105438235,0.0,0.0,0.0,0.0,0.0,0.0,0.0,0.0,0.2001705545172691,0.0,0.0,0.0022414401054382
0.23500000000000013,-7.587334124773304e-05,5.305340381698462e-05,0.2115237143980781,-0.0021090222401223976,0.0014986220030800378,0.1152395612127837,-4.3827892769132166e-05,2.3012328927681105e-05,0.008396788971509889,-0.0005570240086329288,0.0007502185238984139,0.08325319950778332,-0.00011758297851768181,0.00020645599426192282,0.0006526990738910458,0.0015296951780174838,-0.009820789718193565,0.011161739512786728,0.0,0.0020116398233498635,-0.002512576939348293,31.46263267395521,0.0,0.0,0.0,0.0,0.0,0.2001820051905713,0.0,0.0,0.0023391550854492214,0.0,0.0,0.0,0.0,0.0,0.0,0.0,0.0,0.2001820051905713,0.0,0.0,0.0023391550854492
0.24000000000000013,-8.654501410529296e-05,6.086758902519307e-05,0.21208141060425037,-0.0023458451165036054,0.0016872990461984608,0.12229562771150677,-4.3827892769132166e-05,2.3012328927681105e-05,0.008396788971509889,-0.0005570240086329288,0.0007502185238984139,0.08325319950778332,-0.0001070036002393268,0.00017487771623379098,0.0006936098317074593,0.002361028310903799,-0.0038880454104087496,0.007872600248535368,0.0,0.0020116398233498635,-0.002512576939348293,31.46263267395521,0.0,0.0,0.0,0.0,0.0,0.200193949319919,0.0,0.0,0.002438821143035891,0.0,0.0,0.0,0.0,0.0,0.0,0.0,0.0,0.200193949319919,0.0,0.0,0.0024388211430358
0.24500000000000013,-0.0001002350479225864,6.917122583337378e-05,0.21275234329677567,-0.002778744181880419,0.001564385067790705,0.12917525426938298,-4.3827892769132166e-05,2.3012328927681105e-05,0.008396788971509889,-0.0005570240086329288,0.0007502185238984139,0.08325319950778332,-8.704948594495126e-05,0.0001598428211698945,0.0007253743843973883,0.006675455754802244,-0.002190065887229197,0.0033406049721841293,0.0,0.0020116398233498635,-0.002512576939348293,31.46263267395521,0.0,0.0,0.0,0.0,0.0,0.20020639664,0.0,0.0,0.002540430000000003,0.0,0.0,0.0,0.0,0.0,0.0,0.0,0.0,0.20020639664,0.0,0.0,0.00254043
0.2500000000000001,-0.00011414986426311269,7.676971580207493e-05,0.2133728081392753,-0.0031220724693487166,0.0016468295671916372,0.13561838819937191,-4.3827892769132166e-05,2.3012328927681105e-05,0.008396788971509889,-0.0005570240086329288,0.0007502185238984139,0.08325319950778332,-6.57702703582568e-05,0.00014656867939427467,0.000732058374065048,0.003303146726274303,-0.0038811350193191574,0.0006214296507042169,0.0,0.0020116398233498635,-0.002512576939348293,31.46263267395521,0.0,0.0,0.0,0.0,0.0,0.20021935684413866,0.0,0.0,0.0026439733891296417,0.0,0.0,0.0,0.0,0.0,0.0,0.0,0.0,0.2002193568441386,0.0,0.0,0.0026439733891296
0.2550000000000001,-0.00013235911056938543,8.654144379809205e-05,0.21411471838570603,-0.003524396294075443,0.0020462393773603062,0.1421364597184605,-0.00013235911056938543,8.654144379809205e-05,0.01388187880135544,-0.003524396294075443,0.0020462393773603062,0.1393870166642613,-5.2163392844370154e-05,0.0001283513136546173,0.0007155677219539235,0.0018679213665890745,-0.0032276146768301247,-0.006317293395510434,0.0,0.0020116398233498635,-0.002512576939348293,31.46263267395521,0.0,0.0,0.0,0.0,0.0,0.2002328395843506,0.0,0.0,0.0027494430541992214,0.0,0.0,0.0,0.0,0.0,0.0,0.0,0.0,0.2002328395843506,0.0,0.0,0.0027494430541992
0.2600000000000001,-0.0001485435163125566,9.607666712003359e-05,0.21479254478310392,-0.0034971732087144807,0.0019042240224162112,0.14717506472759773,-0.00013235911056938543,8.654144379809205e-05,0.01388187880135544,-0.003524396294075443,0.0020462393773603062,0.1393870166642613,-4.939741380012755e-05,0.00011965901659394776,0.0006812127003114315,-0.0014854251869408344,-0.0006397180238559864,-0.008731464016581038,0.0,0.01117996830791883,-0.006490338432394776,31.29821544599975,0.0,0.0,0.0,0.0,0.0,0.20024685447139787,0.0,0.0,0.002856830749969485,0.0,0.0,0.0,0.0,0.0,0.0,0.0,0.0,0.2002468544713978,0.0,0.0,0.0028568307499694
0.2650000000000001,-0.00016878202191296257,0.00010659071357761355,0.215595636250665,-0.004012337016305529,0.002138258232436244,0.15316072912604975,-0.00013235911056938543,8.654144379809205e-05,0.01388187880135544,-0.003524396294075443,0.0020462393773603062,0.1393870166642613,-5.259323657843036e-05,0.00011129598107081947,0.000611909595937788,-0.0009724500990652264,0.0001404455306887398,-0.014884454938858408,0.0,0.01117996830791883,-0.006490338432394776,31.29821544599975,0.0,0.0,0.0,0.0,0.0,0.20026141107484377,0.0,0.0,0.002966128242187503,0.0,0.0,0.0,0.0,0.0,0.0,0.0,0.0,0.2002614110748437,0.0,0.0,0.0029661282421875
0.27000000000000013,-0.00018842609602742324,0.00011719256886810324,0.21632118476729076,-0.0044244007078789805,0.002422495643505377,0.15754877649594098,-0.00013235911056938543,8.654144379809205e-05,0.01388187880135544,-0.003524396294075443,0.0020462393773603062,0.1393870166642613,-6.059695140455365e-05,0.00011042674582236497,0.0005370524826622043,-0.001583799562000116,-0.0008241596467712085,-0.017886282354247135,0.0,0.01117996830791883,-0.006490338432394776,31.29821544599975,0.0,0.0,0.0,0.0,0.0,0.20027651892310777,0.0,0.0,0.003077327307586673,0.0,0.0,0.0,0.0,0.0,0.0,0.0,0.0,0.2002765189231077,0.0,0.0,0.0030773273075866
0.27500000000000013,-0.00021335173958699402,0.00013169481199304232,0.217178391954562,-0.004682672196335153,0.002836448773451866,0.16291245706127755,-0.00013235911056938543,8.654144379809205e-05,0.01388187880135544,-0.003524396294075443,0.0020462393773603062,0.1393870166642613,-5.282895756248074e-05,0.00012317033273368368,0.00042239645715321097,0.0036341838348874366,0.006222835540348657,-0.021971681743714815,0.0,0.01117996830791883,-0.006490338432394776,31.29821544599975,0.0,0.0,0.0,0.0,0.0,0.2002921875035205,0.0,0.0,0.0031904197338867217,0.0,0.0,0.0,0.0,0.0,0.0,0.0,0.0,0.2002921875035205,0.0,0.0,0.0031904197338867
0.28000000000000014,-0.00023545449019357222,0.000144733505854705,0.21795041787470884,-0.004957591692387571,0.0028045803710846262,0.16763440513382266,-0.00013235911056938543,8.654144379809205e-05,0.01388187880135544,-0.003524396294075443,0.0020462393773603062,0.1393870166642613,-2.131064081942598e-05,0.000142261968705076,0.0003124089224284344,0.010488307900709988,0.0030825835634643874,-0.025813196886179113,0.0,0.01117996830791883,-0.006490338432394776,31.29821544599975,0.0,0.0,0.0,0.0,0.0,0.2003084262623787,0.0,0.0,0.0033053973197937044,0.0,0.0,0.0,0.0,0.0,0.0,0.0,0.0,0.2003084262623787,0.0,0.0,0.0033053973197937
0.28500000000000014,-0.00026334542413679964,0.00016059152402113486,0.2188602668312945,-0.005311745436845451,0.0030777447657352997,0.1725380010113844,-0.00013235911056938543,8.654144379809205e-05,0.01388187880135544,-0.003524396294075443,0.0020462393773603062,0.1393870166642613,5.315751405288693e-05,0.0001650845032466948,0.00017029761455027135,0.018077132550542115,0.002015831719127795,-0.026059590110235155,0.0,0.01117996830791883,-0.006490338432394776,31.29821544599975,0.0,0.0,0.0,0.0,0.0,0.200325244605,0.0,0.0,0.0034222518750000037,0.0,0.0,0.0,0.0,0.0,0.0,0.0,0.0,0.200325244605,0.0,0.0,0.003422251875
0.29000000000000015,-0.0002890332070162373,0.00017574461248485648,0.21967800864743564,-0.005687272841146198,0.0033863500999774415,0.17732456797548374,-0.00013235911056938543,8.654144379809205e-05,0.01388187880135544,-0.003524396294075443,0.0020462393773603062,0.1393870166642613,0.00014973320490279925,0.0001609634204441831,4.169385127172924e-05,0.023502895333779826,-0.0028550364672806526,-0.02939772209147194,0.0,0.01117996830791883,-0.006490338432394776,31.29821544599975,0.0,0.0,0.0,0.0,0.0,0.20034265189577805,0.0,0.0,0.0035409752201843296,0.0,0.0,0.0,0.0,0.0,0.0,0.0,0.0,0.200342651895778,0.0,0.0,0.0035409752201843
0.29500000000000015,-0.00031870901967911226,0.0001935035509619983,0.22063834451344694,-0.0054411684921056675,0.003145268984561847,0.18162503472099947,-0.00013235911056938543,8.654144379809205e-05,0.01388187880135544,-0.003524396294075443,0.0020462393773603062,0.1393870166642613,0.0002881500116610182,0.00015080973028107364,-0.00011126994078498299,0.028884587990266525,-0.0031106010543855965,-0.028658446248575806,0.0,0.01117996830791883,-0.006490338432394776,31.29821544599975,0.0,0.0,0.0,0.0,0.0,0.2003606574582373,0.0,0.0,0.0036615591870117225,0.0,0.0,0.0,0.0,0.0,0.0,0.0,0.0,0.2003606574582373,0.0,0.0,0.0036615591870117
0.30000000000000016,-0.0003448398739689132,0.00020760766705133393,0.22149917094094623,-0.005709724699791949,0.003004303252968635,0.18666850431625254,-0.00013235911056938543,8.654144379809205e-05,0.01388187880135544,-0.003524396294075443,0.0020462393773603062,0.1393870166642613,0.0004180927529923704,0.00012288639055818367,-0.0002518903916203358,0.02598134863653327,-0.00576365142435748,-0.03066938244852842,0.0,0.01117996830791883,-0.006490338432394776,31.29821544599975,0.0,0.0,0.0,0.0,0.0,0.20037927057508806,0.0,0.0,0.003783995618133549,0.0,0.0,0.0,0.0,0.0,0.0,0.0,0.0,0.200379270575088,0.0,0.0,0.0037839956181335
0.30500000000000016,-0.00037539971797019583,0.0002228712538526206,0.222506508425187,-0.005765898449323403,0.0028107102089600217,0.19074417823385467,-0.00037539971797019583,0.0002228712538526206,0.022108007936905733,-0.005765898449323403,0.0028107102089600217,0.18683590186666718,0.0005543981512434563,0.00010223156524383083,-0.00041301058571081227,0.023667460054484068,-0.004848299138061824,-0.030522208114762122,0.0,0.01117996830791883,-0.006490338432394776,31.29821544599975,0.0,0.0,0.0,0.0,0.0,0.20039850048828126,0.0,0.0,0.003908276367187504,0.0,0.0,0.0,0.0,0.0,0.0,0.0,0.0,0.2003985004882812,0.0,0.0,0.0039082763671875
0.31000000000000016,-0.00040256351256985536,0.00023538185765827825,0.22341091332356428,-0.005692247006680581,0.002514837894957857,0.1957271468297363,-0.00037539971797019583,0.0002228712538526206,0.022108007936905733,-0.005765898449323403,0.0028107102089600217,0.18683590186666718,0.0006344657509807425,9.039634375261004e-05,-0.0005598773950020934,0.013338083848714441,0.0011296685890851534,-0.031204635843986334,0.0,0.02191330116684375,-0.010771846555028447,31.021988183003245,0.0,0.0,0.0,0.0,0.0,0.20041835639906358,0.0,0.0,0.0040343932987976115,0.0,0.0,0.0,0.0,0.0,0.0,0.0,0.0,0.2004183563990635,0.0,0.0,0.0040343932987976
0.31500000000000017,-0.0004323876993016894,0.00024657728937503966,0.22446667563411613,-0.005700770312021463,0.0018026870963065652,0.2003521271759558,-0.00037539971797019583,0.0002228712538526206,0.022108007936905733,-0.005765898449323403,0.0028107102089600217,0.18683590186666718,0.0006986052084177855,0.00010804621686371023,-0.000730129271465596,0.005855017074226344,0.004803282151569043,-0.03224501049884252,0.0,0.02191330116684375,-0.010771846555028447,31.021988183003245,0.0,0.0,0.0,0.0,0.0,0.20043884746803223,0.0,0.0,0.004162338288574223,0.0,0.0,0.0,0.0,0.0,0.0,0.0,0.0,0.2004388474680322,0.0,0.0,0.0041623382885742
0.3200000000000002,-0.00045917843302120773,0.0002540369820210572,0.22541312988491002,-0.005699997889771158,0.0014725581338599508,0.20439583314285242,-0.00037539971797019583,0.0002228712538526206,0.022108007936905733,-0.005765898449323403,0.0028107102089600217,0.18683590186666718,0.0007006847853768209,0.0001345440720508206,-0.0008787548336814002,-0.002231181905254934,0.004888263261623832,-0.03176592790265955,0.0,0.02191330116684375,-0.010771846555028447,31.021988183003245,0.0,0.0,0.0,0.0,0.0,0.20045998281518998,0.0,0.0,0.004292103223114018,0.0,0.0,0.0,0.0,0.0,0.0,0.0,0.0,0.2004599828151899,0.0,0.0,0.004292103223114
0.3250000000000002,-0.0004899365681052822,0.00026112151878608615,0.22651637935561889,-0.0058404677913756215,0.0011969260518498116,0.20936139381060861,-0.00037539971797019583,0.0002228712538526206,0.022108007936905733,-0.005765898449323403,0.0028107102089600217,0.18683590186666718,0.0006839784673229457,0.00017692258749735175,-0.0010457282449754836,-0.007081805771359918,0.009332040569169062,-0.030687677797102655,0.0,0.02191330116684375,-0.010771846555028447,31.021988183003245,0.0,0.0,0.0,0.0,0.0,0.20048177152000002,0.0,0.0,0.004423680000000005,0.0,0.0,0.0,0.0,0.0,0.0,0.0,0.0,0.20048177152,0.0,0.0,0.00442368
0.3300000000000002,-0.0005159408527444527,0.0002655599073766047,0.22750136827183962,-0.005433080314806652,0.0007652173923802934,0.21219023307021062,-0.00037539971797019583,0.0002228712538526206,0.022108007936905733,-0.005765898449323403,0.0028107102089600217,0.18683590186666718,0.0006636081361304406,0.0002165507061879,-0.0011808290744271767,0.0007270990550420141,0.0063930112917462215,-0.028970937717408888,0.0,0.02191330116684375,-0.010771846555028447,31.021988183003245,0.0,0.0,0.0,0.0,0.0,0.2005042226214409,0.0,0.0,0.004557060527801519,0.0,0.0,0.0,0.0,0.0,0.0,0.0,0.0,0.2005042226214409,0.0,0.0,0.0045570605278015
0.3350000000000002,-0.0005448898408666637,0.00026753620525316296,0.228647889190889,-0.0054754626759601285,0.0001273889793003123,0.21704068660801876,-0.00037539971797019583,0.0002228712538526206,0.022108007936905733,-0.005765898449323403,0.0028107102089600217,0.18683590186666718,0.0006447459100156409,0.00023248696706195548,-0.0013270554979555578,-0.00361020199702952,0.001373928159227445,-0.024976835687290016,0.0,0.02191330116684375,-0.010771846555028447,31.021988183003245,0.0,0.0,0.0,0.0,0.0,0.20052734511806153,0.0,0.0,0.004692236726074224,0.0,0.0,0.0,0.0,0.0,0.0,0.0,0.0,0.2005273451180615,0.0,0.0,0.0046922367260742
0.3400000000000002,-0.0005707197837958443,0.00026818813488349406,0.22966848687008817,-0.0055336508218201885,-1.0756889819329063e-06,0.21990553771783822,-0.00037539971797019583,0.0002228712538526206,0.022108007936905733,-0.005765898449323403,0.0028107102089600217,0.18683590186666718,0.0006513753459897249,0.00022721701690054432,-0.0014411775399302326,0.0022869301629885354,-0.004209839260401558,-0.023700066613056216,0.0,0.02191330116684375,-0.010771846555028447,31.021988183003245,0.0,0.0,0.0,0.0,0.0,0.20055114796803605,0.0,0.0,0.0048292005253601136,0.0,0.0,0.0,0.0,0.0,0.0,0.0,0.0,0.200551147968036,0.0,0.0,0.0048292005253601
0.3450000000000002,-0.0005991172658015102,0.00026669135477177196,0.23085668397510406,-0.005270699278421042,-0.00046546671001403714,0.2245681334442796,-0.00037539971797019583,0.0002228712538526206,0.022108007936905733,-0.005765898449323403,0.0028107102089600217,0.18683590186666718,0.0006252493152336042,0.00017971394791163747,-0.001555215549901164,-0.005331741315550845,-0.005496585401134808,-0.01977922407850968,0.0,0.02191330116684375,-0.010771846555028447,31.021988183003245,0.0,0.0,0.0,0.0,0.0,0.20057564008921877,0.0,0.0,0.004967943867187505,0.0,0.0,0.0,0.0,0.0,0.0,0.0,0.0,0.2005756400892187,0.0,0.0,0.0049679438671875
0.3500000000000002,-0.0006243009615012718,0.0002626398644275077,0.23191329709110997,-0.005455265901133146,-0.001337024374931345,0.22803249070373058,-0.00037539971797019583,0.0002228712538526206,0.022108007936905733,-0.005765898449323403,0.0028107102089600217,0.18683590186666718,0.0006215094034752505,0.00016723330627367166,-0.0016396238098591465,-0.006463371258515167,-0.003616479390521177,-0.01699016700740938,0.0,0.02191330116684375,-0.010771846555028447,31.021988183003245,0.0,0.0,0.0,0.0,0.0,0.20060083035919907,0.0,0.0,0.00510845870407105,0.0,0.0,0.0,0.0,0.0,0.0,0.0,0.0,0.200600830359199,0.0,0.0,0.005108458704071
0.3550000000000002,-0.0006538687894171938,0.000254322840663983,0.233144038908356,-0.005737252004541048,-0.0014926386222440502,0.232345983815028,-0.0006538687894171938,0.000254322840663983,0.032517311292999534,-0.005737252004541048,-0.0014926386222440502,0.22709524681551627,0.0005649247143826118,0.00013598060938108396,-0.0017211930274536472,-0.008836751209104383,-0.0019169998129128568,-0.014879403888249463,0.0,0.02191330116684375,-0.010771846555028447,31.021988183003245,0.0,0.0,0.0,0.0,0.0,0.20062672761535646,0.0,0.0,0.005250736999511725,0.0,0.0,0.0,0.0,0.0,0.0,0.0,0.0,0.2006267276153564,0.0,0.0,0.0052507369995117
0.3600000000000002,-0.0006818165426252041,0.0002457137256903102,0.23423877427361345,-0.0059371257126125555,-0.0021003230597898986,0.23640348742033737,-0.0006538687894171938,0.000254322840663983,0.032517311292999534,-0.005737252004541048,-0.0014926386222440502,0.22709524681551627,0.0005066687191456511,0.00016305289367665444,-0.0017792611453320206,-0.01919920010375023,0.004581188052339369,-0.010806827234121427,0.0,0.027330383106337876,0.002600802001632656,30.677248425324414,0.0,0.0,0.0,0.0,0.0,0.20065334065491533,0.0,0.0,0.005394770727996833,0.0,0.0,0.0,0.0,0.0,0.0,0.0,0.0,0.2006533406549153,0.0,0.0,0.0053947707279968
0.3650000000000002,-0.0007131436938777064,0.00023379835583190578,0.2355112307680786,-0.0060339850511021646,-0.0023120571950701334,0.24027060983244447,-0.0006538687894171938,0.000254322840663983,0.032517311292999534,-0.005737252004541048,-0.0014926386222440502,0.22709524681551627,0.00040452798814700634,0.00019172164059873788,-0.0018342606939260328,-0.015995609991370955,0.010802615040705517,-0.008778403258609966,0.0,0.027330383106337876,0.002600802001632656,30.677248425324414,0.0,0.0,0.0,0.0,0.0,0.20068067823500002,0.0,0.0,0.005540551875000008,0.0,0.0,0.0,0.0,0.0,0.0,0.0,0.0,0.200680678235,0.0,0.0,0.005540551875
0.3700000000000002,-0.0007418083155630456,0.0002206423314363525,0.2366411490393856,-0.006031110096167434,-0.0030550812235270453,0.24374068856606085,-0.0006538687894171938,0.000254322840663983,0.032517311292999534,-0.005737252004541048,-0.0014926386222440502,0.22709524681551627,0.0003160711159007354,0.0002539415142704569,-0.001861306953124234,-0.02054586739350164,0.009501460356617804,-0.0041085582705911285,0.0,0.027330383106337876,0.002600802001632656,30.677248425324414,0.0,0.0,0.0,0.0,0.0,0.20070874907268968,0.0,0.0,0.005688072436981207,0.0,0.0,0.0,0.0,0.0,0.0,0.0,0.0,0.2007087490726896,0.0,0.0,0.0056880724369812
0.3750000000000002,-0.0007733642853970984,0.00020647165679226072,0.23795022411712619,-0.0060227225671113166,-0.002453931881690102,0.2470708264724637,-0.0006538687894171938,0.000254322840663983,0.032517311292999534,-0.005737252004541048,-0.0014926386222440502,0.22709524681551627,0.0002496473325292236,0.00027318480597283973,-0.001881719551244789,-0.00831362484560471,0.0048256052120261355,-0.001419800265073721,0.0,0.027330383106337876,0.002600802001632656,30.677248425324414,0.0,0.0,0.0,0.0,0.0,0.20073756184507324,0.0,0.0,0.0058373244213867255,0.0,0.0,0.0,0.0,0.0,0.0,0.0,0.0,0.2007375618450732,0.0,0.0,0.0058373244213867
0.3800000000000002,-0.0007993497710106558,0.0001938129166547513,0.23911273695246132,-0.0051865401736336195,-0.002717168741600842,0.2504617711544612,-0.0006538687894171938,0.000254322840663983,0.032517311292999534,-0.005737252004541048,-0.0014926386222440502,0.22709524681551627,0.00021674333590830343,0.00028294670473037167,-0.001875747289389247,-0.001022516405685439,-0.000787463253597051,0.0011760079019360035,0.0,0.027330383106337876,0.002600802001632656,30.677248425324414,0.0,0.0,0.0,0.0,0.0,0.20076712518930437,0.0,0.0,0.005988299846649177,0.0,0.0,0.0,0.0,0.0,0.0,0.0,0.0,0.2007671251893043,0.0,0.0,0.0059882998466491
0.38500000000000023,-0.0008257245027229476,0.00017994892462688803,0.24045701816786114,-0.005005456901898094,-0.0026905126806819903,0.253649574882012,-0.0006538687894171938,0.000254322840663983,0.032517311292999534,-0.005737252004541048,-0.0014926386222440502,0.22709524681551627,0.0002510706641793245,0.0002387517945983263,-0.0018552394840994934,0.009660395367430116,-0.00949468667175889,0.007714888110530378,0.0,0.027330383106337876,0.002600802001632656,30.677248425324414,0.0,0.0,0.0,0.0,0.0,0.20079744770265626,0.0,0.0,0.0061409907421875074,0.0,0.0,0.0,0.0,0.0,0.0,0.0,0.0,0.2007974477026562,0.0,0.0,0.0061409907421875
0.39000000000000024,-0.0008470401456043577,0.00016639868712798288,0.24164888065634635,-0.004290821163458668,-0.0027390849978144952,0.256221419821233,-0.0006538687894171938,0.000254322840663983,0.032517311292999534,-0.005737252004541048,-0.0014926386222440502,0.22709524681551627,0.00031661161224919514,0.00019815233327504452,-0.001810259825355894,0.019862221325359225,-0.00997384345857457,0.00800965562155123,0.0,0.027330383106337876,0.002600802001632656,30.677248425324414,0.0,0.0,0.0,0.0,0.0,0.20082853794257677,0.0,0.0,0.006295389148406991,0.0,0.0,0.0,0.0,0.0,0.0,0.0,0.0,0.2008285379425767,0.0,0.0,0.0062953891484069
0.39500000000000024,-0.0008693853648777646,0.00015329240037077708,0.2430239379008376,-0.004085718886897543,-0.0025891755581401465,0.259087708576182,-0.0006538687894171938,0.000254322840663983,0.032517311292999534,-0.005737252004541048,-0.0014926386222440502,0.22709524681551627,0.0004521335692905227,0.00014505155496903196,-0.0017428284249944642,0.025970817751578952,-0.007544087670860306,0.017639045543142065,0.0,0.027330383106337876,0.002600802001632656,30.677248425324414,0.0,0.0,0.0,0.0,0.0,0.2008604044267432,0.0,0.0,0.0064514871166992255,0.0,0.0,0.0,0.0,0.0,0.0,0.0,0.0,0.2008604044267432,0.0,0.0,0.0064514871166992
0.40000000000000024,-0.0008864087279345781,0.00014035227255796117,0.2442389079713439,-0.0033649617689374095,-0.0028185482308242045,0.26084315953752574,-0.0006538687894171938,0.000254322840663983,0.032517311292999534,-0.005737252004541048,-0.0014926386222440502,0.22709524681551627,0.00059418579727079,0.00014488443283596267,-0.0016668271137664091,0.03350003884089376,0.0028445006196973453,0.014890778165762385,0.0,0.027330383106337876,0.002600802001632656,30.677248425324414,0.0,0.0,0.0,0.0,0.0,0.20089305563311724,0.0,0.0,0.006609276709442147,0.0,0.0,0.0,0.0,0.0,0.0,0.0,0.0,0.2008930556331172,0.0,0.0,0.0066092767094421
0.40500000000000025,-0.0009047522327368204,0.0001241737683576183,0.24563856072855067,-0.0034815088534928644,-0.0033526594527632726,0.26355850488696864,-0.0009047522327368204,0.0001241737683576183,0.04471206072855066,-0.0034815088534928644,-0.0033526594527632726,0.25678975488696865,0.0007611282946092619,0.0001664405469432409,-0.0015582917106060571,0.030150223350954453,0.007211679255769234,0.02429045639158001,0.0,0.027330383106337876,0.002600802001632656,30.677248425324414,0.0,0.0,0.0,0.0,0.0,0.2009265,0.0,0.0,0.00676875000000001,0.0,0.0,0.0,0.0,0.0,0.0,0.0,0.0,0.2009265,0.0,0.0,0.00676875
0.41000000000000025,-0.0009196804497694334,0.00010898745857053729,0.24687165128138566,-0.0029789526897006737,-0.0031343576915676646,0.2651141608102709,-0.0009047522327368204,0.0001241737683576183,0.04471206072855066,-0.0034815088534928644,-0.0033526594527632726,0.25678975488696865,0.0009031431042269303,0.0002255327943140318,-0.00146161167585016,0.028785855425408097,0.016393202855960888,0.02063319650717831,0.0,0.022394146874958824,0.010347605838105702,30.433812442573792,0.0,0.0,0.0,0.0,0.0,0.2009607459260869,0.0,0.0,0.006929899072723397,0.0,0.0,0.0,0.0,0.0,0.0,0.0,0.0,0.2009607459260869,0.0,0.0,0.0069298990727233
0.41500000000000026,-0.0009354563705478593,9.152441484435128e-05,0.2482920013271018,-0.002882223657618137,-0.0035425456843799757,0.2671484760322155,-0.0009047522327368204,0.0001241737683576183,0.04471206072855066,-0.0034815088534928644,-0.0033526594527632726,0.25678975488696865,0.001026361138400631,0.00030002583872010806,-0.0013249976684832246,0.02148369994087346,0.014073114328492986,0.02729043849109022,0.0,0.022394146874958824,0.010347605838105702,30.433812442573792,0.0,0.0,0.0,0.0,0.0,0.20099580177052248,0.0,0.0,0.0070927160229492265,0.0,0.0,0.0,0.0,0.0,0.0,0.0,0.0,0.2009958017705224,0.0,0.0,0.0070927160229492
0.42000000000000026,-0.000947732163338992,7.442400748938128e-05,0.24954243178013075,-0.002562959571724724,-0.003688914486026778,0.26909312522445344,-0.0009047522327368204,0.0001241737683576183,0.04471206072855066,-0.0034815088534928644,-0.0033526594527632726,0.25678975488696865,0.0011198784552065558,0.0003740947281381304,-0.0012099124402160464,0.01834535132402873,0.015368086092196552,0.02515258821520933,0.0,0.022394146874958824,0.010347605838105702,30.433812442573792,0.0,0.0,0.0,0.0,0.0,0.20103167585295548,0.0,0.0,0.007257192957000742,0.0,0.0,0.0,0.0,0.0,0.0,0.0,0.0,0.2010316758529554,0.0,0.0,0.0072571929570007
0.42500000000000027,-0.0009621734381373649,5.347886688290119e-05,0.25098234323593815,-0.0027609970111671794,-0.003975085015850416,0.27064078611602366,-0.0009047522327368204,0.0001241737683576183,0.04471206072855066,-0.0034815088534928644,-0.0033526594527632726,0.25678975488696865,0.0011878332184947831,0.0004098456872129194,-0.0010545335786364223,0.01185011845957657,0.004129414501064506,0.0289173047789991,0.0,0.022394146874958824,0.010347605838105702,30.433812442573792,0.0,0.0,0.0,0.0,0.0,0.20106837645359377,0.0,0.0,0.007423321992187509,0.0,0.0,0.0,0.0,0.0,0.0,0.0,0.0,0.2010683764535937,0.0,0.0,0.0074233219921875
0.43000000000000027,-0.0009743999307303028,3.6002847828552086e-05,0.2522500970578203,-0.0025727171966915285,-0.003565367891064036,0.2725922770131597,-0.0009047522327368204,0.0001241737683576183,0.04471206072855066,-0.0034815088534928644,-0.0033526594527632726,0.25678975488696865,0.0012164288265813657,0.00042692682484243486,-0.0009222468938803562,0.0044151013420529635,-0.0008929060895844739,0.029759086722669387,0.0,0.022394146874958824,0.010347605838105702,30.433812442573792,0.0,0.0,0.0,0.0,0.0,0.20110591181325913,0.0,0.0,0.007591095256805429,0.0,0.0,0.0,0.0,0.0,0.0,0.0,0.0,0.2011059118132591,0.0,0.0,0.0075910952568054
0.4350000000000003,-0.0009889900889814044,1.5848673972844603e-05,0.25371003574238127,-0.002830184883592601,-0.003921809918594948,0.27420734970809635,-0.0009047522327368204,0.0001241737683576183,0.04471206072855066,-0.0034815088534928644,-0.0033526594527632726,0.25678975488696865,0.0012040769713963842,0.00039845796783655033,-0.0007487429408036031,-0.0061649142370783575,-0.004278434295061548,0.03158268546606417,0.0,0.022394146874958824,0.010347605838105702,30.433812442573792,0.0,0.0,0.0,0.0,0.0,0.2011442901334424,0.0,0.0,0.007760504890136729,0.0,0.0,0.0,0.0,0.0,0.0,0.0,0.0,0.2011442901334424,0.0,0.0,0.0077605048901367
0.4400000000000003,-0.0010027693694972116,-2.507794625859777e-06,0.2549957262436291,-0.0030613941794270035,-0.00403600417116363,0.27646834702928114,-0.0009047522327368204,0.0001241737683576183,0.04471206072855066,-0.0034815088534928644,-0.0033526594527632726,0.25678975488696865,0.001175485344634296,0.00036859833045264066,-0.0006006447569880831,-0.008117798116157026,-0.012756251862132658,0.033570345396592996,0.0,0.022394146874958824,0.010347605838105702,30.433812442573792,0.0,0.0,0.0,0.0,0.0,0.2011835195763582,0.0,0.0,0.00793154304244996,0.0,0.0,0.0,0.0,0.0,0.0,0.0,0.0,0.2011835195763582,0.0,0.0,0.0079315430424499
0.4450000000000003,-0.0010216522529141983,-2.3252722984013207e-05,0.2564752753027646,-0.0037639062318798855,-0.0037913301843877706,0.2778711800069364,-0.0009047522327368204,0.0001241737683576183,0.04471206072855066,-0.0034815088534928644,-0.0033526594527632726,0.25678975488696865,0.0011186603778059697,0.00030751132865366066,-0.00041579211464914397,-0.014046743830695934,-0.006962338521040282,0.03443886004056616,0.0,0.022394146874958824,0.010347605838105702,30.433812442573792,0.0,0.0,0.0,0.0,0.0,0.20122360826500002,0.0,0.0,0.008104201875000008,0.0,0.0,0.0,0.0,0.0,0.0,0.0,0.0,0.201223608265,0.0,0.0,0.008104201875
0.4500000000000003,-0.0010391085822199617,-4.024447137796042e-05,0.2577785156554176,-0.003832591979805619,-0.0036082266316214543,0.2802526416105582,-0.0009047522327368204,0.0001241737683576183,0.04471206072855066,-0.0034815088534928644,-0.0033526594527632726,0.25678975488696865,0.0010714670659102545,0.00026127722192945075,-0.0002470919953635393,-0.009162224894862122,-0.014215866588332297,0.038523582800050166,0.0,0.022394146874958824,0.010347605838105702,30.433812442573792,0.0,0.0,0.0,0.0,0.0,0.20126456428319506,0.0,0.0,0.008278473560028086,0.0,0.0,0.0,0.0,0.0,0.0,0.0,0.0,0.201264564283195,0.0,0.0,0.008278473560028
0.4550000000000003,-0.0010610600666775287,-5.9562547882738726e-05,0.25927775272618614,-0.004195962742380142,-0.0037416824842190248,0.2818053378790254,-0.0010610600666775287,-5.9562547882738726e-05,0.057971357050526945,-0.004195962742380142,-0.0037416824842190248,0.27335098759826365,0.001038155133850129,0.00021735755677379309,-4.6728599121384926e-05,-0.004979540309865155,-0.0048044366428836565,0.036690743407750775,0.0,0.022394146874958824,0.010347605838105702,30.433812442573792,0.0,0.0,0.0,0.0,0.0,0.2013063956756592,0.0,0.0,0.008454350280761731,0.0,0.0,0.0,0.0,0.0,0.0,0.0,0.0,0.2013063956756592,0.0,0.0,0.0084543502807617
0.4600000000000003,-0.0010801111898181182,-7.764043451750609e-05,0.2605971473394437,-0.004262527441179826,-0.003790471556599402,0.28356607524361765,-0.0010610600666775287,-5.9562547882738726e-05,0.057971357050526945,-0.004195962742380142,-0.0037416824842190248,0.27335098759826365,0.0010306207607731557,0.000164709291317742,0.00012991342420343936,0.0029324366500679527,-0.01223720382189796,0.03888019020959596,0.0,0.023901078446296478,0.012946350643499804,30.360893152638017,0.0,0.0,0.0,0.0,0.0,0.20134911044805193,0.0,0.0,0.008631824231414805,0.0,0.0,0.0,0.0,0.0,0.0,0.0,0.0,0.2013491104480519,0.0,0.0,0.0086318242314148
0.4650000000000003,-0.0011029125892019398,-9.825723633139763e-05,0.26211347288955267,-0.004093928134523109,-0.0039666632276526125,0.285143593342691,-0.0010610600666775287,-5.9562547882738726e-05,0.057971357050526945,-0.004195962742380142,-0.0037416824842190248,0.27335098759826365,0.001035611961071428,0.00013184175477659658,0.0003311803896490468,-0.00038229035420145053,-0.0038498657121930715,0.03777376332664064,0.0,0.023901078446296478,0.012946350643499804,30.360893152638017,0.0,0.0,0.0,0.0,0.0,0.20139271656703125,0.0,0.0,0.008810887617187511,0.0,0.0,0.0,0.0,0.0,0.0,0.0,0.0,0.2013927165670312,0.0,0.0,0.0088108876171875
0.4700000000000003,-0.0011204586842224658,-0.0001173512730725767,0.26344688183952575,-0.003759464020869226,-0.0041490609280960935,0.28624949746142275,-0.0010610600666775287,-5.9562547882738726e-05,0.057971357050526945,-0.004195962742380142,-0.0037416824842190248,0.27335098759826365,0.001037491227214428,0.00010419963818919022,0.0005091722886109595,0.001550974641422279,-0.0029817109542507264,0.03722623537739188,0.0,0.023901078446296478,0.012946350643499804,30.360893152638017,0.0,0.0,0.0,0.0,0.0,0.2014372219603087,0.0,0.0,0.008991532654266369,0.0,0.0,0.0,0.0,0.0,0.0,0.0,0.0,0.2014372219603087,0.0,0.0,0.0089915326542663
0.4750000000000003,-0.0011395800630294355,-0.00014258964831945014,0.264978675660654,-0.0032376442961619244,-0.0051943190289871965,0.2880033253069819,-0.0010610600666775287,-5.9562547882738726e-05,0.057971357050526945,-0.004195962742380142,-0.0037416824842190248,0.27335098759826365,0.0010128714715976286,0.0001331615840394412,0.0007039939592702418,-0.009039171044805363,0.006689098609607388,0.036321285532016155,0.0,0.023901078446296478,0.012946350643499804,30.360893152638017,0.0,0.0,0.0,0.0,0.0,0.20148263451670412,0.0,0.0,0.00917375156982423,0.0,0.0,0.0,0.0,0.0,0.0,0.0,0.0,0.2014826345167041,0.0,0.0,0.0091737515698242
