time,pos_x,pos_y,pos_z,vel_x,vel_y,vel_z,pos_xo,pos_yo,pos_zo,vel_xo,vel_yo,vel_zo,roll,pitch,yaw,roll_vel,pitch_vel,yaw_vel,thrust_z,force_x,force_y,force_z,torque_x,torque_y,torque_z,pos_xd,pos_yd,pos_zd,vel_xd,vel_yd,vel_zd,roll_d,pitch_d,yaw_d,roll_vel_d,pitch_vel_d,yaw_vel_d,pos_xr,pos_yr,pos_zr,vel_xr,vel_yr,vel_zr
0.05000238418579102,0.010914251208305359,-0.04532010108232498,0.18216779828071594,0.0,0.0,0.0,0.010914251208305359,-0.04532010108232498,0.18216779828071594,0.0,0.0,-3.3306670886422953e-13,0.06879065989121624,0.01087013454516228,0.021183092269577486,0.0,0.0,0.0,0.0,1.1286307491036227e-13,-3.4672323719123583e-15,12.949199999999019,0.0,0.0,0.0,0.0,0.0,2.646976776878472e-19,0.0,0.0,3.3306670886422953e-13,0.0,0.0,0.0,0.0,0.0,0.0,0.0,0.0,0.0,0.0,0.0,0.0
0.10000238418579102,0.010894585400819778,-0.045381590723991394,0.18219520151615143,-0.007224662062434274,0.0039444956640887685,0.0037608823277560746,0.010894585400819778,-0.045381590723991394,0.1821927825959542,-0.007224662062434274,0.0039444956640887685,0.0036162095760814824,0.06203838047428256,0.009361722804546613,0.02061111720605968,-0.002010299125686288,-0.0007760328007861973,-0.0011309641413390636,0.0,-1.5877521717797778,-0.2132889896971964,16.824346213360723,0.0,0.0,0.0,0.0,0.0,2.418920197241218e-06,0.0,0.0,0.00014467275167459197,0.0,0.0,0.0,0.0,0.0,0.0,0.0,0.0,2.418575286865234e-06,0.0,0.0,0.0001446590423583
0.15000238418579104,0.010984753258526325,-0.04541942477226257,0.18235093355178833,-0.007546683442025216,0.003458409456299363,0.008610266625447538,0.010984753258526325,-0.04541942477226257,0.18233176531936154,-0.007546683442025216,0.003458409456299363,0.008038859109234273,0.06462534850801527,0.011384939064103428,0.02070822936756045,-0.0020093454513698816,-0.001779334503225984,-0.01445741206407547,0.0,-1.7464066221696912,-0.26928407269312366,17.275737738235794,0.0,0.0,0.0,0.0,0.0,1.916823242679995e-05,0.0,0.0,0.0005714075162132652,0.0,0.0,0.0,0.0,0.0,0.0,0.0,0.0,1.9166870117187512e-05,0.0,0.0,0.0005713806152343
0.20000238418579103,0.010984272696077824,-0.044967539608478546,0.18509100377559662,-0.009088732716421879,0.013993447213375445,0.06516456806492435,0.010984272696077824,-0.044967539608478546,0.18502692281865077,-0.009088732716421879,0.013993447213375445,0.06389514409889956,0.06655750670572491,0.011644525884496382,0.02216036239832775,0.06444422900676727,-0.03738714009523391,0.0755821093916893,0.0,-0.8105810953615552,-0.03588952003244403,14.310713115497546,0.0,0.0,0.0,0.0,0.0,6.408095694583667e-05,0.0,0.0,0.001269423966024792,0.0,0.0,0.0,0.0,0.0,0.0,0.0,0.0,6.407793045043952e-05,0.0,0.0,0.0012693843841552
0.250002384185791,0.01204031053930521,-0.043853819370269775,0.19320529699325562,0.028777439932817613,0.028489069140573458,0.17910455954986487,0.01204031053930521,-0.043853819370269775,0.19305484246241278,0.028777439932817613,0.028489069140573458,0.17687648044757842,0.06554125008736955,0.009196357271592959,0.02172414161026559,0.05933989956974983,0.09547202289104462,-0.007742630317807209,0.0,0.21265937511561026,0.17800455311813812,10.974913523098195,0.0,0.0,0.0,0.0,0.0,0.00015045453084283587,0.0,0.0,0.00222807910228644,0.0,0.0,0.0,0.0,0.0,0.0,0.0,0.0,0.00015044921875,0.0,0.0,0.00222802734375
0.300002384185791,0.015748808160424232,-0.042236123234033585,0.2004953920841217,0.06068242580528079,0.029907736448584025,0.1519427884248495,0.015748808160424232,-0.042236123234033585,0.200204334409629,0.06068242580528079,0.029907736448584025,0.14850592116957248,0.06225729299670313,0.0215425827462159,0.020520460253685258,0.014775468967854977,0.369859516620636,-0.003715939121320889,0.0,0.5149131812949318,0.22658699335430144,9.262758271696303,0.0,0.0,0.0,0.0,0.0,0.0002910576744926845,0.0,0.0,0.0034368672552770405,0.0,0.0,0.0,0.0,0.0,0.0,0.0,0.0,0.0002910494804382,0.0,0.0,0.003436803817749
0.350002384185791,0.02237352915108204,-0.03992578759789467,0.20141512155532837,0.12286709145288455,0.04913762734140543,-0.043559985298035675,0.02237352915108204,-0.03992578759789467,0.2009169842973166,0.12286709145288455,0.04913762734140543,-0.04844540538241266,0.06954021632072749,0.04621234458010193,0.018463395769404478,-0.06594347208738327,0.5591656565666199,-0.020895030349493096,0.0,0.15527004059147764,0.1606151057634438,9.952091733342115,0.0,0.0,0.0,0.0,0.0,0.0004981372580117502,0.0,0.0,0.004885420084376985,0.0,0.0,0.0,0.0,0.0,0.0,0.0,0.0,0.0004981256103515,0.0,0.0,0.0048853454589843
0.400002384185791,0.030049357563257217,-0.037256933748722076,0.194778174161911,0.13905133370115616,0.05504700468816783,-0.150492304345397,0.030049357563257217,-0.037256933748722076,0.19399474899419805,0.13905133370115616,0.05504700468816783,-0.15705581092346524,0.05983349536905136,0.0678486673631209,0.01407803005953312,-0.011900569312274456,0.39737340807914734,-0.043758146464824725,0.0,-0.6875229025902929,-0.04160298184104767,12.281971395658507,0.0,0.0,0.0,0.0,0.0,0.0007834251677129593,0.0,0.0,0.0065635065780682315,0.0,0.0,0.0,0.0,0.0,0.0,0.0,0.0,0.0007834095191955,0.0,0.0,0.0065634212493896
0.45000238418579097,0.03439461067318916,-0.03406643494963646,0.18717573583126068,-0.023307942710740007,0.09673791932654993,-0.015782263761896682,0.03439461067318916,-0.03406643494963646,0.1860175906586998,-0.023307942710740007,0.09673791932654993,-0.024243296815830977,0.056650121599009395,0.058184839680563094,0.014397033292191885,-0.03519099950790405,-1.5728787183761597,-0.16033433377742748,0.0,-1.1265979013687564,-0.14943358794780337,13.793486284764214,0.0,0.0,0.0,0.0,0.0,0.001158145172560875,0.0,0.0,0.008461033053934296,0.0,0.0,0.0,0.0,0.0,0.0,0.0,0.0,0.001158125,0.0,0.0,0.0084609375
0.500002384185791,0.03268144279718399,-0.03147292509675026,0.18695476651191711,-0.008450433981015066,0.0498505472621697,0.051066932874372466,0.03268144279718399,-0.03147292509675026,0.18532174672129034,-0.008450433981015066,0.0498505472621697,0.04049888971571221,0.06662849546180993,-0.008228543554529733,0.01427744779790352,0.3512386977672577,-0.5195018649101257,-0.04778316244482988,0.0,-0.6053485997158935,-0.2954715816171406,13.54187499404195,0.0,0.0,0.0,0.0,0.0,0.0016330197906267753,0.0,0.0,0.01056804315866026,0.0,0.0,0.0,0.0,0.0,0.0,0.0,0.0,0.0016329945945739,0.0,0.0,0.0105679378509521
0.5500023841857911,0.037598345428705215,-0.03019322082400322,0.18867196142673492,0.14676638546217935,0.05591297134589532,0.06873564333672891,0.037598345428705215,-0.03019322082400322,0.1864536842711912,0.14676638546217935,0.05591297134589532,0.055860925468696136,0.08121264074010481,-0.01594515986689693,0.012962828838348983,0.24164654314517975,0.148539200425148,-0.04554871842265131,0.0,-0.6139354368509439,-0.15846914524809574,13.323301704905015,0.0,0.0,0.0,0.0,0.0,0.002218277155543732,0.0,0.0,0.012874717868032771,0.0,0.0,0.0,0.0,0.0,0.0,0.0,0.0,0.0022182464599609,0.0,0.0,0.0128746032714843
0.6000023841857911,0.04727122187614441,-0.027169447392225266,0.19306115806102753,0.1660177253590285,0.06465222400382196,0.08852445834394898,0.04727122187614441,-0.027169447392225266,0.19013750017806583,0.1660177253590285,0.06465222400382196,0.07315308285700894,0.08714239471889984,-0.0035661924302621273,0.009110450843197171,0.11024483293294907,0.23677220940589905,-0.0553054213523865,0.0,-0.9660852119064924,-0.14350905719195162,12.644779584772358,0.0,0.0,0.0,0.0,0.0,0.002923657882961688,0.0,0.0,0.01537137548694003,0.0,0.0,0.0,0.0,0.0,0.0,0.0,0.0,0.0029236212348938,0.0,0.0,0.0153712520599365
0.6500023841857911,0.05519098788499832,-0.023839693516492844,0.19644694030284882,0.18617345107456565,0.08559570148961115,0.09366308240820793,0.05519098788499832,-0.023839693516492844,0.19268851836584627,0.18617345107456565,0.08559570148961115,0.07561461075883613,0.09601778646824055,0.0012699163608713704,0.00878293330204638,-0.008986500091850758,0.09858734160661697,0.0023324987851083157,0.0,-1.0391534629992218,-0.17430918626335112,12.372280746003236,0.0,0.0,0.0,0.0,0.0,0.003758421937002533,0.0,0.0,0.018048471649371803,0.0,0.0,0.0,0.0,0.0,0.0,0.0,0.0,0.00375837890625,0.0,0.0,0.01804833984375
0.7000023841857912,0.0660683736205101,-0.019353441894054413,0.20035691559314728,0.1903852436881629,0.08097913119936304,0.08374231651037937,0.0660683736205101,-0.019353441894054413,0.1956255600964321,0.1903852436881629,0.08097913119936304,0.06284571719195994,0.09177720672200529,0.004335732078734278,0.010308010461091754,0.0006671876180917025,0.027396287769079215,0.06186600774526596,0.0,-1.1638399066746294,-0.25562273557480164,12.276097105548942,0.0,0.0,0.0,0.0,0.0,0.0047313554967151885,0.0,0.0,0.020896599318419428,0.0,0.0,0.0,0.0,0.0,0.0,0.0,0.0,0.0047313056755066,0.0,0.0,0.0208964595794678
0.7500023841857912,0.07570447027683258,-0.015445694327354431,0.20243319869041443,0.20498503879960733,0.08245599326460565,0.04815846853660455,0.07570447027683258,-0.015445694327354431,0.19658242086788374,0.20498503879960733,0.08245599326460565,0.024251979750328757,0.09317766780240122,-0.0011175316491938148,0.008335963452595685,-0.021976392716169357,-0.10915371775627136,-0.017593076452612863,0.0,-1.1986165904498787,-0.24929963144739642,12.126658512389524,0.0,0.0,0.0,0.0,0.0,0.005850777822530678,0.0,0.0,0.02390648878627579,0.0,0.0,0.0,0.0,0.0,0.0,0.0,0.0,0.0058507208251953,0.0,0.0,0.0239063415527344
0.8000023841857913,0.08586598932743073,-0.01171216182410717,0.20274744927883148,0.2153005553208488,0.07888720856839315,0.027399267836961692,0.08586598932743073,-0.01171216182410717,0.19562290115611428,0.2153005553208488,0.07888720856839315,0.0003302601627263417,0.08629586126087396,-0.0005390673916756406,0.012019965705578173,-0.05349929630756378,-0.13770458102226257,-0.010612175799906236,0.0,-1.3715283602067447,-0.2858325541399488,12.489421936801664,0.0,0.0,0.0,0.0,0.0,0.00712454812271721,0.0,0.0,0.02706900767423535,0.0,0.0,0.0,0.0,0.0,0.0,0.0,0.0,0.0071244835853576,0.0,0.0,0.0270688533782959
0.8500023841857913,0.09507687389850616,-0.008339382708072662,0.20203706622123718,0.2332073149347144,0.07659664421053379,-0.002657478080337909,0.09507687389850616,-0.008339382708072662,0.19347699380140193,0.2332073149347144,0.07659664421053379,-0.033032639013032036,0.08750251278799803,-0.010182845539135066,0.01027225547335231,-0.0011726480443030596,-0.16994820535182953,0.03269290179014208,0.0,-1.49820620389344,-0.29933740016336696,12.707559373873142,0.0,0.0,0.0,0.0,0.0,0.008560072419835255,0.0,0.0,0.030375160932694125,0.0,0.0,0.0,0.0,0.0,0.0,0.0,0.0,0.00856,0.0,0.0,0.030375
0.9000023841857914,0.10787519067525864,-0.004497181158512831,0.20049665868282318,0.24186700907228806,0.07209669587111198,-0.010962666310897866,0.10787519067525864,-0.004497181158512831,0.19033234826563056,0.24186700907228806,0.07209669587111198,-0.04477875715204755,0.08826415817410593,-0.01828662718753904,0.013108738733796699,0.06717684119939804,-0.18500174582004547,0.01075009070336821,0.0,-1.6182627183692546,-0.3079536606099668,12.835572848450553,0.0,0.0,0.0,0.0,0.0,0.010164310417192627,0.0,0.0,0.033816090841149685,0.0,0.0,0.0,0.0,0.0,0.0,0.0,0.0,0.0101642297935486,0.0,0.0,0.0338159236907959
0.9500023841857914,0.11958922445774078,-0.0010728848865255713,0.19878993928432465,0.25582106541967925,0.06912889187222614,-0.016569560313574684,0.11958922445774078,-0.0010728848865255713,0.1868461569190251,0.25582106541967925,0.06912889187222614,-0.053952637321775875,0.09263398922154531,-0.03139566938191152,0.010738456125758411,0.060154590755701065,-0.1853010505437851,-0.006310976110398747,0.0,-1.7386701325981608,-0.31729693086821187,12.928875050608506,0.0,0.0,0.0,0.0,0.0,0.011943782365299548,0.0,0.0,0.03738307700820119,0.0,0.0,0.0,0.0,0.0,0.0,0.0,0.0,0.0119436932373047,0.0,0.0,0.0373829040527344
1.0000023841857915,0.13172423839569092,0.00184896111022681,0.19782577455043793,0.26270671658170525,0.06869772864358777,-0.008681750556434007,0.13172423839569092,0.00184896111022681,0.18392119862211417,0.26270671658170525,0.06869772864358777,-0.049749286927983354,0.10029970014268796,-0.03725522149378424,0.016794022673155773,0.030200522392988205,-0.1336347907781601,0.01420478522777559,0.0,-1.8682358262504417,-0.3293734720422371,13.00772556044934,0.0,0.0,0.0,0.0,0.0,0.013904575928323748,0.0,0.0,0.04106753637154935,0.0,0.0,0.0,0.0,0.0,0.0,0.0,0.0,0.0139044780158996,0.0,0.0,0.0410673580169678
1.0500023841857915,0.14381159842014313,0.005307652987539768,0.19741253554821014,0.26354543200308844,0.07295899042186271,0.005451826827132833,0.14381159842014313,0.005307652987539768,0.1813601824976646,0.26354543200308844,0.07295899042186271,-0.03940919637086357,0.09012476531226854,-0.05159677623125347,0.01485167417293276,-0.06228668615221977,-0.226961150765419,0.002567240037024049,0.0,-2.028759937068276,-0.36198418638341456,13.260511623480964,0.0,0.0,0.0,0.0,0.0,0.016052353050545524,0.0,0.0,0.044861023197996404,0.0,0.0,0.0,0.0,0.0,0.0,0.0,0.0,0.01605224609375,0.0,0.0,0.04486083984375
1.1000023841857915,0.1553361862897873,0.00864448957145214,0.19779609143733978,0.259728708542566,0.0699562452994366,0.024843469944462647,0.1553361862897873,0.00864448957145214,0.17940373461452697,0.259728708542566,0.0699562452994366,-0.02391175913898356,0.09721462761472566,-0.0554289356195139,0.018930948878273846,0.03976837918162346,-0.20817531645298004,0.0034860803280025976,0.0,-1.8843588112781013,-0.33900192665560064,12.459914829613105,0.0,0.0,0.0,0.0,0.0,0.01839235682281283,0.0,0.0,0.048755229083446205,0.0,0.0,0.0,0.0,0.0,0.0,0.0,0.0,0.0183922405815124,0.0,0.0,0.0487550411224364
1.1500023841857916,0.16678676009178162,0.011834378354251385,0.19827766716480255,0.2583567367808247,0.06556215635131141,0.014953782246545203,0.16678676009178162,0.011834378354251385,0.17734824881580621,0.2583567367808247,0.06556215635131141,-0.03778820070635894,0.09335028320711736,-0.0679388966706842,0.015136932578802664,-0.02687907963991165,-0.18035174906253815,-0.014800093136727787,0.0,-1.8902652847462003,-0.33695531186856403,12.384879985241685,0.0,0.0,0.0,0.0,0.0,0.02092941834899634,0.0,0.0,0.05274198295290414,0.0,0.0,0.0,0.0,0.0,0.0,0.0,0.0,0.0209292926025389,0.0,0.0,0.0527417907714842
1.2000023841857916,0.17821936309337616,0.01466610562056303,0.19806353747844696,0.25419605395052786,0.06198062340457396,-0.0030762886276516944,0.17821936309337616,0.01466610562056303,0.1743955738660024,0.25419605395052786,0.06198062340457396,-0.059889539688128865,0.09748525514099349,-0.0781854086428182,0.017984807797567726,-0.0017186980694532394,-0.09231291711330414,0.012618536129593861,0.0,-2.095600650037851,-0.37333164136422026,12.76804888592949,0.0,0.0,0.0,0.0,0.0,0.02366796361244455,0.0,0.0,0.05681325106047717,0.0,0.0,0.0,0.0,0.0,0.0,0.0,0.0,0.0236678281593321,0.0,0.0,0.0568130550384519
1.2500023841857917,0.18906858563423157,0.017744477838277817,0.19708135724067688,0.2394629065796036,0.06446252390997531,-0.004731169085413134,0.18906858563423157,0.017744477838277817,0.17046933689823804,0.2394629065796036,0.06446252390997531,-0.06569230607478693,0.09103131480426185,-0.07724159881765846,0.01722780931607204,-0.007616688031703234,-0.0946987122297287,0.015585530549287808,0.0,-2.1914263378907357,-0.38716409913312455,13.051375356435516,0.0,0.0,0.0,0.0,0.0,0.026612020342438838,0.0,0.0,0.060961136989373804,0.0,0.0,0.0,0.0,0.0,0.0,0.0,0.0,0.0266118749999997,0.0,0.0,0.0609609374999996
1.3000023841857917,0.19898641109466553,0.02072759158909321,0.19716191291809082,0.22730768688605657,0.06378234060448111,0.007465363895154147,0.19898641109466553,0.02072759158909321,0.16739668803744226,0.22730768688605657,0.06378234060448111,-0.05771251775675,0.094067520257902,-0.07861577314562007,0.01860944110941709,0.024392500519752502,-0.11477582901716232,0.03189238533377649,0.0,-2.27153451564184,-0.42524871985500845,13.189013225242842,0.0,0.0,0.0,0.0,0.0,0.029765224880648554,0.0,0.0,0.06517788165190415,0.0,0.0,0.0,0.0,0.0,0.0,0.0,0.0,0.0297650694847103,0.0,0.0,0.0651776790618892
1.3500023841857918,0.20769613981246948,0.023700334131717682,0.19828909635543823,0.20755142666654489,0.061545325475237576,0.03792150296848719,0.20769613981246948,0.023700334131717682,0.16515826730785216,0.20755142666654489,0.061545325475237576,-0.031534360320992605,0.09839039095456537,-0.08789004861128014,0.021900148646949447,0.003350392682477832,-0.08560093492269516,0.019338488578796397,0.0,-2.2360284369877057,-0.4262234628035978,13.104681565581064,0.0,0.0,0.0,0.0,0.0,0.03313082904758607,0.0,0.0,0.0694558632894798,0.0,0.0,0.0,0.0,0.0,0.0,0.0,0.0,0.033130663452148,0.0,0.0,0.0694556579589839
1.4000023841857918,0.2157408744096756,0.026371315121650696,0.20041382312774658,0.19786913114404084,0.05992429941798277,0.05201522192398563,0.2157408744096756,0.026371315121650696,0.16370211611868468,0.19786913114404084,0.05992429941798277,-0.021772375548628355,0.09927740081245107,-0.0924925950740687,0.022574718056921128,0.021114086732268333,-0.038106244057416916,0.0035138851962983656,0.0,-2.1994813493679333,-0.42954395413899793,12.94558605818931,0.0,0.0,0.0,0.0,0.0,0.0367117070090619,0.0,0.0,0.07378759747261399,0.0,0.0,0.0,0.0,0.0,0.0,0.0,0.0,0.0367115310859675,0.0,0.0,0.0737873897552484
1.4500023841857919,0.22307507693767548,0.029070599004626274,0.20316430926322937,0.16988576063336003,0.057130753443144396,0.07217000681084978,0.22307507693767548,0.029070599004626274,0.16265394712058961,0.16988576063336003,0.057130753443144396,-0.0059957302900716936,0.09898270987157565,-0.09409045203102995,0.020913131415041697,0.014427369460463524,-0.03480790928006172,0.007361896336078648,0.0,-2.278923163923862,-0.45465385787643753,13.204382763524402,0.0,0.0,0.0,0.0,0.0,0.040510362142639755,0.0,0.0,0.07816573710092148,0.0,0.0,0.0,0.0,0.0,0.0,0.0,0.0,0.0405101757812493,0.0,0.0,0.0781655273437493
1.500002384185792,0.22829172015190125,0.031503405421972275,0.20633314549922943,0.1606790715608293,0.055126432917532345,0.08311697261468272,0.22829172015190125,0.031503405421972275,0.1618042115951378,0.1606790715608293,0.055126432917532345,0.0005339002115641034,0.09591264460539062,-0.09261208589703873,0.02234580559799504,0.012832960113883018,-0.023191470652818676,0.01745489984750748,0.0,-2.161109704611858,-0.44136629540553995,12.875263714692666,0.0,0.0,0.0,0.0,0.0,0.044528933904091614,0.0,0.0,0.08258307240311862,0.0,0.0,0.0,0.0,0.0,0.0,0.0,0.0,0.044528737010955,0.0,0.0,0.0825828609466545
1.550002384185792,0.2342028021812439,0.03425773233175278,0.21082131564617157,0.1316246402994421,0.04921290089070994,0.09353535725171944,0.2342028021812439,0.03425773233175278,0.16205211095231875,0.1316246402994421,0.04921290089070994,0.0065028263146961335,0.10175357286920983,-0.09391335262044986,0.025440999705147682,0.06257372349500656,-0.0043543563224375205,0.038900453597307205,0.0,-2.1885732764119243,-0.453108116095849,12.988994407748486,0.0,0.0,0.0,0.0,0.0,0.04876920469385281,0.0,0.0,0.0870325309370233,0.0,0.0,0.0,0.0,0.0,0.0,0.0,0.0,0.0487689971923819,0.0,0.0,0.0870323181152334
1.600002384185792,0.23843981325626373,0.03704613074660301,0.21479102969169617,0.1181545058757867,0.054572219706606924,0.09724893643848805,0.23843981325626373,0.03704613074660301,0.16155842296821904,0.1181545058757867,0.054572219706606924,0.00574175884893309,0.10008179992763555,-0.09522933975485781,0.02691299996841856,-0.08234476298093796,0.006047597154974939,0.011013025417923927,0.0,-2.1818558346297916,-0.4591441847262125,13.087429825589796,0.0,0.0,0.0,0.0,0.0,0.05323260672347711,0.0,0.0,0.09150717758955496,0.0,0.0,0.0,0.0,0.0,0.0,0.0,0.0,0.0532323885536183,0.0,0.0,0.0915069637298574
1.650002384185792,0.24130253493785858,0.039758481085300446,0.21857228875160217,0.08245989907429851,0.04972143257705586,0.10562432049671176,0.24130253493785858,0.039758481085300446,0.16065205986951037,0.08245989907429851,0.04972143257705586,0.009624105919977158,0.09946801448603138,-0.09327189689382065,0.02716956293250128,-0.006368372589349747,0.00561437848955393,0.01251253206282854,0.0,-2.179098846758515,-0.49008185274266436,13.134663577180081,0.0,0.0,0.0,0.0,0.0,0.05792022888209182,0.0,0.0,0.0960002145767346,0.0,0.0,0.0,0.0,0.0,0.0,0.0,0.0,0.0579199999999988,0.0,0.0,0.0959999999999989
1.700002384185792,0.24339722096920013,0.04249246418476105,0.22321046888828278,0.06613098601361325,0.050956562634999876,0.115711760137453,0.24339722096920013,0.04249246418476105,0.16037764528542997,0.06613098601361325,0.050956562634999876,0.015206778693768186,0.09263994418904087,-0.09389907179585055,0.024430651671216275,-0.02677767351269722,0.02803046442568302,-0.009033358655869964,0.0,-2.0963495803175056,-0.4881308746271883,13.112529401152809,0.0,0.0,0.0,0.0,0.0,0.06283282360285282,0.0,0.0,0.10050498144368482,0.0,0.0,0.0,0.0,0.0,0.0,0.0,0.0,0.0628325839805589,0.0,0.0,0.1005047664642322
1.7500023841857921,0.24452640116214752,0.04521718621253967,0.2277299016714096,0.04028437842711038,0.052050798344474035,0.12245455251178396,0.24452640116214752,0.04521718621253967,0.15975908794201,0.04028437842711038,0.052050798344474035,0.017439597447154134,0.09509783597004917,-0.08643603832160407,0.027876829473750142,-0.028510000556707382,0.063246950507164,-0.014377569779753692,0.0,-2.0266277294425037,-0.4941366361508478,12.983777974481237,0.0,0.0,0.0,0.0,0.0,0.06797081372939962,0.0,0.0,0.10501495506462982,0.0,0.0,0.0,0.0,0.0,0.0,0.0,0.0,0.0679705633544907,0.0,0.0,0.1050147399902331
1.8000023841857922,0.2447246015071869,0.047206006944179535,0.2321564108133316,0.023551048692533213,0.045666210553214875,0.11917388204163139,0.2447246015071869,0.047206006944179535,0.15882211143102107,0.023551048692533213,0.045666210553214875,0.009650132398736175,0.1090138321459917,-0.08167788669549658,0.031276684138275,0.03496626019477844,0.08010472357273102,0.00952558685094117,0.0,-2.152679513099188,-0.5564567364827675,13.599250510730625,0.0,0.0,0.0,0.0,0.0,0.07333429938231054,0.0,0.0,0.10952374964289521,0.0,0.0,0.0,0.0,0.0,0.0,0.0,0.0,0.0733340382575972,0.0,0.0,0.1095235347747788
1.8500023841857922,0.24401864409446716,0.049912575632333755,0.23720863461494446,-0.006697805660291465,0.046753316799623613,0.15886780612062215,0.24401864409446716,0.049912575632333755,0.1582855697893868,-0.006697805660291465,0.046753316799623613,0.04484268940971384,0.09446282096369307,-0.08095894582685048,0.023705077613019654,0.013780977576971054,-0.01750649511814117,0.018333500251173977,0.0,-2.5036832175169312,-0.6429336091574197,14.896087730823957,0.0,0.0,0.0,0.0,0.0,0.07892306482555767,0.0,0.0,0.11402511671090831,0.0,0.0,0.0,0.0,0.0,0.0,0.0,0.0,0.0789227929687481,0.0,0.0,0.1140249023437485
1.9000023841857923,0.24179576337337494,0.05193428322672844,0.24546746909618378,-0.025835024117331913,0.03853416734591146,0.21724969707180194,0.24179576337337494,0.05193428322672844,0.16073088376322175,-0.025835024117331913,0.03853416734591146,0.09873675194160401,0.10130795357075328,-0.08261031812611153,0.024764224504115973,0.10250397026538849,0.046482358127832406,-0.029835216701030738,0.0,-1.4940851600746172,-0.42913478471568667,11.781645326262119,0.0,0.0,0.0,0.0,0.0,0.08473658533296204,0.0,0.0,0.11851294513019793,0.0,0.0,0.0,0.0,0.0,0.0,0.0,0.0,0.0847363027763346,0.0,0.0,0.1185127315521224
1.9500023841857923,0.23956024646759033,0.05344321206212044,0.25300028920173645,-0.03715816092688836,0.033932736306665746,0.17495649252996243,0.23956024646759033,0.05344321206212044,0.1622262551470878,-0.03715816092688836,0.033932736306665746,0.05197523143856793,0.1008476748800069,-0.07822777619189658,0.02495281860719345,0.011371888220310211,0.18555673956871033,-0.02258326299488547,0.0,-1.1668228342495037,-0.3504913442214374,10.906786808126295,0.0,0.0,0.0,0.0,0.0,0.09077403405464865,0.0,0.0,0.1229812610913945,0.0,0.0,0.0,0.0,0.0,0.0,0.0,0.0,0.0907737408447242,0.0,0.0,0.1229810485839827
2.0000023841857923,0.23749536275863647,0.05480000749230385,0.2559063732624054,-0.05043326065578638,0.035328116080950885,0.09665206557607023,0.23749536275863647,0.05480000749230385,0.15887208437890388,-0.05043326065578638,0.035328116080950885,-0.03077216253815973,0.10422170247788287,-0.06307445167733183,0.022243913869750997,0.026554979383945465,0.2433597892522812,-0.014548358507454425,0.0,-1.69647561032534,-0.47829165422226694,12.751537701558695,0.0,0.0,0.0,0.0,0.0,0.09703428888350153,0.0,0.0,0.12742422811422996,0.0,0.0,0.0,0.0,0.0,0.0,0.0,0.0,0.0970339850807164,0.0,0.0,0.1274240169525129
2.050002384185792,0.23418289422988892,0.05624266341328621,0.2558056116104126,-0.09241543178665476,0.03267169088015077,0.04211390594231114,0.23418289422988892,0.05624266341328621,0.1522896722887937,-0.09241543178665476,0.03267169088015077,-0.08972224110522663,0.10510879115187821,-0.05612758487045699,0.022868040958370806,-0.021526165306568146,0.062479496002197266,0.013707084581255906,0.0,-1.9071076612811977,-0.5436870510150177,13.725491900260131,0.0,0.0,0.0,0.0,0.0,0.1035159393216189,0.0,0.0,0.13183614704753777,0.0,0.0,0.0,0.0,0.0,0.0,0.0,0.0,0.1035156249999972,0.0,0.0,0.1318359374999982
2.100002384185792,0.2296135425567627,0.05758288502693176,0.25528058409690857,-0.10683789373988897,0.032731358993672806,0.05238858731811671,0.2296135425567627,0.05758288502693176,0.14506329075014043,-0.10683789373988897,0.032731358993672806,-0.08382286875113637,0.10107395679521858,-0.05494831066260142,0.020426374404967973,0.011462738737463951,0.0059018284082412685,-0.03070424683392048,0.0,-1.9719039242925085,-0.5877128810770954,14.578046213127678,0.0,0.0,0.0,0.0,0.0,0.11021729334676814,0.0,0.0,0.13621145606925308,0.0,0.0,0.0,0.0,0.0,0.0,0.0,0.0,0.1102169685935944,0.0,0.0,0.1362112483978252
2.150002384185792,0.22462764382362366,0.058755964040756226,0.2571583390235901,-0.12299256685140178,0.02679911120349689,0.11106328916873226,0.22462764382362366,0.058755964040756226,0.14002195474474913,-0.12299256685140178,0.02679911120349689,-0.02948144151768023,0.09877729510930466,-0.05444653103943198,0.019554014804601394,-0.03538013994693756,0.010930235497653483,-0.015690047293901443,0.0,-1.67170618292296,-0.533277288952712,13.777039728256279,0.0,0.0,0.0,0.0,0.0,0.11713638427884096,0.0,0.0,0.1405447306864125,0.0,0.0,0.0,0.0,0.0,0.0,0.0,0.0,0.1171360491943327,0.0,0.0,0.1405445251464824
2.2000023841857916,0.21962571144104004,0.05998707562685013,0.26027145981788635,-0.1175752865511232,0.025112330888990966,0.12302129029347016,0.21962571144104004,0.05998707562685013,0.13600048217157795,-0.1175752865511232,0.025112330888990966,-0.021809393441684047,0.0980742418005951,-0.04893099290926184,0.02013205289924258,0.01601671241223812,0.12491089105606079,-0.044968523085117354,0.0,-1.4596830452719636,-0.48886644424175296,13.289958189860682,0.0,0.0,0.0,0.0,0.0,0.12427097764630841,0.0,0.0,0.1448306837351542,0.0,0.0,0.0,0.0,0.0,0.0,0.0,0.0,0.1242706323432888,0.0,0.0,0.1448304805755595
2.2500023841857915,0.21506251394748688,0.060898974537849426,0.2632544934749603,-0.11954756423341177,0.021556716540917016,0.11730026471357605,0.21506251394748688,0.060898974537849426,0.13163591542228426,-0.11954756423341177,0.021556716540917016,-0.03176390066714199,0.0986875880081759,-0.04244601261478387,0.016358962757831996,-0.020688820630311966,0.12775757908821106,-0.04527603462338449,0.0,-1.42916832697924,-0.48042754476553584,13.135516112524995,0.0,0.0,0.0,0.0,0.0,0.13161857805267607,0.0,0.0,0.14906416538071804,0.0,0.0,0.0,0.0,0.0,0.0,0.0,0.0,0.1316182226562463,0.0,0.0,0.1490639648437479
2.3000023841857913,0.21027842164039612,0.06175900995731354,0.26540127396583557,-0.12653588006458513,0.0183903766457452,0.1053172413480545,0.21027842164039612,0.06175900995731354,0.1262248379228966,-0.12653588006458513,0.0183903766457452,-0.04792292176939082,0.0995810763549243,-0.03370739795707056,0.01186097969419908,-0.021573897451162338,0.14362360537052155,-0.045638132840394995,0.0,-1.452264063120345,-0.48267009738214806,13.27084691626182,0.0,0.0,0.0,0.0,0.0,0.13917643604293897,0.0,0.0,0.15324016311744532,0.0,0.0,0.0,0.0,0.0,0.0,0.0,0.0,0.1391760706901511,0.0,0.0,0.1532399654388405
2.350002384185791,0.2061106562614441,0.06250189244747162,0.2665959298610687,-0.12096888755296495,0.018023322314051897,0.0739827070088161,0.2061106562614441,0.06250189244747162,0.11965437489103198,-0.12096888755296495,0.018023322314051897,-0.0833710947599628,0.09157595530539675,-0.032111889971566665,0.013641840362911495,-0.022483404725790024,0.08922030031681061,0.0012245106045156609,0.0,-1.4100052421564748,-0.4732660105129719,13.236703445566524,0.0,0.0,0.0,0.0,0.0,0.14694155497003675,0.0,0.0,0.1573538017687789,0.0,0.0,0.0,0.0,0.0,0.0,0.0,0.0,0.146941179809566,0.0,0.0,0.1573536071777322
2.400002384185791,0.20171019434928894,0.06330980360507965,0.2673300504684448,-0.1259932278229057,0.018394356561206363,0.0720952008891189,0.20171019434928894,0.06330980360507965,0.11241935260713609,-0.1259932278229057,0.018394356561206363,-0.08930514259814439,0.09369881767349231,-0.028357691055031164,0.010769997181250268,0.0061341580003499985,0.01389059517532587,0.001115032006055115,0.0,-1.3551523318102214,-0.4570839527641094,13.157480688770189,0.0,0.0,0.0,0.0,0.0,0.15491069786130873,0.0,0.0,0.1614003434872633,0.0,0.0,0.0,0.0,0.0,0.0,0.0,0.0,0.1549103130531265,0.0,0.0,0.1614001522064186
2.4500023841857907,0.19775283336639404,0.06402122229337692,0.26745253801345825,-0.11392755478731174,0.015606569179039034,0.05061942568497556,0.19775283336639404,0.06402122229337692,0.10437214372850925,-0.11392755478731174,0.015606569179039034,-0.11475576206956885,0.09497744098339922,-0.027378643774871314,0.013322498452970954,-0.013465186581015587,0.0025049550458788854,-0.014607865363359451,0.0,-1.3675386549439246,-0.4717180343182064,13.342952816869845,0.0,0.0,0.0,0.0,0.0,0.163080394284949,0.0,0.0,0.1653751877545444,0.0,0.0,0.0,0.0,0.0,0.0,0.0,0.0,0.1630799999999951,0.0,0.0,0.1653749999999977
2.5000023841857906,0.1941482275724411,0.06484486162662506,0.26714611053466797,-0.11171860169749367,0.014657059270767131,0.04323562136076552,0.1941482275724411,0.06484486162662506,0.09569916331820646,-0.11171860169749367,0.014657059270767131,-0.12603825002060443,0.09194626709955367,-0.02681163252787888,0.011652955834719592,-0.009346909821033478,-0.04157029092311859,0.006071753334254032,0.0,-1.4710510065203728,-0.483591584760876,13.695928041167587,0.0,0.0,0.0,0.0,0.0,0.1714469472164615,0.0,0.0,0.16927387138136996,0.0,0.0,0.0,0.0,0.0,0.0,0.0,0.0,0.1714465436363169,0.0,0.0,0.1692736873626685
2.5500023841857904,0.19077007472515106,0.06550497561693192,0.2668655514717102,-0.10262021615136163,0.017090529817623327,0.055256581289728796,0.19077007472515106,0.06550497561693192,0.08685911156659498,-0.10262021615136163,0.017090529817623327,-0.11783548721786025,0.0884733217296989,-0.02919536034752568,0.00928382630433422,0.005332046188414097,-0.02011026814579964,-0.02452081814408302,0.0,-1.5102259728668679,-0.49442491221987517,13.912944757807251,0.0,0.0,0.0,0.0,0.0,0.18000643990511522,0.0,0.0,0.17309206850758904,0.0,0.0,0.0,0.0,0.0,0.0,0.0,0.0,0.1800060272216743,0.0,0.0,0.173091888427732
2.60000238418579,0.18782447278499603,0.06635300815105438,0.26743432879447937,-0.10140981706952035,0.012221795594444784,0.06305125564385211,0.18782447278499603,0.06635300815105438,0.07867958605408054,-0.10140981706952035,0.012221795594444784,-0.1137743349583002,0.09399794962265862,-0.024846223733661965,0.011628012898396989,0.02878691628575325,-0.05748729407787323,0.013681173324584968,0.0,-1.562883890926739,-0.5150992958649634,14.053650883939575,0.0,0.0,0.0,0.0,0.0,0.18875474274039883,0.0,0.0,0.1768255906021523,0.0,0.0,0.0,0.0,0.0,0.0,0.0,0.0,0.1887543211555424,0.0,0.0,0.1768254146575903
2.65000238418579,0.18529199063777924,0.06706413626670837,0.2693152129650116,-0.08633358824744393,0.013457014968334765,0.10076565524469366,0.18529199063777924,0.06706413626670837,0.07162769284653525,-0.08633358824744393,0.013457014968334765,-0.07970473121841842,0.09613065797532894,-0.030813179041659033,0.011900104151189694,0.04626798629760742,-0.05536765605211258,0.008850539103150375,0.0,-1.6119560833919528,-0.5179136500418293,14.203280855242404,0.0,0.0,0.0,0.0,0.0,0.19768752011847635,0.0,0.0,0.1804703864631121,0.0,0.0,0.0,0.0,0.0,0.0,0.0,0.0,0.197687089843744,0.0,0.0,0.1804702148437476
2.70000238418579,0.18309955298900604,0.06774058192968369,0.27276232838630676,-0.0816685039514436,0.012816358131578413,0.11536925193705773,0.18309955298900604,0.06774058192968369,0.06596209107766485,-0.0816685039514436,0.012816358131578413,-0.0686532902805644,0.09826673768641614,-0.03207721271916952,0.014015986197795094,0.02019796520471573,-0.045727286487817764,-0.015316811390221114,0.0,-1.6378843446966647,-0.5242248952710509,14.06141238085222,0.0,0.0,0.0,0.0,0.0,0.20680023730864192,0.0,0.0,0.18402254221762213,0.0,0.0,0.0,0.0,0.0,0.0,0.0,0.0,0.2067997985649046,0.0,0.0,0.184022375106809
2.7500023841857897,0.18117807805538177,0.06853000074625015,0.2775860130786896,-0.0720744285191446,0.01077089203514307,0.15354059957640281,0.18117807805538177,0.06853000074625015,0.06149784575891487,-0.0720744285191446,0.01077089203514307,-0.033937681745535075,0.10016525058440484,-0.03605389835217654,0.011887759233829343,0.04081147536635399,-0.078884057700634,0.0217164307832718,0.0,-1.6409499964560985,-0.5229517908987612,13.898057009027847,0.0,0.0,0.0,0.0,0.0,0.2160881673197747,0.0,0.0,0.1874782813219379,0.0,0.0,0.0,0.0,0.0,0.0,0.0,0.0,0.2160877203369074,0.0,0.0,0.1874781188964819
2.8000023841857895,0.17938171327114105,0.0690370500087738,0.28331953287124634,-0.07040265015764671,0.009715655844795095,0.1668830742845173,0.17938171327114105,0.0690370500087738,0.05777313510445198,-0.07040265015764671,0.009715655844795095,-0.02395089027689909,0.104551681051952,-0.041110612592607065,0.01547172438115929,0.06325692683458328,-0.07360769808292389,-0.008358884602785102,0.0,-1.6518992290061185,-0.5184359308965574,13.671330810612682,0.0,0.0,0.0,0.0,0.0,0.22554639776679436,0.0,0.0,0.19083396456141638,0.0,0.0,0.0,0.0,0.0,0.0,0.0,0.0,0.2255459427833487,0.0,0.0,0.1908338069915747
2.8500023841857893,0.17771199345588684,0.06921365112066269,0.289792537689209,-0.06075036487814057,0.0050368323528175605,0.16309134541281728,0.17771199345588684,0.06921365112066269,0.05462269995209301,-0.06075036487814057,0.0050368323528175605,-0.0309947446376988,0.10438239454010612,-0.03976912934382071,0.016403142952169603,0.04976983368396759,-0.026751812547445294,0.01754006184637547,0.0,-1.6549509958735238,-0.5187073143605162,13.614758191406105,0.0,0.0,0.0,0.0,0.0,0.23516983773711597,0.0,0.0,0.19408609005051608,0.0,0.0,0.0,0.0,0.0,0.0,0.0,0.0,0.2351693749999927,0.0,0.0,0.1940859374999976
2.900002384185789,0.17602789402008057,0.06948579847812653,0.29568710923194885,-0.06078834652095496,0.003781245856726918,0.15357668954566817,0.17602789402008057,0.06948579847812653,0.0507338845748439,-0.06078834652095496,0.003781245856726918,-0.04365460368712881,0.1050674302697101,-0.05204506899399952,0.013120117957130972,-0.05102028325200081,0.03090743906795979,0.01876353099942207,0.0,-1.5900499993495536,-0.4812841718727382,13.389156619840403,0.0,0.0,0.0,0.0,0.0,0.24495322465710495,0.0,0.0,0.19723129323279698,0.0,0.0,0.0,0.0,0.0,0.0,0.0,0.0,0.2449527544212265,0.0,0.0,0.1972311458587622
2.950002384185789,0.1745116114616394,0.06993523985147476,0.30073216557502747,-0.06609332108723665,0.0022849569373442147,0.1384643399234688,0.1745116114616394,0.06993523985147476,0.04584103441649506,-0.06609332108723665,0.0022849569373442147,-0.06180200695745203,0.10668818916325895,-0.04277231857937114,0.0190423970432132,-0.022033868357539177,-0.03901907056570053,0.006974634714424615,0.0,-1.6124059090491676,-0.48392860636023355,13.512481419652513,0.0,0.0,0.0,0.0,0.0,0.2548911311585324,0.0,0.0,0.20026634688092082,0.0,0.0,0.0,0.0,0.0,0.0,0.0,0.0,0.2548906536865155,0.0,0.0,0.200266204833982
3.000002384185789,0.17231734097003937,0.06982699036598206,0.3057004511356354,-0.06655928099008938,0.0008893170979756686,0.1314654300318383,0.17231734097003937,0.06982699036598206,0.040722479190605565,-0.06655928099008938,0.0008893170979756686,-0.0717227310648125,0.10781749583989475,-0.04054089113017234,0.019700759928621636,-0.010575785301625729,-0.014449285343289375,-0.0009846114553511125,0.0,-1.6680631997888518,-0.49862924776386586,13.801144779051945,0.0,0.0,0.0,0.0,0.0,0.2649779719450298,0.0,0.0,0.2031881610966508,0.0,0.0,0.0,0.0,0.0,0.0,0.0,0.0,0.2649774875068581,0.0,0.0,0.2031880245208718
3.0500023841857886,0.17025522887706757,0.06993868947029114,0.3101017475128174,-0.06806295045040713,-0.0010569564130659603,0.1332021632220807,0.17025522887706757,0.06993868947029114,0.03489373685427277,-0.06806295045040713,-0.0010569564130659603,-0.07279162008877083,0.10126638469125426,-0.04656771200009402,0.015868710337024083,-0.03155611827969551,-0.024426313117146492,0.005799417383968833,0.0,-1.7299032203355582,-0.5109789954056526,14.029482845659084,0.0,0.0,0.0,0.0,0.0,0.2752080106585446,0.0,0.0,0.20599378331085152,0.0,0.0,0.0,0.0,0.0,0.0,0.0,0.0,0.2752075195312414,0.0,0.0,0.2059936523437477
3.1000023841857884,0.16767899692058563,0.06987250596284866,0.3150108754634857,-0.06695297108863624,-0.0003780817630300732,0.14309371614861796,0.16767899692058563,0.06987250596284866,0.02943550871769085,-0.06695297108863624,-0.0003780817630300732,-0.06558668213487179,0.10293056318327443,-0.04538874041674301,0.017291138078329382,-0.021848708391189575,-0.012445827946066853,0.0307264793664217,0.0,-1.7773205921581816,-0.5205282902540626,14.217323281062237,0.0,0.0,0.0,0.0,0.0,0.28557536674579487,0.0,0.0,0.20868039828348975,0.0,0.0,0.0,0.0,0.0,0.0,0.0,0.0,0.2855748692130953,0.0,0.0,0.2086802730560281
3.1500023841857883,0.16500191390514374,0.06962266564369202,0.3209317922592163,-0.07764360532107507,-0.00957305175195943,0.17633685382314424,0.16500191390514374,0.06962266564369202,0.024857769934491736,-0.07764360532107507,-0.00957305175195943,-0.0349084742804886,0.10300060970889113,-0.04517596776681154,0.017374373989399672,0.014600545167922974,-0.05981374531984329,-0.01539600454270839,0.0,-1.8060241460158288,-0.5316547094259338,14.277644531474165,0.0,0.0,0.0,0.0,0.0,0.2960740223247246,0.0,0.0,0.21124532810363283,0.0,0.0,0.0,0.0,0.0,0.0,0.0,0.0,0.2960735186767485,0.0,0.0,0.2112452087402321
3.200002384185788,0.16150158643722534,0.06852173805236816,0.3282138407230377,-0.08060545805837534,-0.019422416974603045,0.1875077020335756,0.16150158643722534,0.06852173805236816,0.02151601167207895,-0.08060545805837534,-0.019422416974603045,-0.026178330155875035,0.10441048096622207,-0.03964710599122867,0.02254256375248609,0.018410036340355873,-0.01485413126647472,0.026038216426968578,0.0,-1.761491938385712,-0.5045480161076994,14.149585873025435,0.0,0.0,0.0,0.0,0.0,0.30669782905095877,0.0,0.0,0.21368603218945065,0.0,0.0,0.0,0.0,0.0,0.0,0.0,0.0,0.3066973195838831,0.0,0.0,0.2136859188079811
3.250002384185788,0.1581483632326126,0.06794974952936172,0.3360493779182434,-0.08326414735537714,-0.013273678407943908,0.20511974054527488,0.1581483632326126,0.06794974952936172,0.01860886293398517,-0.08326414735537714,-0.013273678407943908,-0.010880366742938963,0.10174094028175418,-0.049228946531776785,0.018107460324802815,0.03985986113548279,-0.0011265485081821648,0.026099596172571182,0.0,-1.7625296560658703,-0.47601718297637585,14.094992916476164,0.0,0.0,0.0,0.0,0.0,0.31744051498425824,0.0,0.0,0.21600010728821384,0.0,0.0,0.0,0.0,0.0,0.0,0.0,0.0,0.31743999999999,0.0,0.0,0.2159999999999979
3.3000023841857877,0.1539280265569687,0.06718642264604568,0.3446807861328125,-0.09300839340321768,-0.014322149828034153,0.21325415181595656,0.1539280265569687,0.06718642264604568,0.01638509467783783,-0.09300839340321768,-0.014322149828034153,-0.004931135660338981,0.1001354598594486,-0.05267158453441345,0.018164426823416235,0.004450688138604164,-0.010095103643834587,0.022916991263628006,0.0,-1.6419338738794202,-0.4675758711003758,13.66106835371253,0.0,0.0,0.0,0.0,0.0,0.32829569145497467,0.0,0.0,0.21818528747629554,0.0,0.0,0.0,0.0,0.0,0.0,0.0,0.0,0.3282951712608235,0.0,0.0,0.2181851863861064
3.3500023841857876,0.14930370450019836,0.066273994743824,0.35294923186302185,-0.09242582854138545,-0.01954665882315797,0.2071949810021672,0.14930370450019836,0.066273994743824,0.013692371932514824,-0.09242582854138545,-0.01954665882315797,-0.013044463157001807,0.10050304927724518,-0.050159136965425954,0.020483120726186854,-0.036054279655218124,0.030574886128306392,0.017785320058465,0.0,-1.5415085065927194,-0.44777379107026366,13.465225064268935,0.0,0.0,0.0,0.0,0.0,0.339256859930507,0.0,0.0,0.22023944415916902,0.0,0.0,0.0,0.0,0.0,0.0,0.0,0.0,0.3392563348388565,0.0,0.0,0.2202393493652325
3.4000023841857874,0.14476323127746582,0.06532439589500427,0.36046549677848816,-0.09750638813800824,-0.023286106731337266,0.18878255657706738,0.14476323127746582,0.06532439589500427,0.010148077896734276,-0.09750638813800824,-0.023286106731337266,-0.0333780294943436,0.09719239283538039,-0.05121378768185014,0.018306999574507543,-0.024350540712475777,0.0746237114071846,0.008279032073914996,0.0,-1.5049318775669187,-0.4217415248099743,13.4304821414839,0.0,0.0,0.0,0.0,0.0,0.3503174188817539,0.0,0.0,0.22216058607141098,0.0,0.0,0.0,0.0,0.0,0.0,0.0,0.0,0.3503168892097363,0.0,0.0,0.2221604976654033
3.450002384185787,0.14011751115322113,0.06441454589366913,0.36644893884658813,-0.10534221738757914,-0.0227663895301172,0.15652128688759054,0.14011751115322113,0.06441454589366913,0.004978268197016744,-0.10534221738757914,-0.0227663895301172,-0.06742557238910757,0.09609625790000376,-0.04398697103942428,0.017858584403682265,-0.04543514922261238,0.07353198528289795,-0.0150621421635151,0.0,-1.5497238817948098,-0.42444052111711356,13.73286122906162,0.0,0.0,0.0,0.0,0.0,0.3614706706495714,0.0,0.0,0.2239468592766981,0.0,0.0,0.0,0.0,0.0,0.0,0.0,0.0,0.3614701367187387,0.0,0.0,0.2239467773437483
3.500002384185787,0.13503894209861755,0.06341201812028885,0.37191465497016907,-0.10869894333244157,-0.025903996622254944,0.14862678206313615,0.13503894209861755,0.06341201812028885,-0.000795173341057609,-0.10869894333244157,-0.025903996622254944,-0.07696976510467313,0.10031500878083932,-0.03540882378033494,0.018264537719219653,-0.03314642235636711,0.046919792890548706,-0.02133233472704888,0.0,-1.582982856317154,-0.4386462524487555,14.062877115230892,0.0,0.0,0.0,0.0,0.0,0.3727098283112267,0.0,0.0,0.22559654716780927,0.0,0.0,0.0,0.0,0.0,0.0,0.0,0.0,0.3727092904472236,0.0,0.0,0.2255964717864974
3.550002384185787,0.12967664003372192,0.06249348074197769,0.3770613670349121,-0.11185086359320938,-0.017943986101790602,0.14783999431416722,0.12967664003372192,0.06249348074197769,-0.006966655511941144,-0.11185086359320938,-0.017943986101790602,-0.07926807615245782,0.09944890601602507,-0.03529142927744111,0.017270166348676064,-0.04770421236753464,0.03721627965569497,0.028608640655875203,0.0,-1.6166806281374915,-0.4408340995357868,14.30186367031588,0.0,0.0,0.0,0.0,0.0,0.38402802254685325,0.0,0.0,0.22710807046662504,0.0,0.0,0.0,0.0,0.0,0.0,0.0,0.0,0.3840274810790895,0.0,0.0,0.2271080017089828
3.6000023841857867,0.1239723414182663,0.06175170838832855,0.38319140672683716,-0.12151923148250646,-0.01962272533461413,0.15449281156006603,0.1239723414182663,0.06175170838832855,-0.012226901779069488,-0.12151923148250646,-0.01962272533461413,-0.07398717566406113,0.08901219697697993,-0.03600763350296443,0.01887171534525134,-0.011814918369054794,-0.004390430636703967,0.003719007130712271,0.0,-1.652306933352385,-0.47861077842690525,14.505497935893427,0.0,0.0,0.0,0.0,0.0,0.39541830850590665,0.0,0.0,0.22847998722412716,0.0,0.0,0.0,0.0,0.0,0.0,0.0,0.0,0.3954177637672301,0.0,0.0,0.2284799251556383
3.6500023841857865,0.11821406334638596,0.060826625674963,0.3900548219680786,-0.11963208041946784,-0.023375109615687995,0.18160949983691677,0.11821406334638596,0.060826625674963,-0.016818850705539568,-0.11963208041946784,-0.023375109615687995,-0.04810149298348254,0.09593108902067193,-0.03376695690965503,0.019052632297086092,0.024048978462815285,0.01745778135955334,0.02463007159531116,0.0,-1.6397239564267267,-0.4810566955985212,14.594763211165656,0.0,0.0,0.0,0.0,0.0,0.4068736726736182,0.0,0.0,0.2297109928203993,0.0,0.0,0.0,0.0,0.0,0.0,0.0,0.0,0.4068731249999874,0.0,0.0,0.2297109374999986
3.7000023841857863,0.11224883049726486,0.05990743264555931,0.3982187509536743,-0.11919097435530304,-0.020869166804550164,0.19818534527105358,0.11224883049726486,0.05990743264555931,-0.02016828878377741,-0.11919097435530304,-0.020869166804550164,-0.03261457469357304,0.09505241884650362,-0.03809152366943813,0.016601500003346814,0.016061140224337578,-0.012448366731405256,0.013714455068111421,0.0,-1.6561318597225823,-0.4756123441271667,14.534343380979086,0.0,0.0,0.0,0.0,0.0,0.4183870397374517,0.0,0.0,0.23079991996462662,0.0,0.0,0.0,0.0,0.0,0.0,0.0,0.0,0.4183864894676078,0.0,0.0,0.2307998714447011
3.750002384185786,0.10639631748199463,0.059151001274585724,0.4072505235671997,-0.12024294829810153,-0.01796315204265509,0.2271008031375714,0.10639631748199463,0.059151001274585724,-0.022700755886357726,-0.12024294829810153,-0.01796315204265509,-0.004644935557524127,0.10106988848523768,-0.0334500113554288,0.018844418647354644,0.008711300790309906,-0.0256117545068264,0.012989249080419544,0.0,-1.6028113172455312,-0.47165587333588066,14.284915823497212,0.0,0.0,0.0,0.0,0.0,0.42995127945355743,0.0,0.0,0.23174573869509552,0.0,0.0,0.0,0.0,0.0,0.0,0.0,0.0,0.4299507269286979,0.0,0.0,0.2317456970214833
3.800002384185786,0.1005023941397667,0.05882663652300835,0.4167887270450592,-0.11702297331833332,-0.015760753525390827,0.234863016196968,0.1005023941397667,0.05882663652300835,-0.024770486468168484,-0.11702297331833332,-0.015760753525390827,0.002315459817773813,0.0988415187155054,-0.03410154524063547,0.01811941898682079,0.031018495559692383,-0.011116407811641693,0.0017280336469411863,0.0,-1.460779117761458,-0.44964972885827015,13.81701342734015,0.0,0.0,0.0,0.0,0.0,0.4415592135132277,0.0,0.0,0.2325475563791942,0.0,0.0,0.0,0.0,0.0,0.0,0.0,0.0,0.4415586590766772,0.0,0.0,0.2325475215911857
3.8500023841857858,0.09467241168022156,0.05850572884082794,0.4259604513645172,-0.11349657612311397,-0.011910679059510917,0.2200933051113255,0.09467241168022156,0.05850572884082794,-0.027243171044834535,-0.11349657612311397,-0.011910679059510917,-0.013111312602087172,0.10427319285389158,-0.033767345211930255,0.018170544595572657,0.04651668295264244,0.06284458935260773,-0.00897775404155255,0.0,-1.3596357105553705,-0.4319262527575509,13.559678868574965,0.0,0.0,0.0,0.0,0.0,0.45320362240935175,0.0,0.0,0.23320461771341267,0.0,0.0,0.0,0.0,0.0,0.0,0.0,0.0,0.4532030664062363,0.0,0.0,0.2332045898437493
3.9000023841857856,0.08909108489751816,0.05823653191328049,0.43451619148254395,-0.11581072237491825,-0.006826297296975327,0.2022986399813301,0.08909108489751816,0.05823653191328049,-0.03036106082032619,-0.11581072237491825,-0.006826297296975327,-0.03141766474201205,0.10480331883165572,-0.03102947398124556,0.01859440484069097,0.030614037066698074,0.08335736393928528,-0.010308952070772658,0.0,-1.3913735100059723,-0.45108810066988775,13.752898626416545,0.0,0.0,0.0,0.0,0.0,0.46487725230287014,0.0,0.0,0.23371630472334215,0.0,0.0,0.0,0.0,0.0,0.0,0.0,0.0,0.4648766950797894,0.0,0.0,0.2337162837982173
3.9500023841857854,0.08342844247817993,0.057939957827329636,0.44185617566108704,-0.11623869005047714,-0.005545624181897152,0.17711655731571335,0.08342844247817993,0.057939957827329636,-0.0347166462281448,-0.11623869005047714,-0.005545624181897152,-0.05696557944796238,0.1031539831124686,-0.025330065995210482,0.015418069096642562,0.010361231863498688,0.04980968311429024,0.012379436753690236,0.0,-1.4262542752562415,-0.47965181169326376,14.014127915832814,0.0,0.0,0.0,0.0,0.0,0.47657282188923183,0.0,0.0,0.23408213676367573,0.0,0.0,0.0,0.0,0.0,0.0,0.0,0.0,0.4765722637939311,0.0,0.0,0.234082122802734
4.000002384185786,0.07775095105171204,0.05768059939146042,0.4490545392036438,-0.11468559191040852,-0.0018638557720926303,0.1698776962460257,0.07775095105171204,0.05768059939146042,-0.039228490061203214,-0.11468559191040852,-0.0018638557720926303,-0.06442407427218166,0.1030538934873988,-0.026148995753415782,0.013647970750930938,0.02186579629778862,0.047846704721450806,-0.00709387985989452,0.0,-1.4561747154478577,-0.4935447493685392,14.257682715440927,0.0,0.0,0.0,0.0,0.0,0.488283029264847,0.0,0.0,0.23430177051820736,0.0,0.0,0.0,0.0,0.0,0.0,0.0,0.0,0.4882824706458902,0.0,0.0,0.2343017635345457
4.0500023841857855,0.07210996001958847,0.057407084852457047,0.45635145902633667,-0.11299621478375883,0.00402216591268955,0.17279698300492521,0.07210996001958847,0.057407084852457047,-0.04364909976720699,-0.11299621478375883,0.00402216591268955,-0.061578016994908336,0.10548669232433294,-0.025276770917239233,0.015695705205938104,-0.0004481647629290819,0.010869527235627173,-0.009708402678370478,0.0,-1.5806526237248688,-0.5395949611654942,14.683998644184106,0.0,0.0,0.0,0.0,0.0,0.5000005587935437,0.0,0.0,0.23437499999983355,0.0,0.0,0.0,0.0,0.0,0.0,0.0,0.0,0.4999999999999852,0.0,0.0,0.234375
4.100002384185785,0.06642904132604599,0.05709907039999962,0.46460071206092834,-0.11222305232227134,0.005476524556099364,0.19033078238436774,0.06642904132604599,0.05709907039999962,-0.047117375912093085,-0.11222305232227134,0.005476524556099364,-0.04397097416618373,0.10069010727289207,-0.02696280869873746,0.015200831603953802,0.014702118933200836,-0.03547007218003273,-0.01978589594364166,0.0,-1.616317760180535,-0.570185848191977,14.807891927549587,0.0,0.0,0.0,0.0,0.0,0.5117180879730214,0.0,0.0,0.23430175655055147,0.0,0.0,0.0,0.0,0.0,0.0,0.0,0.0,0.5117175293540807,0.0,0.0,0.234301763534546
4.150002384185785,0.06073932349681854,0.056670285761356354,0.4744020700454712,-0.11162696723706521,0.007001902185253148,0.23153578967322241,0.06073932349681854,0.056670285761356354,-0.04902622425583636,-0.11162696723706521,0.007001902185253148,-0.0025463191682383868,0.1041791448624041,-0.022996694476390633,0.01525844175817248,0.033102553337812424,-0.06582305580377579,-0.008355503901839248,0.0,-1.606643475516984,-0.5761528360969277,14.696978284639556,0.0,0.0,0.0,0.0,0.0,0.5234282943013076,0.0,0.0,0.2340821088414608,0.0,0.0,0.0,0.0,0.0,0.0,0.0,0.0,0.5234277362060393,0.0,0.0,0.2340821228027347
4.200002384185785,0.054953914135694504,0.056287094950675964,0.48552554845809937,-0.11098447004169351,0.0040843448097321496,0.247659271708438,0.054953914135694504,0.056287094950675964,-0.04959831368511369,-0.11098447004169351,0.0040843448097321496,0.013943008835676285,0.10510916240402635,-0.0296302979034353,0.012584519326761523,0.055917538702487946,-0.04801264405250549,0.00778159778565169,0.0,-1.5688063528915197,-0.5770747427303701,14.421154430373047,0.0,0.0,0.0,0.0,0.0,0.5351238621432131,0.0,0.0,0.2337162628727617,0.0,0.0,0.0,0.0,0.0,0.0,0.0,0.0,0.535123304920181,0.0,0.0,0.2337162837982183
4.250002384185785,0.049539510160684586,0.05590832233428955,0.4975574016571045,-0.10113970015606297,0.006755077078550435,0.262366019294766,0.049539510160684586,0.05590832233428955,-0.049240087939680266,-0.10113970015606297,0.006755077078550435,0.029161457321009,0.10771956660830417,-0.035441203750204764,0.012858167841162782,0.027242831885814667,-0.011758925393223764,-0.01704297959804535,0.0,-1.4420771109140347,-0.5395828353599204,13.985056067017263,0.0,0.0,0.0,0.0,0.0,0.5467974895967848,0.0,0.0,0.233204561973757,0.0,0.0,0.0,0.0,0.0,0.0,0.0,0.0,0.5467969335937344,0.0,0.0,0.2332045898437509
4.300002384185785,0.044327717274427414,0.05544614791870117,0.5091217160224915,-0.09744425877537942,0.008803659441638204,0.25916395196335246,0.044327717274427414,0.05544614791870117,-0.04932017933727151,-0.09744425877537942,0.008803659441638204,0.026616465160502756,0.10894642154982259,-0.03312361553624843,0.014674144914714304,-0.0021690120920538902,0.007739411201328037,-0.022429687902331352,0.0,-1.3547345998782183,-0.5212597437612966,13.653222974662983,0.0,0.0,0.0,0.0,0.0,0.558441895359763,0.0,0.0,0.2325474868028497,0.0,0.0,0.0,0.0,0.0,0.0,0.0,0.0,0.5584413409232933,0.0,0.0,0.2325475215911875
4.350002384185784,0.03917712718248367,0.05475810542702675,0.5199942588806152,-0.09502027468283471,0.0040925537312754634,0.2271449330854679,0.03917712718248367,0.05475810542702675,-0.050055566715420774,-0.09502027468283471,0.0040925537312754634,-0.0046007222620780275,0.11133972566969552,-0.030788652305990816,0.013630114475160049,0.00988976750522852,0.04941039904952049,-0.0012249501887708963,0.0,-1.3667025574601273,-0.5300531995488629,13.741920219802411,0.0,0.0,0.0,0.0,0.0,0.570049825596036,0.0,0.0,0.23174565534754593,0.0,0.0,0.0,0.0,0.0,0.0,0.0,0.0,0.570049273071273,0.0,0.0,0.2317456970214855
4.400002384185784,0.03407933562994003,0.053941331803798676,0.5299359560012817,-0.0928218945128369,-0.0007951690066056461,0.21539509688820538,0.03407933562994003,0.053941331803798676,-0.05167810480081192,-0.0928218945128369,-0.0007951690066056461,-0.015404726036247013,0.11091989261723256,-0.029687468175530363,0.012256104930960632,-0.013199832290410995,0.03599949926137924,-0.006498949602246289,0.0,-1.4822802441739436,-0.5432670369799458,14.216337755928363,0.0,0.0,0.0,0.0,0.0,0.5816140608020937,0.0,0.0,0.2307998229244524,0.0,0.0,0.0,0.0,0.0,0.0,0.0,0.0,0.5816135105323627,0.0,0.0,0.2307998714447034
4.450002384185784,0.02928953990340233,0.05293671786785126,0.5398819446563721,-0.09389798793650544,-0.002695056080497277,0.21490900220310655,0.02928953990340233,0.05293671786785126,-0.05324547801711366,-0.09389798793650544,-0.002695056080497277,-0.014801879976170995,0.10002511238020118,-0.028339727891782296,0.011008311423237771,-0.0022102147340774536,0.02032461389899254,-0.01202007941901684,0.0,-1.468556238556774,-0.5236184453517414,14.241322343570213,0.0,0.0,0.0,0.0,0.0,0.5931274226734857,0.0,0.0,0.22971088217927754,0.0,0.0,0.0,0.0,0.0,0.0,0.0,0.0,0.5931268749999838,0.0,0.0,0.2297109375000015
4.500002384185784,0.02418389543890953,0.05186213552951813,0.5496281385421753,-0.0896123628868571,-0.005872311788694372,0.21811503427753084,0.02418389543890953,0.05186213552951813,-0.054954642429097644,-0.0896123628868571,-0.005872311788694372,-0.010364828809300924,0.10738327109050116,-0.028793281981768892,0.011241266239224501,-0.037825725972652435,0.004693335853517057,0.011906463652849197,0.0,-1.5180067020314816,-0.5332448338186176,14.448714910791711,0.0,0.0,0.0,0.0,0.0,0.6045827809712729,0.0,0.0,0.22847986308683177,0.0,0.0,0.0,0.0,0.0,0.0,0.0,0.0,0.6045822362327409,0.0,0.0,0.2284799251556414
4.550002384185784,0.019185088574886322,0.050375714898109436,0.5600007176399231,-0.08406012705435675,-0.012057657933099966,0.2366019577706748,0.019185088574886322,0.050375714898109436,-0.05597234274856244,-0.08406012705435675,-0.012057657933099966,0.009494024819648422,0.09469161666987747,-0.024944508790313957,0.008970396613907639,-0.019558392465114594,-0.010453725233674048,0.016412049531936646,0.0,-1.5454131644086,-0.5286619737270184,14.501991877863773,0.0,0.0,0.0,0.0,0.0,0.6159730603884855,0.0,0.0,0.22710793295102638,0.0,0.0,0.0,0.0,0.0,0.0,0.0,0.0,0.6159725189208816,0.0,0.0,0.2271080017089864
4.6000023841857836,0.014316053129732609,0.04884592816233635,0.571100115776062,-0.08728893126340012,-0.014441855894707362,0.24538572142214946,0.014316053129732609,0.04884592816233635,-0.056191131640513814,-0.08728893126340012,-0.014441855894707362,0.019789325017274845,0.10093400011577325,-0.02887659008429644,0.010739594237271888,-0.01674339920282364,-0.029221024364233017,0.010560685768723491,0.0,-1.568177725602313,-0.5121580313733398,14.468039075512268,0.0,0.0,0.0,0.0,0.0,0.6272912474165758,0.0,0.0,0.2255963964048746,0.0,0.0,0.0,0.0,0.0,0.0,0.0,0.0,0.627290709552748,0.0,0.0,0.2255964717865014
4.650002384185783,0.009489862248301506,0.04709026589989662,0.5831124186515808,-0.07924259601250119,-0.02030275718247053,0.2666919093890524,0.009489862248301506,0.04709026589989662,-0.0554179785602944,-0.07924259601250119,-0.02030275718247053,0.04274521397856079,0.09825802171109421,-0.030972798914939315,0.014172847833795466,0.008751893416047096,-0.04145214334130287,0.0022345713805407338,0.0,-1.6171757367708255,-0.519356082647593,14.533954924210803,0.0,0.0,0.0,0.0,0.0,0.6385303972118752,0.0,0.0,0.22394669541049161,0.0,0.0,0.0,0.0,0.0,0.0,0.0,0.0,0.6385298632812328,0.0,0.0,0.2239467773437529
4.700002384185783,0.00455477787181735,0.04488358646631241,0.5958533883094788,-0.07807482598912811,-0.025782397687602005,0.2776791060282706,0.00455477787181735,0.04488358646631241,-0.05383025215256887,-0.07807482598912811,-0.025782397687602005,0.05551869676917781,0.1025575582630176,-0.03506661231817709,0.010398698752597468,-0.018422773107886314,-0.04251408949494362,-0.007535809651017184,0.0,-1.5559643849333498,-0.4780440953612349,14.189828278563661,0.0,0.0,0.0,0.0,0.0,0.6496836404620476,0.0,0.0,0.2221604092590928,0.0,0.0,0.0,0.0,0.0,0.0,0.0,0.0,0.6496831107902354,0.0,0.0,0.2221604976654082
4.750002384185783,0.0005394248873926699,0.043265387415885925,0.6069556474685669,-0.07406746227540495,-0.029897575869010245,0.2827243550469152,0.0005394248873926699,0.043265387415885925,-0.05378854278397838,-0.07406746227540495,-0.029897575869010245,0.062485100475917876,0.09467812672933684,-0.03676335412695142,0.012285257064062804,-0.026927243918180466,-0.0062437658198177814,-0.0006759613752365105,0.0,-1.4685872556508648,-0.4344830189054433,13.906119854488104,0.0,0.0,0.0,0.0,0.0,0.6607441902525453,0.0,0.0,0.2202392545709973,0.0,0.0,0.0,0.0,0.0,0.0,0.0,0.0,0.6607436651611158,0.0,0.0,0.2202393493652374
4.800002384185783,-0.004734143149107695,0.04063207283616066,0.6211341619491577,-0.06971438113363593,-0.025164872966726596,0.27290496233587747,-0.004734143149107695,0.04063207283616066,-0.05057118698390761,-0.06971438113363593,-0.025164872966726596,0.05471987704025377,0.10146256510138096,-0.03333525575883023,0.011510334396608535,-0.03758014738559723,-0.0005835432093590532,-0.027014555409550667,0.0,-1.5083345533399353,-0.4279384204963228,14.060055623971174,0.0,0.0,0.0,0.0,0.0,0.6717053489330653,0.0,0.0,0.2181850852956237,0.0,0.0,0.0,0.0,0.0,0.0,0.0,0.0,0.6717048287391487,0.0,0.0,0.2181851863861117
4.850002384185783,-0.009352020919322968,0.03815285861492157,0.6332472562789917,-0.07327932842219677,-0.03773650317990854,0.26170460246849087,-0.009352020919322968,0.03815285861492157,-0.049313258705009466,-0.07327932842219677,-0.03773650317990854,0.04570470975699775,0.09522598351395084,-0.03601190696711365,0.010327657124883594,-0.01778177171945572,0.020682616159319878,-0.007163035683333876,0.0,-1.5427199217970884,-0.44246511873991407,14.196773842656107,0.0,0.0,0.0,0.0,0.0,0.6825605149840012,0.0,0.0,0.2159998927114931,0.0,0.0,0.0,0.0,0.0,0.0,0.0,0.0,0.6825599999999824,0.0,0.0,0.2160000000000038
4.9000023841857825,-0.01384916715323925,0.03543233498930931,0.6452240943908691,-0.07196202761195154,-0.04124432493889194,0.26415500417601856,-0.01384916715323925,0.03543233498930931,-0.04807909549203271,-0.07196202761195154,-0.04124432493889194,0.050469198749789945,0.09031391317637105,-0.034207255255597424,0.009089558172853174,-0.03778935223817825,0.027453459799289703,-0.011922170408070091,0.0,-1.428585811174795,-0.3701888982800502,13.948413233006852,0.0,0.0,0.0,0.0,0.0,0.6933031898829018,0.0,0.0,0.21368580542622861,0.0,0.0,0.0,0.0,0.0,0.0,0.0,0.0,0.6933026804160896,0.0,0.0,0.213685918807987
4.950002384185782,-0.01830672286450863,0.032683875411748886,0.6566923260688782,-0.06749002691610063,-0.04226306889656585,0.24893830414383844,-0.01830672286450863,0.032683875411748886,-0.047234658902045035,-0.06749002691610063,-0.04226306889656585,0.03769321476728493,0.092714712909725,-0.03011683697301981,0.010689469026642584,-0.0436868816614151,0.04095250368118286,-0.0023309581447392754,0.0,-1.402976494517304,-0.3459462103554248,13.883115997533475,0.0,0.0,0.0,0.0,0.0,0.7039269849709232,0.0,0.0,0.2112450893765535,0.0,0.0,0.0,0.0,0.0,0.0,0.0,0.0,0.7039264813232243,0.0,0.0,0.2112452087402385
5.000002384185782,-0.022755928337574005,0.02976643480360508,0.6676478385925293,-0.06576636921646957,-0.04601790727046681,0.24195025104653448,-0.022755928337574005,0.02976643480360508,-0.046777789726756946,-0.06576636921646957,-0.04601790727046681,0.033270103218240116,0.0902606170010607,-0.03129057248893696,0.008017792914966293,-0.02367103472352028,0.016688112169504166,0.004928634501993654,0.0,-1.4940613009302848,-0.35582367305146134,14.144408233333955,0.0,0.0,0.0,0.0,0.0,0.7144256283192862,0.0,0.0,0.20868014782829436,0.0,0.0,0.0,0.0,0.0,0.0,0.0,0.0,0.7144251307868786,0.0,0.0,0.2086802730560347
