time,pos_x,pos_y,pos_z,vel_x,vel_y,vel_z,pos_xo,pos_yo,pos_zo,vel_xo,vel_yo,vel_zo,roll,pitch,yaw,roll_vel,pitch_vel,yaw_vel,thrust_z,force_x,force_y,force_z,torque_x,torque_y,torque_z,pos_xd,pos_yd,pos_zd,vel_xd,vel_yd,vel_zd,roll_d,pitch_d,yaw_d,roll_vel_d,pitch_vel_d,yaw_vel_d,pos_xr,pos_yr,pos_zr,vel_xr,vel_yr,vel_zr
0.005,-7.608812075344716e-10,7.693314563530647e-11,0.20500533864569026,-1.132714629069017e-07,1.9172885654233293e-09,0.0009998982603739183,-7.608812075344716e-10,7.693314563530647e-11,0.005005338645690249,-1.132714629069017e-07,1.9172885654233293e-09,0.0009998982603739183,-6.296715529533381e-10,-5.96428120214665e-09,-1.5370642220879558e-10,1.1422882001312135e-07,1.1109132157037208e-07,1.2129726659633792e-10,0.0,0.0,0.0,0.0,0.0,0.0,0.0,0.0,0.0,0.2,0.0,0.0,0.0,0.0,0.0,0.0,0.0,0.0,0.0,0.0,0.0,0.2,0.0,0.0,0.0
0.01,-3.3035747924342635e-09,-1.8017403084567425e-10,0.20501000484734835,1.7662410783998666e-08,-2.2516820298445628e-08,0.0009999036303365257,-7.608812075344716e-10,7.693314563530647e-11,0.005005338645690249,-1.132714629069017e-07,1.9172885654233293e-09,0.0009998982603739183,6.125455719529411e-10,-5.538685620347438e-09,-1.2519951312501795e-10,1.071842245717455e-07,8.734811465208221e-08,-2.4463560440188086e-10,0.0,-5.7161890106841495,2.409412141578077,52.5454711854904,0.0,0.0,0.0,0.0,0.0,0.20000000195129441,0.0,0.0,1.170410614013672e-06,0.0,0.0,0.0,0.0,0.0,0.0,0.0,0.0,0.2000000019512944,0.0,0.0,1.170410614013672e-06
0.015,-3.2524581686792408e-09,-1.0948076649739762e-10,0.2050153377132133,2.7794686712587226e-09,-1.3568174830861821e-08,0.000999919929537717,-7.608812075344716e-10,7.693314563530647e-11,0.005005338645690249,-1.132714629069017e-07,1.9172885654233293e-09,0.0009998982603739183,2.5642298420046044e-10,-5.278458902371108e-09,-1.314184177751877e-10,6.479175833113034e-08,1.6263948188210975e-08,4.190218274896691e-10,0.0,-5.7161890106841495,2.409412141578077,52.5454711854904,0.0,0.0,0.0,0.0,0.0,0.20000001559571778,0.0,0.0,4.67578857421875e-06,0.0,0.0,0.0,0.0,0.0,0.0,0.0,0.0,0.2000000155957177,0.0,0.0,4.67578857421875e-06
0.02,-3.270320138703607e-09,3.805282452623305e-09,0.20502000404326567,-1.0108691779848862e-08,-5.037426890551106e-09,0.000999934095830963,-7.608812075344716e-10,7.693314563530647e-11,0.005005338645690249,-1.132714629069017e-07,1.9172885654233293e-09,0.0009998982603739183,4.6096653479587766e-10,-5.3526159414450334e-09,-1.290815438963759e-10,2.5666788711770083e-08,-4.6638265291387704e-08,1.1449243475899129e-10,0.0,-5.7161890106841495,2.409412141578077,52.5454711854904,0.0,0.0,0.0,0.0,0.0,0.20000005258617082,0.0,0.0,1.0507361297607422e-05,0.0,0.0,0.0,0.0,0.0,0.0,0.0,0.0,0.2000000525861708,0.0,0.0,1.0507361297607422e-05
0.025,-3.4138010309191347e-09,3.830098370971035e-09,0.20502533709984244,-4.2563975999988164e-08,1.3974613178924206e-08,0.0009999618808489816,-7.608812075344716e-10,7.693314563530647e-11,0.005005338645690249,-1.132714629069017e-07,1.9172885654233293e-09,0.0009998982603739183,3.4972239505240306e-10,-6.03792636571419e-09,-3.0891034431189105e-10,-6.590707807372503e-08,-2.0510870511400436e-07,-1.5476188382310564e-09,0.0,-5.7161890106841495,2.409412141578077,52.5454711854904,0.0,0.0,0.0,0.0,0.0,0.20000012453171875,0.0,0.0,1.8656367187500002e-05,0.0,0.0,0.0,0.0,0.0,0.0,0.0,0.0,0.2000001245317187,0.0,0.0,1.86563671875e-05
0.030000000000000002,-1.800588416061237e-06,1.9959637143398705e-09,0.20503140987328472,-0.0010075524664524475,-3.181389392210063e-06,0.0017370329406488567,-7.608812075344716e-10,7.693314563530647e-11,0.005005338645690249,-1.132714629069017e-07,1.9172885654233293e-09,0.0009998982603739183,-1.3263641671681215e-09,-9.383025207715557e-06,-2.614152462142955e-10,-3.897589038312152e-07,-0.004914193995051993,-2.7372054398674267e-08,0.0,-5.7161890106841495,2.409412141578077,52.5454711854904,0.0,0.0,0.0,0.0,0.0,0.20000024299764635,0.0,0.0,2.9114055633544923e-05,0.0,0.0,0.0,0.0,0.0,0.0,0.0,0.0,0.2000002429976463,0.0,0.0,2.9114055633544923e-05
0.035,-2.0933017528283334e-05,-2.969503769073478e-10,0.20505073852274977,-0.006834003841632613,4.627835887652536e-08,0.00599853541046214,-7.608812075344716e-10,7.693314563530647e-11,0.005005338645690249,-1.132714629069017e-07,1.9172885654233293e-09,0.0009998982603739183,-3.1785247029994596e-09,-0.00010269441622744075,-5.947663291722559e-10,-3.133199677745474e-07,-0.033328611843138345,-1.1446539882354343e-07,0.0,-5.7161890106841495,2.409412141578077,52.5454711854904,0.0,0.0,0.0,0.0,0.0,0.2000004195055127,0.0,0.0,4.187168701171876e-05,0.0,0.0,0.0,0.0,0.0,0.0,0.0,0.0,0.2000004195055127,0.0,0.0,4.187168701171876e-05
0.04,-7.783923323797628e-05,1.2276859262492235e-06,0.20509999403691093,-0.01606823330057686,0.0007184057142742622,0.014554924226363947,-7.608812075344716e-10,7.693314563530647e-11,0.005005338645690249,-1.132714629069017e-07,1.9172885654233293e-09,0.0009998982603739183,-3.147829490477319e-06,-0.0003969128010793452,2.2861015752682003e-05,-0.0026731409220309213,-0.0877361826257966,0.01284319143408609,0.0,-5.7161890106841495,2.409412141578077,52.5454711854904,0.0,0.0,0.0,0.0,0.0,0.20000066553320633,0.0,0.0,5.6920532684326184e-05,0.0,0.0,0.0,0.0,0.0,0.0,0.0,0.0,0.2000006655332063,0.0,0.0,5.692053268432618e-05
0.045,-0.00019817521143891776,1.6596998695575415e-05,0.20522258217436606,-0.027627682579130848,0.005033117102558486,0.03022672967788374,-7.608812075344716e-10,7.693314563530647e-11,0.005005338645690249,-1.132714629069017e-07,1.9172885654233293e-09,0.0009998982603739183,-4.224200094301442e-05,-0.0011403107047293427,0.00020957456748205565,-0.008244902955054539,-0.18683332321404542,0.05104735545716319,0.0,-5.7161890106841495,2.409412141578077,52.5454711854904,0.0,0.0,0.0,0.0,0.0,0.200000992515,0.0,0.0,7.4251875e-05,0.0,0.0,0.0,0.0,0.0,0.0,0.0,0.0,0.200000992515,0.0,0.0,7.4251875e-05
0.049999999999999996,-0.0003501951025978499,5.31618098508618e-05,0.20541349937406397,-0.036345889878768585,0.009992632299862098,0.04992729954798494,-7.608812075344716e-10,7.693314563530647e-11,0.005005338645690249,-1.132714629069017e-07,1.9172885654233293e-09,0.0009998982603739183,-0.0001144192118561062,-0.0023126043776849382,0.0005049130700663158,-0.023959415110411834,-0.30300571615685357,0.07215327027774802,0.0,-5.7161890106841495,2.409412141578077,52.5454711854904,0.0,0.0,0.0,0.0,0.0,0.2000014118416057,0.0,0.0,9.385700729370117e-05,0.0,0.0,0.0,0.0,0.0,0.0,0.0,0.0,0.2000014118416057,0.0,0.0,9.385700729370116e-05
0.05499999999999999,-0.0005430891563641195,0.00011751048504589321,0.20570696188236384,-0.044804129714872284,0.016946355394249307,0.07320530812806667,-0.0005430891563641195,0.00011751048504589321,0.005705027022134351,-0.044804129714872284,0.016946355394249307,0.07308958089417994,-0.0003154822965184596,-0.004043027913899625,0.0008913763021908237,-0.05884460132604394,-0.42292121302757174,0.08613447583581468,0.0,-5.7161890106841495,2.409412141578077,52.5454711854904,0.0,0.0,0.0,0.0,0.0,0.2000019348602295,0.0,0.0,0.00011572723388671873,0.0,0.0,0.0,0.0,0.0,0.0,0.0,0.0,0.2000019348602295,0.0,0.0,0.0001157272338867
0.05999999999999999,-0.0008026690331280885,0.00023242749590069562,0.206189849712061,-0.05177524039850736,0.025092744983912247,0.10371951222922499,-0.0005430891563641195,0.00011751048504589321,0.005705027022134351,-0.044804129714872284,0.016946355394249307,0.07308958089417994,-0.000784279103949793,-0.006770114542936223,0.0013441145554923843,-0.11516012317812,-0.5726453275251617,0.08434353528124165,0.0,-6.462835754244951,2.8598314635018363,39.571909898914434,0.0,0.0,0.0,0.0,0.0,0.20000257287462664,0.0,0.0,0.0001398538700866699,0.0,0.0,0.0,0.0,0.0,0.0,0.0,0.0,0.2000025728746266,0.0,0.0,0.0001398538700866
0.06499999999999999,-0.001063869602228216,0.0003677893033691541,0.20674291032461628,-0.058407806909184706,0.03147429332380773,0.12951063900593315,-0.0005430891563641195,0.00011751048504589321,0.005705027022134351,-0.044804129714872284,0.016946355394249307,0.07308958089417994,-0.0015514772699747761,-0.009685005516353313,0.0017281155439920998,-0.19883873727842752,-0.6648750060049183,0.07953352143967783,0.0,-6.462835754244951,2.8598314635018363,39.571909898914434,0.0,0.0,0.0,0.0,0.0,0.20000333714515625,0.0,0.0,0.00016622824218749996,0.0,0.0,0.0,0.0,0.0,0.0,0.0,0.0,0.2000033371451562,0.0,0.0,0.0001662282421874
0.06999999999999999,-0.001391327357298282,0.000551839605976525,0.20752287477609385,-0.0634331344699588,0.03601367427501956,0.15894944389154003,-0.0005430891563641195,0.00011751048504589321,0.005705027022134351,-0.044804129714872284,0.016946355394249307,0.07308958089417994,-0.0029192760682113187,-0.013540982199049393,0.002150122524744528,-0.30587268922594685,-0.7610833999168042,0.07629720214115521,0.0,-6.462835754244951,2.8598314635018363,39.571909898914434,0.0,0.0,0.0,0.0,0.0,0.20000423888883653,0.0,0.0,0.00019484168746948237,0.0,0.0,0.0,0.0,0.0,0.0,0.0,0.0,0.2000042388888365,0.0,0.0,0.0001948416874694
0.075,-0.0017318345483467274,0.0007442571601053165,0.20845885081179308,-0.0645163654218093,0.03629587519289411,0.18857704130802844,-0.0005430891563641195,0.00011751048504589321,0.005705027022134351,-0.044804129714872284,0.016946355394249307,0.07308958089417994,-0.004910826284975019,-0.017856118028460537,0.002568713602643245,-0.4174861242382176,-0.8551827381843211,0.0714297724738046,0.0,-6.462835754244951,2.8598314635018363,39.571909898914434,0.0,0.0,0.0,0.0,0.0,0.20000528927939942,0.0,0.0,0.00022568555419921868,0.0,0.0,0.0,0.0,0.0,0.0,0.0,0.0,0.2000052892793994,0.0,0.0,0.0002256855541992
0.08,-0.0020361376054400452,0.0009128370969744096,0.20939985903651864,-0.06598224565820399,0.0361510904901133,0.21216671143120844,-0.0005430891563641195,0.00011751048504589321,0.005705027022134351,-0.044804129714872284,0.016946355394249307,0.07308958089417994,-0.007020056366857193,-0.021807699868100935,0.002917514128626355,-0.4704985983668769,-0.8322106973840496,0.06894092668062134,0.0,-6.462835754244951,2.8598314635018363,39.571909898914434,0.0,0.0,0.0,0.0,0.0,0.20000649944734575,0.0,0.0,0.00025875120162963865,0.0,0.0,0.0,0.0,0.0,0.0,0.0,0.0,0.2000064994473457,0.0,0.0,0.0002587512016296
0.085,-0.0023934581130547086,0.0011064913145235368,0.21061733100677005,-0.0685768876199754,0.03676951201412615,0.2387650285451101,-0.0005430891563641195,0.00011751048504589321,0.005705027022134351,-0.044804129714872284,0.016946355394249307,0.07308958089417994,-0.00957306351165199,-0.02623241157373717,0.003310364848476575,-0.47559808814082055,-0.7869982483359835,0.0660069060314011,0.0,-6.462835754244951,2.8598314635018363,39.571909898914434,0.0,0.0,0.0,0.0,0.0,0.20000788048,0.0,0.0,0.00029403000000000003,0.0,0.0,0.0,0.0,0.0,0.0,0.0,0.0,0.20000788048,0.0,0.0,0.00029403
0.09000000000000001,-0.0027205935191651235,0.0012796023541867569,0.21179791471213066,-0.0716675531165808,0.03777669254838112,0.2645373792912322,-0.0005430891563641195,0.00011751048504589321,0.005705027022134351,-0.044804129714872284,0.016946355394249307,0.07308958089417994,-0.011774483727538872,-0.02966081413697207,0.0036539762578064617,-0.4464860148148597,-0.7035417465880752,0.0652818541692558,0.0,-6.462835754244951,2.8598314635018363,39.571909898914434,0.0,0.0,0.0,0.0,0.0,0.2000094434215654,0.0,0.0,0.0003315133305358888,0.0,0.0,0.0,0.0,0.0,0.0,0.0,0.0,0.2000094434215654,0.0,0.0,0.0003315133305358
0.09500000000000001,-0.003116447169238871,0.0014864054919961128,0.21328220408348925,-0.0765076618047732,0.0396907723471945,0.2907712115170079,-0.0005430891563641195,0.00011751048504589321,0.005705027022134351,-0.044804129714872284,0.016946355394249307,0.07308958089417994,-0.013960737380556126,-0.03290145348044981,0.004023516804709798,-0.3763463839341086,-0.5266158254327703,0.05960745802624093,0.0,-6.462835754244951,2.8598314635018363,39.571909898914434,0.0,0.0,0.0,0.0,0.0,0.20001119927317873,0.0,0.0,0.00037119258544921884,0.0,0.0,0.0,0.0,0.0,0.0,0.0,0.0,0.2000111992731787,0.0,0.0,0.0003711925854492
0.10000000000000002,-0.0034853449075404365,0.001676935345257191,0.21470873201789314,-0.08098925893985674,0.041889813295800715,0.31488003842309353,-0.0005430891563641195,0.00011751048504589321,0.005705027022134351,-0.044804129714872284,0.016946355394249307,0.07308958089417994,-0.01546441166212626,-0.03504877248935628,0.004328870956355281,-0.2808820329529251,-0.4040554715036305,0.05743858232954724,0.0,-6.462835754244951,2.8598314635018363,39.571909898914434,0.0,0.0,0.0,0.0,0.0,0.20001315899296526,0.0,0.0,0.0004130591679382326,0.0,0.0,0.0,0.0,0.0,0.0,0.0,0.0,0.2000131589929652,0.0,0.0,0.0004130591679382
0.10500000000000002,-0.003932445596312704,0.0019080168753161843,0.2164782591245735,-0.08609417229839818,0.04454543855226194,0.34522070043772807,-0.003932445596312704,0.0019080168753161843,0.01646292562847973,-0.08609417229839818,0.04454543855226194,0.34476359594554057,-0.01662648395965304,-0.036760363121914504,0.0046636027586960255,-0.16900895350953865,-0.27841269339537783,0.057072245623178294,0.0,-6.462835754244951,2.8598314635018363,39.571909898914434,0.0,0.0,0.0,0.0,0.0,0.20001533349609377,0.0,0.0,0.0004571044921875002,0.0,0.0,0.0,0.0,0.0,0.0,0.0,0.0,0.2000153334960937,0.0,0.0,0.0004571044921875
0.11000000000000003,-0.0043452487239277054,0.0021234118690628767,0.2181408227768832,-0.09030759149717438,0.04714527366640759,0.3627733198129026,-0.003932445596312704,0.0019080168753161843,0.01646292562847973,-0.08609417229839818,0.04454543855226194,0.34476359594554057,-0.017112751650467804,-0.03770029524553518,0.004929135695382932,-0.05192843708141751,-0.14335176188586857,0.05274281125875688,0.0,-0.48191775695458616,0.29335251375868854,15.934720617784008,0.0,0.0,0.0,0.0,0.0,0.20001773365483141,0.0,0.0,0.0005033199833679202,0.0,0.0,0.0,0.0,0.0,0.0,0.0,0.0,0.2000177336548314,0.0,0.0,0.0005033199833679
0.11500000000000003,-0.004841029863503145,0.0023825181499899624,0.22011311425146676,-0.09513580431987112,0.04987762114514701,0.37358513407546007,-0.003932445596312704,0.0019080168753161843,0.01646292562847973,-0.08609417229839818,0.04454543855226194,0.34476359594554057,-0.017038046981765198,-0.03800886759249698,0.005211970597757295,0.07506011371939099,0.016874799316526874,0.05076388584950491,0.0,-0.48191775695458616,0.29335251375868854,15.934720617784008,0.0,0.0,0.0,0.0,0.0,0.20002037029859865,0.0,0.0,0.0005516970776367191,0.0,0.0,0.0,0.0,0.0,0.0,0.0,0.0,0.2000203702985986,0.0,0.0,0.0005516970776367
0.12000000000000004,-0.005292232546843609,0.0026191531633733816,0.22185296433757148,-0.0977960183061575,0.051340168483978696,0.37283256785574503,-0.003932445596312704,0.0019080168753161843,0.01646292562847973,-0.08609417229839818,0.04454543855226194,0.34476359594554057,-0.016506245447832923,-0.0376326800588034,0.005445947270264389,0.14549174206976814,0.11869840944439716,0.05160521649970105,0.0,-0.48191775695458616,0.29335251375868854,15.934720617784008,0.0,0.0,0.0,0.0,0.0,0.2000232542140242,0.0,0.0,0.0006022272221374515,0.0,0.0,0.0,0.0,0.0,0.0,0.0,0.0,0.2000232542140242,0.0,0.0,0.0006022272221374
0.12500000000000003,-0.005824443955230843,0.0028978993314372143,0.22383455926713686,-0.10060281335767418,0.052632622012981585,0.36818665459204863,-0.003932445596312704,0.0019080168753161843,0.01646292562847973,-0.08609417229839818,0.04454543855226194,0.34476359594554057,-0.01559264905667239,-0.03670722636489064,0.0056963758193671965,0.1866402301972462,0.19436032777416418,0.04758205624593273,0.0,-0.48191775695458616,0.29335251375868854,15.934720617784008,0.0,0.0,0.0,0.0,0.0,0.200026396145,0.0,0.0,0.0006549018750000005,0.0,0.0,0.0,0.0,0.0,0.0,0.0,0.0,0.200026396145,0.0,0.0,0.000654901875
0.13000000000000003,-0.006297427165090283,0.0031453996490942325,0.22553080430367184,-0.10205793884541237,0.053180596995811055,0.3598477265391952,-0.003932445596312704,0.0019080168753161843,0.01646292562847973,-0.08609417229839818,0.04454543855226194,0.34476359594554057,-0.014728897626167931,-0.03565109267312639,0.005891203275241289,0.1822323008423934,0.24691891726742987,0.04366626325606087,0.0,-0.48191775695458616,0.29335251375868854,15.934720617784008,0.0,0.0,0.0,0.0,0.0,0.20002980679273608,0.0,0.0,0.0007097125053405766,0.0,0.0,0.0,0.0,0.0,0.0,0.0,0.0,0.200029806792736,0.0,0.0,0.0007097125053405
0.13500000000000004,-0.006845285878152051,0.0034265648160173865,0.22740524780336216,-0.10259249742195604,0.052410323240144045,0.34408496352665646,-0.003932445596312704,0.0019080168753161843,0.01646292562847973,-0.08609417229839818,0.04454543855226194,0.34476359594554057,-0.013968936267179011,-0.03441831407975839,0.006102708129174622,0.11515812854370809,0.20383848898109316,0.041885717675316174,0.0,-0.48191775695458616,0.29335251375868854,15.934720617784008,0.0,0.0,0.0,0.0,0.0,0.20003349681581545,0.0,0.0,0.0007666505932617191,0.0,0.0,0.0,0.0,0.0,0.0,0.0,0.0,0.2000334968158154,0.0,0.0,0.0007666505932617
0.14000000000000004,-0.0073231194427687335,0.0036706227328781858,0.2289699994559888,-0.10234848418511194,0.05210888689410641,0.3286831810313918,-0.003932445596312704,0.0019080168753161843,0.01646292562847973,-0.08609417229839818,0.04454543855226194,0.34476359594554057,-0.0136154413389685,-0.033594621497519316,0.006281789081570181,0.045117776395462154,0.15429085415703947,0.040172688166359875,0.0,-0.48191775695458616,0.29335251375868854,15.934720617784008,0.0,0.0,0.0,0.0,0.0,0.2000374768302492,0.0,0.0,0.0008257076298522955,0.0,0.0,0.0,0.0,0.0,0.0,0.0,0.0,0.2000374768302492,0.0,0.0,0.0008257076298522
0.14500000000000005,-0.007870265602818376,0.00394537825049807,0.2306658317842652,-0.10258059031312518,0.05140869000054082,0.30910608877888296,-0.003932445596312704,0.0019080168753161843,0.01646292562847973,-0.08609417229839818,0.04454543855226194,0.34476359594554057,-0.013668667823720938,-0.03300086580346718,0.006486993478192646,-0.040691773374384545,0.07473123663776826,0.040804075704286784,0.0,-0.48191775695458616,0.29335251375868854,15.934720617784008,0.0,0.0,0.0,0.0,0.0,0.20004175740953126,0.0,0.0,0.0008868751171875003,0.0,0.0,0.0,0.0,0.0,0.0,0.0,0.0,0.2000417574095312,0.0,0.0,0.0008868751171875
0.15000000000000005,-0.00834652088063407,0.004185838853282399,0.23205707964365674,-0.1017414154842695,0.0515102378405322,0.2898504442692015,-0.003932445596312704,0.0019080168753161843,0.01646292562847973,-0.08609417229839818,0.04454543855226194,0.34476359594554057,-0.01399009078013955,-0.032838473860319656,0.006662905297056229,-0.09052945612242802,0.008918312313031229,0.03561223707543433,0.0,-0.48191775695458616,0.29335251375868854,15.934720617784008,0.0,0.0,0.0,0.0,0.0,0.20004634908469346,0.0,0.0,0.0009501445683288579,0.0,0.0,0.0,0.0,0.0,0.0,0.0,0.0,0.2000463490846934,0.0,0.0,0.0009501445683288
0.15500000000000005,-0.008888631110323137,0.004457944445812465,0.2335349526696348,-0.10164206851400324,0.05083212882785843,0.2667830824803093,-0.008888631110323137,0.004457944445812465,0.03348369032527446,-0.10164206851400324,0.05083212882785843,0.2657675749729851,-0.014646012335073831,-0.03297239502199307,0.006848454697781205,-0.13519526590691544,-0.051014927340677724,0.03618356880036309,0.0,-0.48191775695458616,0.29335251375868854,15.934720617784008,0.0,0.0,0.0,0.0,0.0,0.20005126234436035,0.0,0.0,0.0010155075073242194,0.0,0.0,0.0,0.0,0.0,0.0,0.0,0.0,0.2000512623443603,0.0,0.0,0.0010155075073242
0.16000000000000006,-0.009363960158676257,0.004696743778958197,0.23472263059258366,-0.10209997844166312,0.051581420025032416,0.24552399484284096,-0.008888631110323137,0.004457944445812465,0.03348369032527446,-0.10164206851400324,0.05083212882785843,0.2657675749729851,-0.0152840939291923,-0.03326376113723223,0.007032241248682935,-0.12928080217539153,-0.054332355022608546,0.03810249276179416,0.0,4.948522362474433,-2.2019694715832676,21.25113300217668,0.0,0.0,0.0,0.0,0.0,0.20005650763480423,0.0,0.0,0.0010829554692077645,0.0,0.0,0.0,0.0,0.0,0.0,0.0,0.0,0.2000565076348042,0.0,0.0,0.0010829554692077
0.16500000000000006,-0.009914353581019789,0.004975291678626497,0.23596393524967121,-0.10453947728941236,0.05261572867414832,0.22287849265562368,-0.008888631110323137,0.004457944445812465,0.03348369032527446,-0.10164206851400324,0.05083212882785843,0.2657675749729851,-0.015866217125522285,-0.033185471911237725,0.007220084183182517,-0.08913086191541551,0.08864394545999968,0.03516086232753715,0.0,4.948522362474433,-2.2019694715832676,21.25113300217668,0.0,0.0,0.0,0.0,0.0,0.20006209536,0.0,0.0,0.0011524800000000006,0.0,0.0,0.0,0.0,0.0,0.0,0.0,0.0,0.20006209536,0.0,0.0,0.00115248
0.17000000000000007,-0.010411803717334599,0.005224171275680294,0.23695231382493956,-0.10814843521493865,0.05438426991675031,0.20427224528113974,-0.008888631110323137,0.004457944445812465,0.03348369032527446,-0.10164206851400324,0.05083212882785843,0.2657675749729851,-0.016092609538250358,-0.03221415238914949,0.007370745289276651,-0.0020886406317611704,0.3033546439032991,0.03355271221109366,0.0,4.948522362474433,-2.2019694715832676,21.25113300217668,0.0,0.0,0.0,0.0,0.0,0.20006803588168015,0.0,0.0,0.0012240726567077647,0.0,0.0,0.0,0.0,0.0,0.0,0.0,0.0,0.2000680358816801,0.0,0.0,0.0012240726567077
0.17500000000000007,-0.011002866281690364,0.005525279262628956,0.23798654688333273,-0.1128042200875088,0.05760939552359348,0.18648484946455066,-0.008888631110323137,0.004457944445812465,0.03348369032527446,-0.10164206851400324,0.05083212882785843,0.2657675749729851,-0.01567859679265208,-0.029732013952246304,0.007495227765260067,0.13827341845172975,0.5993656894099794,0.02956173037310159,0.0,4.948522362474433,-2.2019694715832676,21.25113300217668,0.0,0.0,0.0,0.0,0.0,0.20007433951938966,0.0,0.0,0.0012977250073242198,0.0,0.0,0.0,0.0,0.0,0.0,0.0,0.0,0.2000743395193896,0.0,0.0,0.0012977250073242
0.18000000000000008,-0.011541770040114948,0.005800181986366608,0.23881964244074805,-0.11729902998407489,0.059804595883593145,0.1722201504307181,-0.008888631110323137,0.004457944445812465,0.03348369032527446,-0.10164206851400324,0.05083212882785843,0.2657675749729851,-0.01462082666861332,-0.02613148052152672,0.007555776191021285,0.2913666208709659,0.8918369100590017,0.021049833637745315,0.0,4.948522362474433,-2.2019694715832676,21.25113300217668,0.0,0.0,0.0,0.0,0.0,0.20008101655054095,0.0,0.0,0.0013734286308288584,0.0,0.0,0.0,0.0,0.0,0.0,0.0,0.0,0.2000810165505409,0.0,0.0,0.0013734286308288
0.18500000000000008,-0.012179909468676892,0.006126720646692355,0.23968379229644735,-0.12127847327314961,0.06231017928971446,0.15460254242634291,-0.008888631110323137,0.004457944445812465,0.03348369032527446,-0.10164206851400324,0.05083212882785843,0.2657675749729851,-0.012569031023472513,-0.0205574488835501,0.0075778632272754266,0.4548820744575269,1.1699839508918248,0.017099427753562775,0.0,4.948522362474433,-2.2019694715832676,21.25113300217668,0.0,0.0,0.0,0.0,0.0,0.20008807721046876,0.0,0.0,0.0014511751171875013,0.0,0.0,0.0,0.0,0.0,0.0,0.0,0.0,0.2000880772104687,0.0,0.0,0.0014511751171875
0.19000000000000009,-0.012754380484802267,0.006421358515379458,0.24035973115110504,-0.12405305053559768,0.06372634645751299,0.13774911184728486,-0.008888631110323137,0.004457944445812465,0.03348369032527446,-0.10164206851400324,0.05083212882785843,0.2657675749729851,-0.010190194790046552,-0.014600220574530273,0.007588179936233407,0.5569377076199298,1.3398438411464237,0.016212943786478987,0.0,4.948522362474433,-2.2019694715832676,21.25113300217668,0.0,0.0,0.0,0.0,0.0,0.2000955316924852,0.0,0.0,0.0015309560673522965,0.0,0.0,0.0,0.0,0.0,0.0,0.0,0.0,0.2000955316924852,0.0,0.0,0.0015309560673522
0.1950000000000001,-0.013422583328698789,0.006767813279194372,0.24103319879565993,-0.12557280434418416,0.0655536759082054,0.11712424804088027,-0.008888631110323137,0.004457944445812465,0.03348369032527446,-0.10164206851400324,0.05083212882785843,0.2657675749729851,-0.006859483209623703,-0.007062204769968109,0.0075928998747300264,0.6528431479969236,1.4472617583151142,0.010886735542717154,0.0,4.948522362474433,-2.2019694715832676,21.25113300217668,0.0,0.0,0.0,0.0,0.0,0.20010339014793457,0.0,0.0,0.0016127630932617203,0.0,0.0,0.0,0.0,0.0,0.0,0.0,0.0,0.2001033901479345,0.0,0.0,0.0016127630932617
0.2000000000000001,-0.014008152297540306,0.007073945020773516,0.24152628278807808,-0.12504776223075198,0.06551037934637588,0.09763575473121065,-0.008888631110323137,0.004457944445812465,0.03348369032527446,-0.10164206851400324,0.05083212882785843,0.2657675749729851,-0.00381907859888966,-0.0002953659490838309,0.007597099195103595,0.6461503174807399,1.444943708223838,0.007526823323037988,0.0,4.948522362474433,-2.2019694715832676,21.25113300217668,0.0,0.0,0.0,0.0,0.0,0.20011166268624833,0.0,0.0,0.0016965878178405776,0.0,0.0,0.0,0.0,0.0,0.0,0.0,0.0,0.2001116626862483,0.0,0.0,0.0016965878178405
0.2050000000000001,-0.014670202621533793,0.007423578202485168,0.24197992758193193,-0.1230046905057311,0.06536524653765204,0.07573462211092521,-0.014670202621533793,0.007423578202485168,0.04185956820693193,-0.1230046905057311,0.06536524653765204,0.07395220023592522,-0.0003854593108922806,0.007163789549369711,0.007609201867548572,0.635471912691093,1.3433283595561967,0.0029863308751233034,0.0,4.948522362474433,-2.2019694715832676,21.25113300217668,0.0,0.0,0.0,0.0,0.0,0.200120359375,0.0,0.0,0.0017824218750000017,0.0,0.0,0.0,0.0,0.0,0.0,0.0,0.0,0.200120359375,0.0,0.0,0.001782421875
0.2100000000000001,-0.015236180481303896,0.0077258785560414805,0.24228312961747378,-0.11960563990562705,0.0641705620538678,0.05786632704953814,-0.014670202621533793,0.007423578202485168,0.04185956820693193,-0.1230046905057311,0.06536524653765204,0.07395220023592522,0.0024056663890715396,0.012969678921069658,0.007618643509626785,0.5632918406814538,1.15529711634592,-0.0003529798397701354,0.0,0.46461202522184863,-0.17949971440573065,27.41731467323352,0.0,0.0,0.0,0.0,0.0,0.20012949023996018,0.0,0.0,0.0018702569096374529,0.0,0.0,0.0,0.0,0.0,0.0,0.0,0.0,0.2001294902399601,0.0,0.0,0.0018702569096374
0.2150000000000001,-0.01585970370409263,0.008063662160957248,0.2425413269403199,-0.11470327671633884,0.06273713840752737,0.04212512304738988,-0.014670202621533793,0.007423578202485168,0.04185956820693193,-0.1230046905057311,0.06536524653765204,0.07395220023592522,0.005174574607617995,0.018227460742493387,0.0076228473410907905,0.490883207801946,0.844576104342314,-0.005123230526587521,0.0,0.46461202522184863,-0.17949971440573065,27.41731467323352,0.0,0.0,0.0,0.0,0.0,0.20013906526515138,0.0,0.0,0.0019600845776367205,0.0,0.0,0.0,0.0,0.0,0.0,0.0,0.0,0.2001390652651513,0.0,0.0,0.0019600845776367
0.2200000000000001,-0.01638053190866024,0.00835398957500566,0.24270857408972316,-0.10906452900821192,0.061744182645072775,0.03164891537638362,-0.014670202621533793,0.007423578202485168,0.04185956820693193,-0.1230046905057311,0.06536524653765204,0.07395220023592522,0.00721011703592364,0.02128082108338736,0.0076065945002851635,0.38814456186024315,0.505163589109788,-0.010320205174464194,0.0,0.46461202522184863,-0.17949971440573065,27.41731467323352,0.0,0.0,0.0,0.0,0.0,0.200149094392903,0.0,0.0,0.002051896545867922,0.0,0.0,0.0,0.0,0.0,0.0,0.0,0.0,0.200149094392903,0.0,0.0,0.0020518965458679
0.22500000000000012,-0.016941970092641236,0.008676166220085879,0.2428452460680837,-0.10236243784055975,0.059291263011896224,0.021406709222710964,-0.014670202621533793,0.007423578202485168,0.04185956820693193,-0.1230046905057311,0.06536524653765204,0.07395220023592522,0.008838866689066324,0.02275632775610027,0.007535664130777233,0.23253739731301845,0.09257506024459342,-0.01692101649566171,0.0,0.46461202522184863,-0.17949971440573065,27.41731467323352,0.0,0.0,0.0,0.0,0.0,0.20015958752390625,0.0,0.0,0.0021456844921875023,0.0,0.0,0.0,0.0,0.0,0.0,0.0,0.0,0.2001595875239062,0.0,0.0,0.0021456844921875
0.23000000000000012,-0.017405080868671017,0.008946907594733192,0.24292556310818267,-0.09685469788380047,0.05687029026969222,0.014166778840743105,-0.014670202621533793,0.007423578202485168,0.04185956820693193,-0.1230046905057311,0.06536524653765204,0.07395220023592522,0.009518478182902558,0.02224128221877388,0.007446114711531237,0.07957814630265343,-0.2572175379445805,-0.019733060803557835,0.0,0.46461202522184863,-0.17949971440573065,27.41731467323352,0.0,0.0,0.0,0.0,0.0,0.20017055451726914,0.0,0.0,0.002241440105438235,0.0,0.0,0.0,0.0,0.0,0.0,0.0,0.0,0.2001705545172691,0.0,0.0,0.0022414401054382
0.23500000000000013,-0.017907902338008656,0.009242569381279878,0.24296872151392324,-0.09278788779238327,0.05438340299192135,0.0028975320191335055,-0.014670202621533793,0.007423578202485168,0.04185956820693193,-0.1230046905057311,0.06536524653765204,0.07395220023592522,0.009465491208755191,0.019932081180171174,0.007319730896203265,-0.08201302059581447,-0.5476019853721199,-0.019295919549833347,0.0,0.46461202522184863,-0.17949971440573065,27.41731467323352,0.0,0.0,0.0,0.0,0.0,0.2001820051905713,0.0,0.0,0.0023391550854492214,0.0,0.0,0.0,0.0,0.0,0.0,0.0,0.0,0.2001820051905713,0.0,0.0,0.0023391550854492
0.24000000000000013,-0.018333259716064334,0.00949172673105562,0.24295685354882213,-0.09020574502571135,0.05268419491412107,-0.006993281717844868,-0.014670202621533793,0.007423578202485168,0.04185956820693193,-0.1230046905057311,0.06536524653765204,0.07395220023592522,0.008782223298178531,0.01688126333215832,0.007199269668257324,-0.190233493205279,-0.7159763120026688,-0.02128325857090691,0.0,0.46461202522184863,-0.17949971440573065,27.41731467323352,0.0,0.0,0.0,0.0,0.0,0.200193949319919,0.0,0.0,0.002438821143035891,0.0,0.0,0.0,0.0,0.0,0.0,0.0,0.0,0.200193949319919,0.0,0.0,0.0024388211430358
0.24500000000000013,-0.018813608411925763,0.009766291489115328,0.24287621772952417,-0.09032705568386107,0.05064716533893998,-0.0215055828568836,-0.014670202621533793,0.007423578202485168,0.04185956820693193,-0.1230046905057311,0.06536524653765204,0.07395220023592522,0.007436428457981854,0.012895526805712954,0.007027625975095881,-0.2912992315035561,-0.7481005370602304,-0.02914941940738028,0.0,0.46461202522184863,-0.17949971440573065,27.41731467323352,0.0,0.0,0.0,0.0,0.0,0.20020639664,0.0,0.0,0.002540430000000003,0.0,0.0,0.0,0.0,0.0,0.0,0.0,0.0,0.20020639664,0.0,0.0,0.00254043
0.2500000000000001,-0.019240137988711995,0.01000198365683543,0.2427452125034679,-0.0924932373130529,0.050470974582895456,-0.032678770132105475,-0.014670202621533793,0.007423578202485168,0.04185956820693193,-0.1230046905057311,0.06536524653765204,0.07395220023592522,0.006003558974080505,0.009646608954161605,0.0068693688507920295,-0.3125340512793202,-0.6455396488490203,-0.028990911673456174,0.0,0.46461202522184863,-0.17949971440573065,27.41731467323352,0.0,0.0,0.0,0.0,0.0,0.20021935684413866,0.0,0.0,0.0026439733891296417,0.0,0.0,0.0,0.0,0.0,0.0,0.0,0.0,0.2002193568441386,0.0,0.0,0.0026439733891296
0.2550000000000001,-0.01974382369417099,0.010270361014454936,0.2425317999050558,-0.09626654415434079,0.05024359402668314,-0.04497059622599779,-0.01974382369417099,0.010270361014454936,0.04229896032070521,-0.09626654415434079,0.05024359402668314,-0.04772003928019701,0.004365903962883539,0.006772961715121776,0.006686297092242695,-0.29635446313233116,-0.43883555078833963,-0.033234861036909404,0.0,0.46461202522184863,-0.17949971440573065,27.41731467323352,0.0,0.0,0.0,0.0,0.0,0.2002328395843506,0.0,0.0,0.0027494430541992214,0.0,0.0,0.0,0.0,0.0,0.0,0.0,0.0,0.2002328395843506,0.0,0.0,0.0027494430541992
0.2600000000000001,-0.020205980610982374,0.010506929119127768,0.24230421470800434,-0.10115077733894308,0.051228955367780306,-0.05148341540392267,-0.01974382369417099,0.010270361014454936,0.04229896032070521,-0.09626654415434079,0.05024359402668314,-0.04772003928019701,0.00316433270536796,0.005416143182140755,0.0065307057406737605,-0.21669188741705456,-0.17680700122251944,-0.030443766598834,0.0,1.5970752631360907,-0.7497619811680968,33.347908001254524,0.0,0.0,0.0,0.0,0.0,0.20024685447139787,0.0,0.0,0.002856830749969485,0.0,0.0,0.0,0.0,0.0,0.0,0.0,0.0,0.2002468544713978,0.0,0.0,0.0028568307499694
0.2650000000000001,-0.02076154985739952,0.010786187526947088,0.2420151298680601,-0.10655292512662916,0.05325323298566405,-0.055272269354622865,-0.01974382369417099,0.010270361014454936,0.04229896032070521,-0.09626654415434079,0.05024359402668314,-0.04772003928019701,0.0023826538080498273,0.005420301466260555,0.006367368741883233,-0.08698374452093074,0.14635726590715167,-0.0321004067548541,0.0,1.5970752631360907,-0.7497619811680968,33.347908001254524,0.0,0.0,0.0,0.0,0.0,0.20026141107484377,0.0,0.0,0.002966128242187503,0.0,0.0,0.0,0.0,0.0,0.0,0.0,0.0,0.2002614110748437,0.0,0.0,0.0029661282421875
0.27000000000000013,-0.021272903203348223,0.01103801495561682,0.24175253566531368,-0.11161614338049797,0.05447607577858333,-0.05736050800762789,-0.01974382369417099,0.010270361014454936,0.04229896032070521,-0.09626654415434079,0.05024359402668314,-0.04772003928019701,0.0023194930022433177,0.006834172826293516,0.006224057447753424,0.04159501097180325,0.4041295234086161,-0.032360494080331106,0.0,1.5970752631360907,-0.7497619811680968,33.347908001254524,0.0,0.0,0.0,0.0,0.0,0.20027651892310777,0.0,0.0,0.003077327307586673,0.0,0.0,0.0,0.0,0.0,0.0,0.0,0.0,0.2002765189231077,0.0,0.0,0.0030773273075866
0.27500000000000013,-0.021879400109332103,0.01133551383959229,0.24144586145497282,-0.1151847446219422,0.056550848014138115,-0.05759323846041886,-0.01974382369417099,0.010270361014454936,0.04229896032070521,-0.09626654415434079,0.05024359402668314,-0.04772003928019701,0.002999857995812185,0.00961618492336718,0.006065225196497461,0.1877140689201955,0.604422399243588,-0.027620331645028005,0.0,1.5970752631360907,-0.7497619811680968,33.347908001254524,0.0,0.0,0.0,0.0,0.0,0.2002921875035205,0.0,0.0,0.0031904197338867217,0.0,0.0,0.0,0.0,0.0,0.0,0.0,0.0,0.2002921875035205,0.0,0.0,0.0031904197338867
0.28000000000000014,-0.0224215544294865,0.011601856970484908,0.24117432101048436,-0.11668538094035424,0.057801489547686886,-0.05826767949207192,-0.01974382369417099,0.010270361014454936,0.04229896032070521,-0.09626654415434079,0.05024359402668314,-0.04772003928019701,0.00410798618823692,0.012661371314266565,0.005954513622764024,0.2800902041862465,0.6722042692958092,-0.026534453906924663,0.0,1.5970752631360907,-0.7497619811680968,33.347908001254524,0.0,0.0,0.0,0.0,0.0,0.2003084262623787,0.0,0.0,0.0033053973197937044,0.0,0.0,0.0,0.0,0.0,0.0,0.0,0.0,0.2003084262623787,0.0,0.0,0.0033053973197937
0.28500000000000014,-0.023045967907769044,0.011912714903993558,0.24086609130543318,-0.11696695663791104,0.05801560397490578,-0.0571254465156655,-0.01974382369417099,0.010270361014454936,0.04229896032070521,-0.09626654415434079,0.05024359402668314,-0.04772003928019701,0.005853559382805733,0.01626677613345443,0.005824186440949278,0.3476491184073211,0.6605010511073706,-0.027031001444197903,0.0,1.5970752631360907,-0.7497619811680968,33.347908001254524,0.0,0.0,0.0,0.0,0.0,0.200325244605,0.0,0.0,0.0034222518750000037,0.0,0.0,0.0,0.0,0.0,0.0,0.0,0.0,0.200325244605,0.0,0.0,0.003422251875
0.29000000000000015,-0.02358726279988576,0.012182753054306737,0.24060425293698667,-0.11526833430074027,0.05790227972490109,-0.05514592799815133,-0.01974382369417099,0.010270361014454936,0.04229896032070521,-0.09626654415434079,0.05024359402668314,-0.04772003928019701,0.0074834355318869235,0.019041626010826943,0.005727692865476135,0.3448931323793361,0.5360078496929611,-0.022392777600330985,0.0,1.5970752631360907,-0.7497619811680968,33.347908001254524,0.0,0.0,0.0,0.0,0.0,0.20034265189577805,0.0,0.0,0.0035409752201843296,0.0,0.0,0.0,0.0,0.0,0.0,0.0,0.0,0.200342651895778,0.0,0.0,0.0035409752201843
0.29500000000000015,-0.02419325692729931,0.0124850705047619,0.24031939380524248,-0.11213844678705241,0.05560603390111988,-0.051258210887550344,-0.01974382369417099,0.010270361014454936,0.04229896032070521,-0.09626654415434079,0.05024359402668314,-0.04772003928019701,0.009134974169364004,0.0212760922224119,0.005623993300597932,0.269706856984616,0.3186615653341719,-0.02008029022036248,0.0,1.5970752631360907,-0.7497619811680968,33.347908001254524,0.0,0.0,0.0,0.0,0.0,0.2003606574582373,0.0,0.0,0.0036615591870117225,0.0,0.0,0.0,0.0,0.0,0.0,0.0,0.0,0.2003606574582373,0.0,0.0,0.0036615591870117
0.30000000000000016,-0.02470817514175324,0.012738893904290028,0.2400934480913208,-0.1088671528364345,0.053278615902645564,-0.04635623221257436,-0.01974382369417099,0.010270361014454936,0.04229896032070521,-0.09626654415434079,0.05024359402668314,-0.04772003928019701,0.010110386070796762,0.022221871792648125,0.005544105986854036,0.15992002638656308,0.11507838571460076,-0.02106139107420133,0.0,1.5970752631360907,-0.7497619811680968,33.347908001254524,0.0,0.0,0.0,0.0,0.0,0.20037927057508806,0.0,0.0,0.003783995618133549,0.0,0.0,0.0,0.0,0.0,0.0,0.0,0.0,0.200379270575088,0.0,0.0,0.0037839956181335
0.30500000000000016,-0.02527761947497345,0.013016746267218786,0.2398618019385348,-0.10541860067281292,0.051195558749198546,-0.040939033551656366,-0.02527761947497345,0.013016746267218786,0.039463301450253535,-0.10541860067281292,0.051195558749198546,-0.04484730991884387,0.010598016136403338,0.02223436958260368,0.005439643441222138,0.04000972178807291,-0.0766494506497008,-0.01683794732453513,0.0,1.5970752631360907,-0.7497619811680968,33.347908001254524,0.0,0.0,0.0,0.0,0.0,0.20039850048828126,0.0,0.0,0.003908276367187504,0.0,0.0,0.0,0.0,0.0,0.0,0.0,0.0,0.2003985004882812,0.0,0.0,0.0039082763671875
0.31000000000000016,-0.025764136477676287,0.013249993355063846,0.23968464671204376,-0.10349893979966018,0.04925977198685008,-0.035594189312668695,-0.02527761947497345,0.013016746267218786,0.039463301450253535,-0.10541860067281292,0.051195558749198546,-0.04484730991884387,0.010511631468244511,0.021585913715549535,0.005368022871668254,-0.05406673747597253,-0.17130447667212623,-0.011701221944287202,0.0,3.994827671777003,-1.843681269225375,36.237684153692754,0.0,0.0,0.0,0.0,0.0,0.20041835639906358,0.0,0.0,0.0040343932987976115,0.0,0.0,0.0,0.0,0.0,0.0,0.0,0.0,0.2004183563990635,0.0,0.0,0.0040343932987976
0.31500000000000017,-0.026312347054502937,0.013509108330361317,0.23951904327648624,-0.10250613412779117,0.04811950973455517,-0.027123384161188376,-0.02527761947497345,0.013016746267218786,0.039463301450253535,-0.10541860067281292,0.051195558749198546,-0.04484730991884387,0.010028894070798738,0.02062759599786787,0.005309326410981258,-0.11279085643835964,-0.17281450465640408,-0.007976325205432813,0.0,3.994827671777003,-1.843681269225375,36.237684153692754,0.0,0.0,0.0,0.0,0.0,0.20043884746803223,0.0,0.0,0.004162338288574223,0.0,0.0,0.0,0.0,0.0,0.0,0.0,0.0,0.2004388474680322,0.0,0.0,0.0041623382885742
0.3200000000000002,-0.026792007989804602,0.013732361467537655,0.23941663026350557,-0.10307352335075134,0.047683640283594446,-0.01823979499944698,-0.02527761947497345,0.013016746267218786,0.039463301450253535,-0.10541860067281292,0.051195558749198546,-0.04484730991884387,0.009483631734189538,0.020036664193458842,0.005273332977400024,-0.11297354896446732,-0.0728713973156151,-0.005262728336152296,0.0,3.994827671777003,-1.843681269225375,36.237684153692754,0.0,0.0,0.0,0.0,0.0,0.20045998281518998,0.0,0.0,0.004292103223114018,0.0,0.0,0.0,0.0,0.0,0.0,0.0,0.0,0.2004599828151899,0.0,0.0,0.004292103223114
0.3250000000000002,-0.02734484456477344,0.013987961151947118,0.23935571258747462,-0.10431473416230769,0.04817730119460352,-0.005726273270991693,-0.02527761947497345,0.013016746267218786,0.039463301450253535,-0.10541860067281292,0.051195558749198546,-0.04484730991884387,0.00903812569582747,0.020145375490155028,0.005256311844851544,-0.05580620263170995,0.09675097039001591,-0.0017089144986910264,0.0,3.994827671777003,-1.843681269225375,36.237684153692754,0.0,0.0,0.0,0.0,0.0,0.20048177152000002,0.0,0.0,0.004423680000000005,0.0,0.0,0.0,0.0,0.0,0.0,0.0,0.0,0.20048177152,0.0,0.0,0.00442368
0.3300000000000002,-0.02783516092914336,0.014214688430361803,0.2393612875209674,-0.10566714975289024,0.04890689271186425,0.006173831007143167,-0.02527761947497345,0.013016746267218786,0.039463301450253535,-0.10541860067281292,0.051195558749198546,-0.04484730991884387,0.008977225659769304,0.021104974172428962,0.00526716291987398,0.019760849757118643,0.2908425789845588,0.001720742286447458,0.0,3.994827671777003,-1.843681269225375,36.237684153692754,0.0,0.0,0.0,0.0,0.0,0.2005042226214409,0.0,0.0,0.004557060527801519,0.0,0.0,0.0,0.0,0.0,0.0,0.0,0.0,0.2005042226214409,0.0,0.0,0.0045570605278015
0.3350000000000002,-0.02840227676868597,0.014478173671292947,0.23943833397538727,-0.1064649214858141,0.04960707724589752,0.021256132523051877,-0.02527761947497345,0.013016746267218786,0.039463301450253535,-0.10541860067281292,0.051195558749198546,-0.04484730991884387,0.00936109120527287,0.023145011557920203,0.005296101983627938,0.1127263762375,0.452919008864517,0.0007471780471168361,0.0,3.994827671777003,-1.843681269225375,36.237684153692754,0.0,0.0,0.0,0.0,0.0,0.20052734511806153,0.0,0.0,0.004692236726074224,0.0,0.0,0.0,0.0,0.0,0.0,0.0,0.0,0.2005273451180615,0.0,0.0,0.0046922367260742
0.3400000000000002,-0.028899544976735213,0.014711312447690804,0.23957266412292968,-0.10659242235503552,0.05029194112620048,0.03455852208795381,-0.02527761947497345,0.013016746267218786,0.039463301450253535,-0.10541860067281292,0.051195558749198546,-0.04484730991884387,0.01007780328734006,0.02558572151662185,0.005336849365162225,0.18591221999663937,0.5578084216324127,0.007435053333270547,0.0,3.994827671777003,-1.843681269225375,36.237684153692754,0.0,0.0,0.0,0.0,0.0,0.20055114796803605,0.0,0.0,0.0048292005253601136,0.0,0.0,0.0,0.0,0.0,0.0,0.0,0.0,0.200551147968036,0.0,0.0,0.0048292005253601
0.3450000000000002,-0.0294641211887077,0.014979764836941939,0.23980453338053723,-0.10509639735754135,0.05017976949315236,0.05083465001328505,-0.02527761947497345,0.013016746267218786,0.039463301450253535,-0.10541860067281292,0.051195558749198546,-0.04484730991884387,0.011292958729414477,0.028690127125179994,0.005411155659094828,0.24823934142125303,0.5945996337565786,0.009646964639175543,0.0,3.994827671777003,-1.843681269225375,36.237684153692754,0.0,0.0,0.0,0.0,0.0,0.20057564008921877,0.0,0.0,0.004967943867187505,0.0,0.0,0.0,0.0,0.0,0.0,0.0,0.0,0.2005756400892187,0.0,0.0,0.0049679438671875
0.3500000000000002,-0.029949719117961335,0.015213736419450983,0.2400797924895693,-0.10289632038319324,0.05001819325912846,0.06505733788557062,-0.02527761947497345,0.013016746267218786,0.039463301450253535,-0.10541860067281292,0.051195558749198546,-0.04484730991884387,0.012554718214962703,0.0313674435586989,0.005510440543334478,0.28468334848612425,0.5474792153368893,0.01505539241470673,0.0,3.994827671777003,-1.843681269225375,36.237684153692754,0.0,0.0,0.0,0.0,0.0,0.20060083035919907,0.0,0.0,0.00510845870407105,0.0,0.0,0.0,0.0,0.0,0.0,0.0,0.0,0.200600830359199,0.0,0.0,0.005108458704071
0.3550000000000002,-0.030488021853124284,0.015476028267418545,0.24047931711030845,-0.09939442094336531,0.04865324924481201,0.08313497853792795,-0.030488021853124284,0.015476028267418545,0.03985258949495199,-0.09939442094336531,0.04865324924481201,0.07788424153841622,0.014059212416311768,0.03403522782866065,0.0056271647232380125,0.2767118266758495,0.4562053483002864,0.02097193117556327,0.0,3.994827671777003,-1.843681269225375,36.237684153692754,0.0,0.0,0.0,0.0,0.0,0.20062672761535646,0.0,0.0,0.005250736999511725,0.0,0.0,0.0,0.0,0.0,0.0,0.0,0.0,0.2006267276153564,0.0,0.0,0.0052507369995117
0.3600000000000002,-0.030943075163547308,0.015699157909649826,0.24090784849486763,-0.09606884411923965,0.04703237657424889,0.09822387042060436,-0.030488021853124284,0.015476028267418545,0.03985258949495199,-0.09939442094336531,0.04865324924481201,0.07788424153841622,0.015298775713362868,0.035890982780240936,0.005761839939060739,0.2522147558657295,0.3591264015720828,0.02240852562532118,0.0,4.857022044774763,-2.237775893835234,35.64233269846847,0.0,0.0,0.0,0.0,0.0,0.20065334065491533,0.0,0.0,0.005394770727996833,0.0,0.0,0.0,0.0,0.0,0.0,0.0,0.0,0.2006533406549153,0.0,0.0,0.0053947707279968
0.3650000000000002,-0.03144493729111327,0.015945950054641524,0.24148484096538508,-0.09248183406348567,0.0454652581367151,0.11587988948246918,-0.030488021853124284,0.015476028267418545,0.03985258949495199,-0.09939442094336531,0.04865324924481201,0.07788424153841622,0.01653429253157167,0.037529909999098165,0.005940448326123227,0.2153959852809162,0.2666448633989312,0.030409248698923648,0.0,4.857022044774763,-2.237775893835234,35.64233269846847,0.0,0.0,0.0,0.0,0.0,0.20068067823500002,0.0,0.0,0.005540551875000008,0.0,0.0,0.0,0.0,0.0,0.0,0.0,0.0,0.200680678235,0.0,0.0,0.005540551875
0.3700000000000002,-0.03186877162120922,0.016153508957829667,0.24206729305440727,-0.08962654640060355,0.04392509355522375,0.1313655677358669,-0.030488021853124284,0.015476028267418545,0.03985258949495199,-0.09939442094336531,0.04865324924481201,0.07788424153841622,0.017435716815428038,0.0386172206127976,0.006091233175784647,0.17458806110716812,0.2163638740812738,0.029815339267143626,0.0,4.857022044774763,-2.237775893835234,35.64233269846847,0.0,0.0,0.0,0.0,0.0,0.20070874907268968,0.0,0.0,0.005688072436981207,0.0,0.0,0.0,0.0,0.0,0.0,0.0,0.0,0.2007087490726896,0.0,0.0,0.0056880724369812
0.3750000000000002,-0.03233894935260123,0.0163830970543115,0.2428229266129942,-0.08699689109802283,0.04229859360707371,0.1495875836364153,-0.030488021853124284,0.015476028267418545,0.03985258949495199,-0.09939442094336531,0.04865324924481201,0.07788424153841622,0.01828655481157484,0.03965387761722871,0.006295305284547682,0.14990144909192837,0.1856867509496453,0.035426290682671856,0.0,4.857022044774763,-2.237775893835234,35.64233269846847,0.0,0.0,0.0,0.0,0.0,0.20073756184507324,0.0,0.0,0.0058373244213867255,0.0,0.0,0.0,0.0,0.0,0.0,0.0,0.0,0.2007375618450732,0.0,0.0,0.0058373244213867
0.3800000000000002,-0.032740116583972884,0.016578261935381585,0.24356231202060863,-0.08534881851739,0.04139110030474211,0.1652456576378533,-0.030488021853124284,0.015476028267418545,0.03985258949495199,-0.09939442094336531,0.04865324924481201,0.07788424153841622,0.018931284811065294,0.04053137112285464,0.00648975582742985,0.1291028691417393,0.19615498944498358,0.041573670900855675,0.0,4.857022044774763,-2.237775893835234,35.64233269846847,0.0,0.0,0.0,0.0,0.0,0.20076712518930437,0.0,0.0,0.005988299846649177,0.0,0.0,0.0,0.0,0.0,0.0,0.0,0.0,0.2007671251893043,0.0,0.0,0.0059882998466491
0.38500000000000023,-0.033188985294195956,0.016795393599761895,0.24449813192615671,-0.08332540240535868,0.04036797443767885,0.18322933257163485,-0.030488021853124284,0.015476028267418545,0.03985258949495199,-0.09939442094336531,0.04865324924481201,0.07788424153841622,0.01961609642719618,0.041658223249150736,0.006714473527699919,0.12355166674086746,0.23029952458490313,0.036489367275191406,0.0,4.857022044774763,-2.237775893835234,35.64233269846847,0.0,0.0,0.0,0.0,0.0,0.20079744770265626,0.0,0.0,0.0061409907421875074,0.0,0.0,0.0,0.0,0.0,0.0,0.0,0.0,0.2007974477026562,0.0,0.0,0.0061409907421875
0.39000000000000024,-0.033574508235959886,0.01698059612316154,0.24539717095871888,-0.08194834740941354,0.03913392836271809,0.19933386932737204,-0.030488021853124284,0.015476028267418545,0.03985258949495199,-0.09939442094336531,0.04865324924481201,0.07788424153841622,0.020183947376880524,0.04282973002622456,0.006921976758452111,0.11675581415016278,0.26775580792564957,0.03995042089784844,0.0,4.857022044774763,-2.237775893835234,35.64233269846847,0.0,0.0,0.0,0.0,0.0,0.20082853794257677,0.0,0.0,0.006295389148406991,0.0,0.0,0.0,0.0,0.0,0.0,0.0,0.0,0.2008285379425767,0.0,0.0,0.0062953891484069
0.39500000000000024,-0.034005842531682554,0.017186999392968843,0.2465145319698909,-0.08005525087130731,0.03808402172205633,0.2175863041887652,-0.030488021853124284,0.015476028267418545,0.03985258949495199,-0.09939442094336531,0.04865324924481201,0.07788424153841622,0.020825628605182795,0.04439022903460124,0.007169044754855601,0.11897280991116183,0.3139707583967958,0.04114251105381859,0.0,4.857022044774763,-2.237775893835234,35.64233269846847,0.0,0.0,0.0,0.0,0.0,0.2008604044267432,0.0,0.0,0.0064514871166992255,0.0,0.0,0.0,0.0,0.0,0.0,0.0,0.0,0.2008604044267432,0.0,0.0,0.0064514871166992
0.40000000000000024,-0.034374243066659746,0.01736235881171055,0.2475696053423011,-0.07786558635346265,0.03730998254189127,0.23257633238583125,-0.030488021853124284,0.015476028267418545,0.03985258949495199,-0.09939442094336531,0.04865324924481201,0.07788424153841622,0.021375879871958554,0.04592513906433628,0.007383725128131265,0.11366411247797098,0.3449780990721965,0.03603798508299584,0.0,4.857022044774763,-2.237775893835234,35.64233269846847,0.0,0.0,0.0,0.0,0.0,0.20089305563311724,0.0,0.0,0.006609276709442147,0.0,0.0,0.0,0.0,0.0,0.0,0.0,0.0,0.2008930556331172,0.0,0.0,0.0066092767094421
0.40500000000000025,-0.03478228104623799,0.01755703187631334,0.24886412186982051,-0.07523117643831118,0.035925852305384864,0.25048417851736804,-0.03478228104623799,0.01755703187631334,0.04793762186982051,-0.07523117643831118,0.035925852305384864,0.24371542851736802,0.022004797515279156,0.04782238964637907,0.007612290121523621,0.12070416442138494,0.3590927478948234,0.03379625725860571,0.0,4.857022044774763,-2.237775893835234,35.64233269846847,0.0,0.0,0.0,0.0,0.0,0.2009265,0.0,0.0,0.00676875000000001,0.0,0.0,0.0,0.0,0.0,0.0,0.0,0.0,0.2009265,0.0,0.0,0.00676875
0.41000000000000025,-0.03512626030256069,0.017723210875657404,0.2500721128747763,-0.0725404042687687,0.03506405527125527,0.26529302585159603,-0.03478228104623799,0.01755703187631334,0.04793762186982051,-0.07523117643831118,0.035925852305384864,0.24371542851736802,0.022567515544651844,0.04954224499945695,0.007803177613376899,0.11632389267246873,0.372449297710793,0.03193657598817952,0.0,4.351683295803865,-2.0002644336797024,34.08212190616544,0.0,0.0,0.0,0.0,0.0,0.2009607459260869,0.0,0.0,0.006929899072723397,0.0,0.0,0.0,0.0,0.0,0.0,0.0,0.0,0.2009607459260869,0.0,0.0,0.0069298990727233
0.41500000000000026,-0.035501981528223675,0.017907274307713203,0.2515382250847361,-0.06854629123893222,0.0344126235202857,0.2817331769803181,-0.03478228104623799,0.01755703187631334,0.04793762186982051,-0.07523117643831118,0.035925852305384864,0.24371542851736802,0.023238895484849614,0.05144159503791118,0.00799087390216615,0.12769655978613909,0.3443995948298511,0.022977295194911082,0.0,4.351683295803865,-2.0002644336797024,34.08212190616544,0.0,0.0,0.0,0.0,0.0,0.20099580177052248,0.0,0.0,0.0070927160229492265,0.0,0.0,0.0,0.0,0.0,0.0,0.0,0.0,0.2009958017705224,0.0,0.0,0.0070927160229492
0.42000000000000026,-0.03581294132408114,0.018065319458595592,0.25289075915022863,-0.06499930854156469,0.03326709759082109,0.296420725582241,-0.03478228104623799,0.01755703187631334,0.04793762186982051,-0.07523117643831118,0.035925852305384864,0.24371542851736802,0.02384919766927566,0.05298437051395755,0.008122754796609555,0.13207009470333836,0.31692250205263944,0.017514791468420044,0.0,4.351683295803865,-2.0002644336797024,34.08212190616544,0.0,0.0,0.0,0.0,0.0,0.20103167585295548,0.0,0.0,0.007257192957000742,0.0,0.0,0.0,0.0,0.0,0.0,0.0,0.0,0.2010316758529554,0.0,0.0,0.0072571929570007
0.42500000000000027,-0.03614615015161993,0.018242129474288334,0.25451718283723684,-0.06047421439291341,0.03286821572944172,0.31126569389388276,-0.03478228104623799,0.01755703187631334,0.04793762186982051,-0.07523117643831118,0.035925852305384864,0.24371542851736802,0.024596369119158728,0.05455509581785597,0.008234801968368843,0.14449163650532465,0.2758337747021533,0.013528397457653385,0.0,4.351683295803865,-2.0002644336797024,34.08212190616544,0.0,0.0,0.0,0.0,0.0,0.20106837645359377,0.0,0.0,0.007423321992187509,0.0,0.0,0.0,0.0,0.0,0.0,0.0,0.0,0.2010683764535937,0.0,0.0,0.0074233219921875
0.43000000000000027,-0.036418589519798504,0.01839207586372553,0.25600786204647574,-0.05652248812692678,0.031800231722644685,0.32542887743243715,-0.03478228104623799,0.01755703187631334,0.04793762186982051,-0.07523117643831118,0.035925852305384864,0.24371542851736802,0.025298891142960616,0.05577247921457586,0.008310665923070051,0.15273046354946745,0.2550950032131911,0.005390258158500355,0.0,4.351683295803865,-2.0002644336797024,34.08212190616544,0.0,0.0,0.0,0.0,0.0,0.20110591181325913,0.0,0.0,0.007591095256805429,0.0,0.0,0.0,0.0,0.0,0.0,0.0,0.0,0.2011059118132591,0.0,0.0,0.0075910952568054
0.4350000000000003,-0.0367071073451976,0.01855940687694968,0.25778476772774744,-0.05213925445569036,0.030581430752712142,0.3398296892356691,-0.03478228104623799,0.01755703187631334,0.04793762186982051,-0.07523117643831118,0.035925852305384864,0.24371542851736802,0.026119354170303605,0.05702167393880785,0.008356956990748813,0.1534770620456357,0.21579431398546245,0.00015815402001585202,0.0,4.351683295803865,-2.0002644336797024,34.08212190616544,0.0,0.0,0.0,0.0,0.0,0.2011442901334424,0.0,0.0,0.007760504890136729,0.0,0.0,0.0,0.0,0.0,0.0,0.0,0.0,0.2011442901334424,0.0,0.0,0.0077605048901367
0.4400000000000003,-0.03693945769298571,0.018698597798909446,0.2594061745023545,-0.048121360563604845,0.02934964980579968,0.35259897599067824,-0.03478228104623799,0.01755703187631334,0.04793762186982051,-0.07523117643831118,0.035925852305384864,0.24371542851736802,0.026813484208960334,0.057999023407952564,0.00836940443021985,0.14329196050369408,0.20195198048352397,-0.004020611160901285,0.0,4.351683295803865,-2.0002644336797024,34.08212190616544,0.0,0.0,0.0,0.0,0.0,0.2011835195763582,0.0,0.0,0.00793154304244996,0.0,0.0,0.0,0.0,0.0,0.0,0.0,0.0,0.2011835195763582,0.0,0.0,0.0079315430424499
0.4450000000000003,-0.03718407876528856,0.018849471381279195,0.2613291662075187,-0.04379064048024636,0.02748207362486497,0.36719977477073035,-0.03478228104623799,0.01755703187631334,0.04793762186982051,-0.07523117643831118,0.035925852305384864,0.24371542851736802,0.027554917059914596,0.059034629285983284,0.008367027754916745,0.13871668964398817,0.19464217491234698,-0.00856287663510237,0.0,4.351683295803865,-2.0002644336797024,34.08212190616544,0.0,0.0,0.0,0.0,0.0,0.20122360826500002,0.0,0.0,0.008104201875000008,0.0,0.0,0.0,0.0,0.0,0.0,0.0,0.0,0.201223608265,0.0,0.0,0.008104201875
0.4500000000000003,-0.037379201255715894,0.01897431286418342,0.2630749524192787,-0.04026902922608078,0.02607945355394614,0.3792094597058406,-0.03478228104623799,0.01755703187631334,0.04793762186982051,-0.07523117643831118,0.035925852305384864,0.24371542851736802,0.028144471361011534,0.0599364363112323,0.008344858660976857,0.11790473385466901,0.18958524997007073,-0.011822815340814979,0.0,4.351683295803865,-2.0002644336797024,34.08212190616544,0.0,0.0,0.0,0.0,0.0,0.20126456428319506,0.0,0.0,0.008278473560028086,0.0,0.0,0.0,0.0,0.0,0.0,0.0,0.0,0.201264564283195,0.0,0.0,0.008278473560028
0.4550000000000003,-0.03758129791093208,0.01910680508425583,0.2651435202912297,-0.036019955532223015,0.02401976366573902,0.3940723334596498,-0.03758129791093208,0.01910680508425583,0.06383712461557048,-0.036019955532223015,0.02401976366573902,0.38561798317888807,0.028729352996629664,0.060977058260887645,0.008295264627368027,0.10499383289758106,0.20104585635832395,-0.015354257667772788,0.0,4.351683295803865,-2.0002644336797024,34.08212190616544,0.0,0.0,0.0,0.0,0.0,0.2013063956756592,0.0,0.0,0.008454350280761731,0.0,0.0,0.0,0.0,0.0,0.0,0.0,0.0,0.2013063956756592,0.0,0.0,0.0084543502807617
0.4600000000000003,-0.03774058481075157,0.019214222477035105,0.2670133454851302,-0.03250772283136062,0.02200093716000633,0.4060455679622097,-0.03758129791093208,0.01910680508425583,0.06383712461557048,-0.036019955532223015,0.02401976366573902,0.38561798317888807,0.029186149961104527,0.061878570152945206,0.008243458039220233,0.09104234170212462,0.18774434977077406,-0.018083000362915,0.0,3.004666962939197,-1.4195831799081482,32.82782521250536,0.0,0.0,0.0,0.0,0.0,0.20134911044805193,0.0,0.0,0.008631824231414805,0.0,0.0,0.0,0.0,0.0,0.0,0.0,0.0,0.2013491104480519,0.0,0.0,0.0086318242314148
0.4650000000000003,-0.03790034744596569,0.019326989583380076,0.26921637096884893,-0.028032617498815412,0.02053779278206754,0.4180714099727831,-0.03758129791093208,0.01910680508425583,0.06383712461557048,-0.036019955532223015,0.02401976366573902,0.38561798317888807,0.029597926249966024,0.0628335037234636,0.008169878046793817,0.07097288580616226,0.16109761898479438,-0.019270313354062606,0.0,3.004666962939197,-1.4195831799081482,32.82782521250536,0.0,0.0,0.0,0.0,0.0,0.20139271656703125,0.0,0.0,0.008810887617187511,0.0,0.0,0.0,0.0,0.0,0.0,0.0,0.0,0.2013927165670312,0.0,0.0,0.0088108876171875
0.4700000000000003,-0.03802050165799614,0.019416861451030974,0.27119620600914324,-0.023906698948942786,0.018369620865123854,0.42869080833851714,-0.03758129791093208,0.01910680508425583,0.06383712461557048,-0.036019955532223015,0.02401976366573902,0.38561798317888807,0.02984570759090198,0.06348179307689097,0.008084754546815941,0.04073826475152663,0.13059356414206374,-0.022936215209682174,0.0,3.004666962939197,-1.4195831799081482,32.82782521250536,0.0,0.0,0.0,0.0,0.0,0.2014372219603087,0.0,0.0,0.008991532654266369,0.0,0.0,0.0,0.0,0.0,0.0,0.0,0.0,0.2014372219603087,0.0,0.0,0.0089915326542663
0.4750000000000003,-0.03813566731306325,0.01950910831528583,0.27351308493039717,-0.01965415006465695,0.016306999546835066,0.43884472898647237,-0.03758129791093208,0.01910680508425583,0.06383712461557048,-0.036019955532223015,0.02401976366573902,0.38561798317888807,0.030006088775425106,0.06405595919810737,0.007989243606074586,0.02434137591894844,0.0741000726410635,-0.02219348659693435,0.0,3.004666962939197,-1.4195831799081482,32.82782521250536,0.0,0.0,0.0,0.0,0.0,0.20148263451670412,0.0,0.0,0.00917375156982423,0.0,0.0,0.0,0.0,0.0,0.0,0.0,0.0,0.2014826345167041,0.0,0.0,0.0091737515698242
0.4800000000000003,-0.038217550770213334,0.01958009166737614,0.27558623061331405,-0.016130212879492765,0.014473619354650831,0.4480152565096642,-0.03758129791093208,0.01910680508425583,0.06383712461557048,-0.036019955532223015,0.02401976366573902,0.38561798317888807,0.03006083914425969,0.06438086974563881,0.007902184332734473,0.006058935383934811,0.07001803430235322,-0.018210937417510186,0.0,3.004666962939197,-1.4195831799081482,32.82782521250536,0.0,0.0,0.0,0.0,0.0,0.20152896208620072,0.0,0.0,0.009357536602020275,0.0,0.0,0.0,0.0,0.0,0.0,0.0,0.0,0.2015289620862007,0.0,0.0,0.0093575366020202
0.4850000000000003,-0.038292399846997296,0.019652087613698938,0.278004001420967,-0.012261841116188311,0.012573783101978655,0.4580516321010142,-0.03758129791093208,0.01910680508425583,0.06383712461557048,-0.036019955532223015,0.02401976366573902,0.38561798317888807,0.03007376416188635,0.06463083414874463,0.007805330610496885,0.002634554457544672,0.03576353986101484,-0.02123616031688186,0.0,3.004666962939197,-1.4195831799081482,32.82782521250536,0.0,0.0,0.0,0.0,0.0,0.20157621248000002,0.0,0.0,0.00954288000000001,0.0,0.0,0.0,0.0,0.0,0.0,0.0,0.0,0.20157621248,0.0,0.0,0.00954288
0.4900000000000003,-0.03834182793287272,0.01970620175082517,0.2801631854845531,-0.009459520404652654,0.010858598921269252,0.4657930725799958,-0.03758129791093208,0.01910680508425583,0.06383712461557048,-0.036019955532223015,0.02401976366573902,0.38561798317888807,0.030092671858653077,0.06483536312371369,0.007724839236350784,0.007253314619037819,0.04451195523138947,-0.015716100286777675,0.0,3.004666962939197,-1.4195831799081482,32.82782521250536,0.0,0.0,0.0,0.0,0.0,0.20162439347057665,0.0,0.0,0.009729774023895278,0.0,0.0,0.0,0.0,0.0,0.0,0.0,0.0,0.2016243934705766,0.0,0.0,0.0097297740238952
0.49500000000000033,-0.0383825125845136,0.019757648862594426,0.2826764368569048,-0.006213776777570727,0.008898839787974691,0.47534468911171507,-0.03758129791093208,0.01910680508425583,0.06383712461557048,-0.036019955532223015,0.02401976366573902,0.38561798317888807,0.03016421044432933,0.0650400679367162,0.0076355193515821275,0.021990017482148076,0.04659160285949488,-0.01730102572933138,0.0,3.004666962939197,-1.4195831799081482,32.82782521250536,0.0,0.0,0.0,0.0,0.0,0.2016735127917334,0.0,0.0,0.009918210944824231,0.0,0.0,0.0,0.0,0.0,0.0,0.0,0.0,0.2016735127917334,0.0,0.0,0.0099182109448242
