time,pos_x,pos_y,pos_z,vel_x,vel_y,vel_z,pos_xo,pos_yo,pos_zo,vel_xo,vel_yo,vel_zo,roll,pitch,yaw,roll_vel,pitch_vel,yaw_vel,thrust_z,force_x,force_y,force_z,torque_x,torque_y,torque_z,pos_xd,pos_yd,pos_zd,vel_xd,vel_yd,vel_zd,roll_d,pitch_d,yaw_d,roll_vel_d,pitch_vel_d,yaw_vel_d,pos_xr,pos_yr,pos_zr,vel_xr,vel_yr,vel_zr
10.005000000000164,0.0021827610391582193,0.026722864706668722,0.9801146364119454,0.00290974544964304,0.04297274654844697,-0.13780486720637117,0.0021827610391582193,0.026722864706668722,-0.019885363588054594,0.00290974544964304,0.04297274654844697,-0.13780486720637117,0.0176991093290501,0.003763786266121976,0.0015457979375873394,-0.01517297786189844,-0.04975499530207883,0.007998736973413405,0.0,-0.042337879834524195,-0.168354608654717,8.997456832629048,0.0,0.0,0.0,0.0,0.0,1.0,0.0,0.0,-0.0,0.0,0.0,0.0,0.0,0.0,0.0,0.0,0.0,1.0,0.0,0.0,-0.0
10.010000000000165,0.0022093495443161115,0.02693158766353077,0.9793876689265034,0.00841885848031691,0.037875977141528565,-0.14412990527119154,0.0021827610391582193,0.026722864706668722,-0.019885363588054594,0.00290974544964304,0.04297274654844697,-0.13780486720637117,0.017775053048918073,0.0036859712781155945,0.0015944883171249134,0.058739469356787706,0.03248524981977973,0.011235466617858262,0.0,0.14150980738913488,-0.47699915700163065,13.796044678898209,0.0,0.0,0.0,0.0,0.0,0.9999936170410939,0.0,0.0,-0.002549780452721016,0.0,0.0,0.0,0.0,0.0,0.0,0.0,0.0,0.999993617041094,0.0,0.0,-0.002549780452721
10.015000000000166,0.002259287177067706,0.02710454440379624,0.978697437745626,0.01085013557664898,0.035607740042773166,-0.14335063218043842,0.0021827610391582193,0.026722864706668722,-0.019885363588054594,0.00290974544964304,0.04297274654844697,-0.13780486720637117,0.01818149986759449,0.0039880263469514185,0.001659540043345651,0.09021858306608403,0.07217413136975596,0.013432793649536319,0.0,0.14150980738913488,-0.47699915700163065,13.796044678898209,0.0,0.0,0.0,0.0,0.0,0.9999745361246057,0.0,0.0,-0.00507920340396654,0.0,0.0,0.0,0.0,0.0,0.0,0.0,0.0,0.9999745361246056,0.0,0.0,-0.0050792034039665
10.020000000000167,0.0023063877934439685,0.027293873769795814,0.977969497989001,0.006781412850774833,0.039166593219735354,-0.14212690898272826,0.0021827610391582193,0.026722864706668722,-0.019885363588054594,0.00290974544964304,0.04297274654844697,-0.13780486720637117,0.018527808407693303,0.004255790003492253,0.001737516087575842,0.038111238951801414,0.0213423345088678,0.01486217329290603,0.0,0.14150980738913488,-0.47699915700163065,13.796044678898209,0.0,0.0,0.0,0.0,0.0,0.9999428587330188,0.0,0.0,-0.0075883907547808,0.0,0.0,0.0,0.0,0.0,0.0,0.0,0.0,0.9999428587330188,0.0,0.0,-0.0075883907547808
10.025000000000167,0.002334886640968106,0.027497137989974493,0.9772471814424828,0.004806383805074385,0.039757939801286314,-0.14115359011627726,0.0021827610391582193,0.026722864706668722,-0.019885363588054594,0.00290974544964304,0.04297274654844697,-0.13780486720637117,0.01867302705310582,0.004297544707437916,0.0018127058240754292,0.029985841616042754,0.0007914706756641078,0.013965543651840655,0.0,0.14150980738913488,-0.47699915700163065,13.796044678898209,0.0,0.0,0.0,0.0,0.0,0.9998986857409358,0.0,0.0,-0.010077463757367674,0.0,0.0,0.0,0.0,0.0,0.0,0.0,0.0,0.9998986857409358,0.0,0.0,-0.0100774637573676
10.030000000000168,0.0023626776468073625,0.027684729057289942,0.9765716402522626,0.006836658389816926,0.03834687654228844,-0.14043102621852746,0.0021827610391582193,0.026722864706668722,-0.019885363588054594,0.00290974544964304,0.04297274654844697,-0.13780486720637117,0.018862492321457855,0.004381856845130904,0.0018778287609934486,0.04926731434373214,0.034820860138429645,0.012798750491665189,0.0,0.14150980738913488,-0.47699915700163065,13.796044678898209,0.0,0.0,0.0,0.0,0.0,0.9998421174183123,0.0,0.0,-0.012546543018328395,0.0,0.0,0.0,0.0,0.0,0.0,0.0,0.0,0.9998421174183124,0.0,0.0,-0.0125465430183283
10.035000000000169,0.0023960200479669295,0.02788001743047093,0.9758567471338307,0.005735779520241356,0.03877787713170047,-0.14015823180747627,0.0021827610391582193,0.026722864706668722,-0.019885363588054594,0.00290974544964304,0.04297274654844697,-0.13780486720637117,0.019105570568576,0.004542595452255014,0.0019507168636305684,0.03803540916543777,0.021161955010780418,0.014590704639239251,0.0,0.14150980738913488,-0.47699915700163065,13.796044678898209,0.0,0.0,0.0,0.0,0.0,0.9997732534336794,0.0,0.0,-0.01499574850188378,0.0,0.0,0.0,0.0,0.0,0.0,0.0,0.0,0.9997732534336794,0.0,0.0,-0.0149957485018837
10.04000000000017,0.0024215063240722538,0.02807973011509964,0.975142036652216,0.004340313135754174,0.039522150759054506,-0.14032889627180775,0.0021827610391582193,0.026722864706668722,-0.019885363588054594,0.00290974544964304,0.04297274654844697,-0.13780486720637117,0.019254147115749395,0.004600255833927893,0.0020297229353875173,0.020616587896959093,0.00299958587749635,0.015640764390866736,0.0,0.14150980738913488,-0.47699915700163065,13.796044678898209,0.0,0.0,0.0,0.0,0.0,0.9996921928573455,0.0,0.0,-0.017425199533080995,0.0,0.0,0.0,0.0,0.0,0.0,0.0,0.0,0.9996921928573456,0.0,0.0,-0.0174251995330809
10.04500000000017,0.0024446926936987842,0.028266410994967895,0.9744674206607504,0.005515459596320313,0.038074683327133686,-0.1408424044655334,0.0021827610391582193,0.026722864706668722,-0.019885363588054594,0.00290974544964304,0.04297274654844697,-0.13780486720637117,0.019381050396474888,0.004650783165473668,0.0021079541421825908,0.035345821421783545,0.021035178333836238,0.016564953571691503,0.0,0.14150980738913488,-0.47699915700163065,13.796044678898209,0.0,0.0,0.0,0.0,0.0,0.9995990341645853,0.0,0.0,-0.019835014800984974,0.0,0.0,0.0,0.0,0.0,0.0,0.0,0.0,0.9995990341645852,0.0,0.0,-0.0198350148009849
10.050000000000171,0.0024731560041848645,0.028456497939017257,0.9737475210219162,0.005270146595255558,0.036736984369359765,-0.14155409771149446,0.0021827610391582193,0.026722864706668722,-0.019885363588054594,0.00290974544964304,0.04297274654844697,-0.13780486720637117,0.019605128639189565,0.00476223077009091,0.0021999438813994055,0.04928173149066424,0.01806159929096585,0.018609381206050168,0.0,0.14150980738913488,-0.47699915700163065,13.796044678898209,0.0,0.0,0.0,0.0,0.0,0.9994938752388123,0.0,0.0,-0.02222531236185451,0.0,0.0,0.0,0.0,0.0,0.0,0.0,0.0,0.9994938752388124,0.0,0.0,-0.0222253123618545
10.055000000000172,0.002499516408738812,0.02864365990699449,0.9730251687335758,0.005081345023347727,0.037015134279046916,-0.14173241324273597,0.002499516408738812,0.02864365990699449,-0.026351644641156913,0.005081345023347727,0.037015134279046916,-0.1171362036004328,0.01985114844458503,0.004849362381337041,0.00230142156671127,0.04245662712790601,0.01716159833564583,0.020407958542737022,0.0,0.14150980738913488,-0.47699915700163065,13.796044678898209,0.0,0.0,0.0,0.0,0.0,0.9993768133747327,0.0,0.0,-0.024596209642303173,0.0,0.0,0.0,0.0,0.0,0.0,0.0,0.0,0.9993768133747328,0.0,0.0,-0.0245962096423031
10.060000000000173,0.0025313413129450456,0.02881157979164441,0.9723673891004737,0.008395956116249714,0.032756301467755836,-0.13030240783301694,0.002499516408738812,0.02864365990699449,-0.026351644641156913,0.005081345023347727,0.037015134279046916,-0.1171362036004328,0.02018325022194055,0.005038349805493134,0.0024087452630374294,0.09768631681206517,0.06542256678900316,0.022977147243904626,0.0,0.31741029510923197,-0.8185189122852926,18.137507593825447,0.0,0.0,0.0,0.0,0.0,0.9992479452814884,0.0,0.0,-0.02694782344244503,0.0,0.0,0.0,0.0,0.0,0.0,0.0,0.0,0.9992479452814884,0.0,0.0,-0.026947823442445
10.065000000000174,0.002576763065091746,0.028973035955349634,0.9717576038172443,0.008474058935102063,0.032102507862194096,-0.10963454377032028,0.002499516408738812,0.02864365990699449,-0.026351644641156913,0.005081345023347727,0.037015134279046916,-0.1171362036004328,0.020731426929856526,0.005414014484553614,0.0025411342721416157,0.0950763117138461,0.07025622068520164,0.026037683476093674,0.0,0.31741029510923197,-0.8185189122852926,18.137507593825447,0.0,0.0,0.0,0.0,0.0,0.9991073670857797,0.0,0.0,-0.029280269939025313,0.0,0.0,0.0,0.0,0.0,0.0,0.0,0.0,0.9991073670857796,0.0,0.0,-0.0292802699390253
10.070000000000174,0.0026161557905738458,0.029141314768069887,0.9712558124079412,0.007075811304862168,0.03368037162795729,-0.088472217435078,0.002499516408738812,0.02864365990699449,-0.026351644641156913,0.005081345023347727,0.037015134279046916,-0.1171362036004328,0.021115036209986726,0.005734394627314499,0.002689965140351954,0.059175724569546305,0.05757194102020648,0.029548095019916006,0.0,0.31741029510923197,-0.8185189122852926,18.137507593825447,0.0,0.0,0.0,0.0,0.0,0.9989551743349756,0.0,0.0,-0.031593664688536055,0.0,0.0,0.0,0.0,0.0,0.0,0.0,0.0,0.9989551743349756,0.0,0.0,-0.031593664688536
10.075000000000175,0.0026476627967362072,0.029305517567297622,0.9708828165161001,0.006251243218562187,0.03401171531655549,-0.06846707505983318,0.002499516408738812,0.02864365990699449,-0.026351644641156913,0.005081345023347727,0.037015134279046916,-0.1171362036004328,0.02133491701791756,0.00598560030008438,0.0028467962423052154,0.043786078076899396,0.05070245988318817,0.03269662666505752,0.0,0.31741029510923197,-0.8185189122852926,18.137507593825447,0.0,0.0,0.0,0.0,0.0,0.9987914620002063,0.0,0.0,-0.03388812263031681,0.0,0.0,0.0,0.0,0.0,0.0,0.0,0.0,0.9987914620002064,0.0,0.0,-0.0338881226303168
10.080000000000176,0.0026816255538817356,0.029473784617352623,0.9705897401343918,0.006783115218123543,0.03213409110918052,-0.04800310870951702,0.002499516408738812,0.02864365990699449,-0.026351644641156913,0.005081345023347727,0.037015134279046916,-0.1171362036004328,0.021606977040164375,0.006280092114644315,0.0030194083952808765,0.06086163233858071,0.06154072545218691,0.031860113778241654,0.0,0.31741029510923197,-0.8185189122852926,18.137507593825447,0.0,0.0,0.0,0.0,0.0,0.9986163244794424,0.0,0.0,-0.03616375808964047,0.0,0.0,0.0,0.0,0.0,0.0,0.0,0.0,0.9986163244794424,0.0,0.0,-0.0361637580896404
10.085000000000177,0.0027129456252285916,0.029632248032863913,0.9703993093283008,0.005295252170434559,0.030351583875693987,-0.02797146610840649,0.002499516408738812,0.02864365990699449,-0.026351644641156913,0.005081345023347727,0.037015134279046916,-0.1171362036004328,0.021964491350602865,0.006542585033683077,0.0031802208136233186,0.07416674574838449,0.039244820687858555,0.02912427857295437,0.0,0.31741029510923197,-0.8185189122852926,18.137507593825447,0.0,0.0,0.0,0.0,0.0,0.9984298556005566,0.0,0.0,-0.038420684780784316,0.0,0.0,0.0,0.0,0.0,0.0,0.0,0.0,0.9984298556005566,0.0,0.0,-0.0384206847807843
10.090000000000177,0.0027359342064229024,0.029776092027988036,0.9703107721208308,0.004853492925514598,0.02981873727117726,-0.010035040676690357,0.002499516408738812,0.02864365990699449,-0.026351644641156913,0.005081345023347727,0.037015134279046916,-0.1171362036004328,0.022312088673304413,0.006683858042707831,0.003317464254722992,0.06761043569086102,0.028976592194163167,0.027421985113854574,0.0,0.31741029510923197,-0.8185189122852926,18.137507593825447,0.0,0.0,0.0,0.0,0.0,0.9982321486243708,0.0,0.0,-0.04065901581008627,0.0,0.0,0.0,0.0,0.0,0.0,0.0,0.0,0.9982321486243708,0.0,0.0,-0.0406590158100862
10.095000000000178,0.0027637001214352373,0.02992189427141141,0.9703111299909315,0.0059594971932358945,0.027395433803161673,0.00884705342913831,0.002499516408738812,0.02864365990699449,-0.026351644641156913,0.005081345023347727,0.037015134279046916,-0.1171362036004328,0.02270649163244808,0.006862164033241249,0.0034656656465074528,0.08747149099932842,0.042408526246121965,0.030073815184984528,0.0,0.31741029510923197,-0.8185189122852926,18.137507593825447,0.0,0.0,0.0,0.0,0.0,0.9980232962476894,0.0,0.0,-0.04287886367898659,0.0,0.0,0.0,0.0,0.0,0.0,0.0,0.0,0.9980232962476894,0.0,0.0,-0.0428788636789865
10.100000000000179,0.0027978045765185582,0.030057777383355022,0.9704082915870124,0.006762939907287848,0.026436066740587863,0.028101447519762384,0.002499516408738812,0.02864365990699449,-0.026351644641156913,0.005081345023347727,0.037015134279046916,-0.1171362036004328,0.02317549401985133,0.007131030996362468,0.003641895419522472,0.08919193460102803,0.05499418257797965,0.03635471082503511,0.0,0.31741029510923197,-0.8185189122852926,18.137507593825447,0.0,0.0,0.0,0.0,0.0,0.9978033906063155,0.0,0.0,-0.045080340287054876,0.0,0.0,0.0,0.0,0.0,0.0,0.0,0.0,0.9978033906063156,0.0,0.0,-0.0450803402870548
10.10500000000018,0.0028320939690336736,0.03018477108693674,0.9705908795269488,0.007170432854276583,0.02681695668614469,0.04710311244876243,0.0028320939690336736,0.03018477108693674,-0.02698164375110379,0.007170432854276583,0.02681695668614469,0.09436666938376499,0.023576641701496336,0.007412815172612379,0.0038328717319895175,0.07317666507481636,0.05891328447744842,0.03962278337558731,0.0,0.31741029510923197,-0.8185189122852926,18.137507593825447,0.0,0.0,0.0,0.0,0.0,0.9975725232780526,0.0,0.0,-0.04726355693500256,0.0,0.0,0.0,0.0,0.0,0.0,0.0,0.0,0.9975725232780526,0.0,0.0,-0.0472635569350025
10.11000000000018,0.002861320190531777,0.030328426972740005,0.9708682046301579,0.004026288448033065,0.02957416783991836,0.05924685490835961,0.0028320939690336736,0.03018477108693674,-0.02698164375110379,0.007170432854276583,0.02681695668614469,0.09436666938376499,0.02382694734227527,0.007600036057933467,0.004038418875801231,0.023936917567954717,0.012534997355038179,0.039015805597583414,0.0,0.206443006866297,-0.6414658772875632,15.29151250002186,0.0,0.0,0.0,0.0,0.0,0.9973307852856914,0.0,0.0,-0.04942862432768099,0.0,0.0,0.0,0.0,0.0,0.0,0.0,0.0,0.9973307852856914,0.0,0.0,-0.0494286243276809
10.115000000000181,0.0028749296760241165,0.03047407392735437,0.9711936967041568,0.0023062638289596963,0.026820909422049625,0.06780480408056652,0.0028320939690336736,0.03018477108693674,-0.02698164375110379,0.007170432854276583,0.02681695668614469,0.09436666938376499,0.023991367017820474,0.007549445484013911,0.004233306287434262,0.05050873392112539,-0.01636000972075336,0.03804151575716235,0.0,0.206443006866297,-0.6414658772875632,15.29151250002186,0.0,0.0,0.0,0.0,0.0,0.9970782670999818,0.0,0.0,-0.05157565257706507,0.0,0.0,0.0,0.0,0.0,0.0,0.0,0.0,0.9970782670999818,0.0,0.0,-0.051575652577065
10.120000000000182,0.0028899872271713777,0.030596862880066522,0.9715378287005225,0.004486490627041478,0.024560716034374302,0.07521206805154161,0.0028320939690336736,0.03018477108693674,-0.02698164375110379,0.007170432854276583,0.02681695668614469,0.09436666938376499,0.02428577599576613,0.007514689007419762,0.004411594270005132,0.06908155300249812,0.011129849451979519,0.03619855248345692,0.0,0.206443006866297,-0.6414658772875632,15.29151250002186,0.0,0.0,0.0,0.0,0.0,0.9968150586425899,0.0,0.0,-0.053704751205222556,0.0,0.0,0.0,0.0,0.0,0.0,0.0,0.0,0.99681505864259,0.0,0.0,-0.0537047512052225
10.125000000000183,0.00291990896690351,0.030722451837030956,0.9719417009319397,0.006581567031166541,0.024970920590850577,0.08252216116506096,0.0028320939690336736,0.03018477108693674,-0.02698164375110379,0.007170432854276583,0.02681695668614469,0.09436666938376499,0.024590666029609264,0.007658212150648855,0.004595302350321844,0.04657163049448919,0.03786465934047191,0.035179140384953435,0.0,0.206443006866297,-0.6414658772875632,15.29151250002186,0.0,0.0,0.0,0.0,0.0,0.9965412492890404,0.0,0.0,-0.055816029147269214,0.0,0.0,0.0,0.0,0.0,0.0,0.0,0.0,0.9965412492890404,0.0,0.0,-0.0558160291472692
10.130000000000184,0.002956822027991696,0.030849562210634753,0.9723798383802099,0.007092797088801138,0.02421556278102676,0.08871932701214359,0.0028320939690336736,0.03018477108693674,-0.02698164375110379,0.007170432854276583,0.02681695668614469,0.09436666938376499,0.024789513592605224,0.007891237570176846,0.004785209749027856,0.0412042320428742,0.04432046755840823,0.03699935759601832,0.0,0.206443006866297,-0.6414658772875632,15.29151250002186,0.0,0.0,0.0,0.0,0.0,0.9962569278716433,0.0,0.0,-0.05790959475430957,0.0,0.0,0.0,0.0,0.0,0.0,0.0,0.0,0.9962569278716432,0.0,0.0,-0.0579095947543095
10.135000000000185,0.002986986932814822,0.030960074051968055,0.9728186602230596,0.005668260490930714,0.02139985973764097,0.09392138622081356,0.0028320939690336736,0.03018477108693674,-0.02698164375110379,0.007170432854276583,0.02681695668614469,0.09436666938376499,0.025028175977963772,0.008044438391868643,0.004969989381968007,0.06429456655125407,0.02393941048972196,0.03805543447135127,0.0,0.206443006866297,-0.6414658772875632,15.29151250002186,0.0,0.0,0.0,0.0,0.0,0.995962182682407,0.0,0.0,-0.05998555579636381,0.0,0.0,0.0,0.0,0.0,0.0,0.0,0.0,0.995962182682407,0.0,0.0,-0.0599855557963638
10.140000000000185,0.003012731773355934,0.031063696164398275,0.9733115618270238,0.004853755209483742,0.01972339898095433,0.09915392917168629,0.0028320939690336736,0.03018477108693674,-0.02698164375110379,0.007170432854276583,0.02681695668614469,0.09436666938376499,0.0253845463824888,0.008113592477543211,0.005169558840685525,0.06917402336832527,0.011029048246871408,0.039540501453203196,0.0,0.206443006866297,-0.6414658772875632,15.29151250002186,0.0,0.0,0.0,0.0,0.0,0.9956571014759363,0.0,0.0,-0.06204401946528032,0.0,0.0,0.0,0.0,0.0,0.0,0.0,0.0,0.9956571014759364,0.0,0.0,-0.0620440194652803
10.145000000000186,0.0030408105797442397,0.031162228438780068,0.9738335182669433,0.006483744591928782,0.019014618532154463,0.1053770988354366,0.0028320939690336736,0.03018477108693674,-0.02698164375110379,0.007170432854276583,0.02681695668614469,0.09436666938376499,0.025725841422782555,0.008204448000772205,0.005377031030991504,0.06392852175151346,0.031026761214048033,0.04069562794963247,0.0,0.206443006866297,-0.6414658772875632,15.29151250002186,0.0,0.0,0.0,0.0,0.0,0.9953417714723163,0.0,0.0,-0.06408509237763452,0.0,0.0,0.0,0.0,0.0,0.0,0.0,0.0,0.9953417714723164,0.0,0.0,-0.0640850923776345
10.150000000000187,0.0030731510408448072,0.031253204045561256,0.9743571857110984,0.006643641432898762,0.018645395568918435,0.11250183886379761,0.0028320939690336736,0.03018477108693674,-0.02698164375110379,0.007170432854276583,0.02681695668614469,0.09436666938376499,0.026003062124213945,0.008352273328205666,0.005577678239499602,0.0552104771312868,0.02786511970354314,0.04146454653970161,0.0,0.206443006866297,-0.6414658772875632,15.29151250002186,0.0,0.0,0.0,0.0,0.0,0.9950162793599822,0.0,0.0,-0.06610888057761352,0.0,0.0,0.0,0.0,0.0,0.0,0.0,0.0,0.9950162793599822,0.0,0.0,-0.0661088805776135
10.155000000000188,0.0031033528548200595,0.03134846683047277,0.9749522239589925,0.004911947425120291,0.018206718810858943,0.12039436533788074,0.0031033528548200595,0.03134846683047277,-0.019728487339579104,0.004911947425120291,0.018206718810858943,0.18850985487776784,0.026238178980222793,0.00842530456196019,0.005799145475505208,0.043836238945384194,-0.0003166508055297921,0.044846845953286814,0.0,0.206443006866297,-0.6414658772875632,15.29151250002186,0.0,0.0,0.0,0.0,0.0,0.9946807112985716,0.0,0.0,-0.0681154895398871,0.0,0.0,0.0,0.0,0.0,0.0,0.0,0.0,0.9946807112985716,0.0,0.0,-0.0681154895398871
10.160000000000188,0.0031223481272352476,0.03145338180556793,0.9755604063842331,0.00183580078411045,0.024493168227472772,0.11529711486437749,0.0031033528548200595,0.03134846683047277,-0.019728487339579104,0.004911947425120291,0.018206718810858943,0.18850985487776784,0.02624075201230671,0.008331498025142476,0.0060349999425184314,-0.06434298892187269,-0.04367239662789925,0.0479985777018447,0.0,0.014635508704710929,-0.24155507977281576,10.443948355831768,0.0,0.0,0.0,0.0,0.0,0.9943351529217679,0.0,0.0,-0.07010502417246472,0.0,0.0,0.0,0.0,0.0,0.0,0.0,0.0,0.994335152921768,0.0,0.0,-0.0701050241724647
10.16500000000019,0.0031277706922758245,0.031579862004324694,0.9760823959780013,0.0011267563995124253,0.026691160344766977,0.10288718989669637,0.0031033528548200595,0.03134846683047277,-0.019728487339579104,0.004911947425120291,0.018206718810858943,0.18850985487776784,0.02577030814296118,0.008067856367342223,0.006259806808775977,-0.10949093580949716,-0.05370207378228289,0.04831790942474208,0.0,0.014635508704710929,-0.24155507977281576,10.443948355831768,0.0,0.0,0.0,0.0,0.0,0.9939796893401249,0.0,0.0,-0.07207758881953907,0.0,0.0,0.0,0.0,0.0,0.0,0.0,0.0,0.9939796893401248,0.0,0.0,-0.072077588819539
10.17000000000019,0.003138309196617281,0.03170552224920701,0.97656960639109,0.0032953619879733777,0.02219075248588646,0.08896824262851062,0.0031033528548200595,0.03134846683047277,-0.019728487339579104,0.004911947425120291,0.018206718810858943,0.18850985487776784,0.025330220162189988,0.007851619302402312,0.006499557080085931,-0.05707363107367436,-0.02503789518517329,0.04780022413548695,0.0,0.014635508704710929,-0.24155507977281576,10.443948355831768,0.0,0.0,0.0,0.0,0.0,0.9936144051438787,0.0,0.0,-0.07403328726431552,0.0,0.0,0.0,0.0,0.0,0.0,0.0,0.0,0.9936144051438788,0.0,0.0,-0.0740332872643155
10.17500000000019,0.0031606413015809955,0.031808419277343125,0.9769863868116656,0.004959108004546521,0.019192122692306003,0.0752609807619799,0.0031033528548200595,0.03134846683047277,-0.019728487339579104,0.004911947425120291,0.018206718810858943,0.18850985487776784,0.025159684375263783,0.0077803454706067594,0.006740371863266857,-0.02403806226753058,-0.007539628333555087,0.04734782915344037,0.0,0.014635508704710929,-0.24155507977281576,10.443948355831768,0.0,0.0,0.0,0.0,0.0,0.9932393844057461,0.0,0.0,-0.07597222273182841,0.0,0.0,0.0,0.0,0.0,0.0,0.0,0.0,0.993239384405746,0.0,0.0,-0.0759722227318284
10.180000000000192,0.0031821296836389477,0.03190082323160066,0.9773145519262483,0.003704567825623097,0.019666726479689527,0.062335431177480256,0.0031033528548200595,0.03134846683047277,-0.019728487339579104,0.004911947425120291,0.018206718810858943,0.18850985487776784,0.02502773151190788,0.007693998061950019,0.006965925601870838,-0.03590782223846045,-0.029366021262057177,0.04783874495827935,0.0,0.014635508704710929,-0.24155507977281576,10.443948355831768,0.0,0.0,0.0,0.0,0.0,0.9928547106837089,0.0,0.0,-0.07789449789174349,0.0,0.0,0.0,0.0,0.0,0.0,0.0,0.0,0.9928547106837088,0.0,0.0,-0.0778944978917434
10.185000000000192,0.003196594093869271,0.03200163299926843,0.9775964267875711,0.002343279884106127,0.019605745886621968,0.049018066994313936,0.0031033528548200595,0.03134846683047277,-0.019728487339579104,0.004911947425120291,0.018206718810858943,0.18850985487776784,0.024829805023089353,0.0074693610337688435,0.007207423623509793,-0.03846106510648932,-0.050884419811931564,0.04894402739402881,0.0,0.014635508704710929,-0.24155507977281576,10.443948355831768,0.0,0.0,0.0,0.0,0.0,0.9924604670237822,0.0,0.0,-0.07980021486114702,0.0,0.0,0.0,0.0,0.0,0.0,0.0,0.0,0.9924604670237822,0.0,0.0,-0.079800214861147
10.190000000000193,0.003210780437445459,0.03209751935961253,0.9778115358921291,0.003597570671258011,0.01791346348285067,0.03622149206883356,0.0031033528548200595,0.03134846683047277,-0.019728487339579104,0.004911947425120291,0.018206718810858943,0.18850985487776784,0.02468251010612422,0.007227211459135167,0.007452671340642373,-0.01900791291082817,-0.036177720813505294,0.0493135107832624,0.0,0.014635508704710929,-0.24155507977281576,10.443948355831768,0.0,0.0,0.0,0.0,0.0,0.9920567359627723,0.0,0.0,-0.08168947520732145,0.0,0.0,0.0,0.0,0.0,0.0,0.0,0.0,0.9920567359627724,0.0,0.0,-0.0816894752073214
10.195000000000194,0.0032312696314818743,0.03218156543698012,0.9779539957193975,0.004485131234508908,0.017267501492816747,0.02409196932697262,0.0031033528548200595,0.03134846683047277,-0.019728487339579104,0.004911947425120291,0.018206718810858943,0.18850985487776784,0.02460226064043849,0.007086660045417475,0.007684309523995582,-0.017660063801224087,-0.026235133234137065,0.04856507061471197,0.0,0.014635508704710929,-0.24155507977281576,10.443948355831768,0.0,0.0,0.0,0.0,0.0,0.9916435995310169,0.0,0.0,-0.08356237995050758,0.0,0.0,0.0,0.0,0.0,0.0,0.0,0.0,0.9916435995310168,0.0,0.0,-0.0835623799505075
10.200000000000195,0.003256954430650749,0.03226974867573397,0.9780429988545939,0.005432076883650769,0.017449894603870163,0.011636639407870365,0.0031033528548200595,0.03134846683047277,-0.019728487339579104,0.004911947425120291,0.018206718810858943,0.18850985487776784,0.024482175363293616,0.006979932693071943,0.007923494174287922,-0.03161571180196997,-0.015376583660316433,0.04600291389544861,0.0,0.014635508704710929,-0.24155507977281576,10.443948355831768,0.0,0.0,0.0,0.0,0.0,0.9912211392551153,0.0,0.0,-0.08541902956665377,0.0,0.0,0.0,0.0,0.0,0.0,0.0,0.0,0.9912211392551152,0.0,0.0,-0.0854190295666537
10.205000000000195,0.00328324053554908,0.03236002092376848,0.9780693416461957,0.0050481392630269285,0.017941450454148907,-0.0004918313112288673,0.00328324053554908,0.03236002092376848,-0.012720094514445779,0.0050481392630269285,0.017941450454148907,0.08676769267892265,0.024273099483915872,0.006868798407372098,0.008142038182236393,-0.050019719730413206,-0.023237795512340332,0.040507349764199785,0.0,0.014635508704710929,-0.24155507977281576,10.443948355831768,0.0,0.0,0.0,0.0,0.0,0.9907894361606415,0.0,0.0,-0.08725952399015152,0.0,0.0,0.0,0.0,0.0,0.0,0.0,0.0,0.9907894361606416,0.0,0.0,-0.0872595239901515
10.210000000000196,0.0033025509629732875,0.03244852922242284,0.9780345642802175,0.002775629962230743,0.019344415923948255,-0.01350349447048617,0.00328324053554908,0.03236002092376848,-0.012720094514445779,0.0050481392630269285,0.017941450454148907,0.08676769267892265,0.023974066959503798,0.006683279367172481,0.008315232162037677,-0.08016216344355877,-0.054994465061642066,0.033787439385071595,0.0,-0.03800651893463585,-0.14457882385869225,9.629262378374605,0.0,0.0,0.0,0.0,0.0,0.9903485707748458,0.0,0.0,-0.08908396261655815,0.0,0.0,0.0,0.0,0.0,0.0,0.0,0.0,0.9903485707748458,0.0,0.0,-0.0890839626165581
10.215000000000197,0.0033101877066925548,0.032548209330408015,0.9779238461407903,0.0007567671201895897,0.019343819827191085,-0.028999524716237395,0.00328324053554908,0.03236002092376848,-0.012720094514445779,0.0050481392630269285,0.017941450454148907,0.08676769267892265,0.02352705004848968,0.0063149006990464865,0.00846302547961899,-0.08884585232063474,-0.08050847074466567,0.02821848767717787,0.0,-0.03800651893463585,-0.14457882385869225,9.629262378374605,0.0,0.0,0.0,0.0,0.0,0.9898986231293423,0.0,0.0,-0.09089244430530635,0.0,0.0,0.0,0.0,0.0,0.0,0.0,0.0,0.9898986231293424,0.0,0.0,-0.0908924443053063
10.220000000000198,0.003316889549838472,0.03264349441170527,0.9777334150192228,0.002201247900359299,0.017761773071732077,-0.044805230141078796,0.00328324053554908,0.03236002092376848,-0.012720094514445779,0.0050481392630269285,0.017941450454148907,0.08676769267892265,0.0231069697110985,0.005947620658681055,0.008585637234641673,-0.07181158437943704,-0.05812466243973605,0.02356938775291163,0.0,-0.03800651893463585,-0.14457882385869225,9.629262378374605,0.0,0.0,0.0,0.0,0.0,0.9894396727627823,0.0,0.0,-0.0926850673824005,0.0,0.0,0.0,0.0,0.0,0.0,0.0,0.0,0.9894396727627824,0.0,0.0,-0.0926850673824005
10.225000000000199,0.00333004497027278,0.03272535704826633,0.9774798622742127,0.003049537880826226,0.016502520271679894,-0.05995971195253808,0.00328324053554908,0.03236002092376848,-0.012720094514445779,0.0050481392630269285,0.017941450454148907,0.08676769267892265,0.022798144501158735,0.005703724252396848,0.008682910156927964,-0.059265785455270156,-0.045880136572288364,0.01981740187055673,0.0,-0.03800651893463585,-0.14457882385869225,9.629262378374605,0.0,0.0,0.0,0.0,0.0,0.988971798723516,0.0,0.0,-0.09446192964310021,0.0,0.0,0.0,0.0,0.0,0.0,0.0,0.0,0.988971798723516,0.0,0.0,-0.0944619296431002
10.2300000000002,0.003346063935137441,0.03280860883631838,0.9771314611388358,0.0032769660051779584,0.01631681717841638,-0.07582260530868334,0.00328324053554908,0.03236002092376848,-0.012720094514445779,0.0050481392630269285,0.017941450454148907,0.08676769267892265,0.022492213691655986,0.005474831970413228,0.008772499989869117,-0.0626829408261837,-0.04246561126835415,0.017856436759532475,0.0,-0.03800651893463585,-0.14457882385869225,9.629262378374605,0.0,0.0,0.0,0.0,0.0,0.9884950795722374,0.0,0.0,-0.09622312835459089,0.0,0.0,0.0,0.0,0.0,0.0,0.0,0.0,0.9884950795722374,0.0,0.0,-0.0962231283545908
10.2350000000002,0.003363144108153834,0.0328931878219649,0.9767026419426857,0.0034958911932225947,0.016857103768822376,-0.09150294364237879,0.00328324053554908,0.03236002092376848,-0.012720094514445779,0.0050481392630269285,0.017941450454148907,0.08676769267892265,0.02214313281352761,0.005261029853597622,0.008855676266012564,-0.07374566727516134,-0.039852416074345295,0.016626449689620976,0.0,-0.03800651893463585,-0.14457882385869225,9.629262378374605,0.0,0.0,0.0,0.0,0.0,0.98800959338462,0.0,0.0,-0.09796876025864137,0.0,0.0,0.0,0.0,0.0,0.0,0.0,0.0,0.98800959338462,0.0,0.0,-0.0979687602586413
10.240000000000201,0.00338169794191843,0.03297329213302905,0.9762261548523464,0.003909479209451234,0.016471175047220652,-0.10616225553307101,0.00328324053554908,0.03236002092376848,-0.012720094514445779,0.0050481392630269285,0.017941450454148907,0.08676769267892265,0.021796622105454123,0.005089898953956202,0.008928347582958086,-0.07010808224738464,-0.03549099878675899,0.015257532617484453,0.0,-0.03800651893463585,-0.14457882385869225,9.629262378374605,0.0,0.0,0.0,0.0,0.0,0.9875154177539363,0.0,0.0,-0.09969892157424881,0.0,0.0,0.0,0.0,0.0,0.0,0.0,0.0,0.9875154177539364,0.0,0.0,-0.0996989215742488
10.245000000000202,0.003401659521723708,0.03305505272843119,0.9756422479444626,0.003697207070524253,0.015686052548655294,-0.12178511287323722,0.00328324053554908,0.03236002092376848,-0.012720094514445779,0.0050481392630269285,0.017941450454148907,0.08676769267892265,0.02146521796097996,0.004903102404567499,0.009000649149404544,-0.06149206293652057,-0.04026233148994006,0.014867080247207886,0.0,-0.03800651893463585,-0.14457882385869225,9.629262378374605,0.0,0.0,0.0,0.0,0.0,0.9870126297936646,0.0,0.0,-0.10141370800027077,0.0,0.0,0.0,0.0,0.0,0.0,0.0,0.0,0.9870126297936646,0.0,0.0,-0.1014137080002707
10.250000000000203,0.0034201296940277164,0.03313512967260193,0.9749787208177338,0.003617049023656436,0.01572604116196525,-0.1373706275868162,0.00328324053554908,0.03236002092376848,-0.012720094514445779,0.0050481392630269285,0.017941450454148907,0.08676769267892265,0.021141613797341616,0.0046853081118732815,0.00907255011026384,-0.06581346895130054,-0.04347286785771494,0.015115181857335569,0.0,-0.03800651893463585,-0.14457882385869225,9.629262378374605,0.0,0.0,0.0,0.0,0.0,0.9865013061400849,0.0,0.0,-0.10311321471804469,0.0,0.0,0.0,0.0,0.0,0.0,0.0,0.0,0.9865013061400848,0.0,0.0,-0.1031132147180446
10.255000000000203,0.003436881726035198,0.03320878438607253,0.9742829427815117,0.003758040382386043,0.014992129844823301,-0.15166107555323052,0.003436881726035198,0.03320878438607253,-0.011698580173346795,0.003758040382386043,0.014992129844823301,-0.04686353915923572,0.02084075667140879,0.004461963237692508,0.009138879428918764,-0.059826511860753086,-0.04286163087245011,0.01441888397691909,0.0,-0.03800651893463585,-0.14457882385869225,9.629262378374605,0.0,0.0,0.0,0.0,0.0,0.9859815229548585,0.0,0.0,-0.1047975363939948,0.0,0.0,0.0,0.0,0.0,0.0,0.0,0.0,0.9859815229548584,0.0,0.0,-0.1047975363939948
10.260000000000204,0.003460696508312499,0.033272505272453755,0.9734815419448509,0.006560405659841933,0.009359168210238095,-0.16048005388510955,0.003436881726035198,0.03320878438607253,-0.011698580173346795,0.003758040382386043,0.014992129844823301,-0.04686353915923572,0.020703720330064058,0.004310404408096832,0.009205253351830723,0.015178224190810502,-0.0015883407298078966,0.012959804477494369,0.0,0.06555907927907527,-0.33197404472836123,12.385337731165798,0.0,0.0,0.0,0.0,0.0,0.9854533559275962,0.0,0.0,-0.1064667671822262,0.0,0.0,0.0,0.0,0.0,0.0,0.0,0.0,0.9854533559275962,0.0,0.0,-0.1064667671822262
10.265000000000205,0.0035022695588370852,0.03331040372460221,0.9726496889426313,0.008768348808342223,0.007081366863158262,-0.16546860645211992,0.003436881726035198,0.03320878438607253,-0.011698580173346795,0.003758040382386043,0.014992129844823301,-0.04686353915923572,0.02090364476446148,0.004428808808496697,0.009272366030945136,0.04071532422519165,0.03502173228279822,0.012795726330746876,0.0,0.06555907927907527,-0.33197404472836123,12.385337731165798,0.0,0.0,0.0,0.0,0.0,0.9849168802784136,0.0,0.0,-0.10812100072710673,0.0,0.0,0.0,0.0,0.0,0.0,0.0,0.0,0.9849168802784136,0.0,0.0,-0.1081210007271067
10.270000000000206,0.0035413175002231337,0.03334740453755643,0.9718446289583084,0.006838362287888212,0.008730735832327934,-0.16989755622850233,0.003436881726035198,0.03320878438607253,-0.011698580173346795,0.003758040382386043,0.014992129844823301,-0.04686353915923572,0.02103463816320485,0.004567718055550112,0.009339628748764048,0.008440189089361134,0.013654244014227863,0.014047690283444053,0.0,0.06555907927907527,-0.33197404472836123,12.385337731165798,0.0,0.0,0.0,0.0,0.0,0.9843721707604738,0.0,0.0,-0.10976033016583625,0.0,0.0,0.0,0.0,0.0,0.0,0.0,0.0,0.9843721707604738,0.0,0.0,-0.1097603301658362
10.275000000000206,0.0035712424428277884,0.03339705089445818,0.970963910660134,0.005628593986634,0.009892650776265895,-0.17521850394137883,0.003436881726035198,0.03320878438607253,-0.011698580173346795,0.003758040382386043,0.014992129844823301,-0.04686353915923572,0.020978389801691075,0.004581267009742906,0.009413734567557251,-0.018133303497961165,0.0020574298075094087,0.014483004936665685,0.0,0.06555907927907527,-0.33197404472836123,12.385337731165798,0.0,0.0,0.0,0.0,0.0,0.9838193016625163,0.0,0.0,-0.1113848481310035,0.0,0.0,0.0,0.0,0.0,0.0,0.0,0.0,0.9838193016625164,0.0,0.0,-0.1113848481310035
10.280000000000207,0.0035978045263984413,0.033441816461450044,0.9700550977000061,0.0053898052520154355,0.00728781434159622,-0.18082898162760366,0.003436881726035198,0.03320878438607253,-0.011698580173346795,0.003758040382386043,0.014992129844823301,-0.04686353915923572,0.020936034216046718,0.004570163945751065,0.0094839746618018,0.007307810842448182,0.0023364219353559407,0.012925449897508719,0.0,0.06555907927907527,-0.33197404472836123,12.385337731165798,0.0,0.0,0.0,0.0,0.0,0.9832583468113743,0.0,0.0,-0.11299464675313078,0.0,0.0,0.0,0.0,0.0,0.0,0.0,0.0,0.9832583468113744,0.0,0.0,-0.1129946467531307
10.285000000000208,0.003623840136029016,0.03347184520777259,0.9691733987839003,0.005307571533501066,0.005726705215351574,-0.18620857860209333,0.003436881726035198,0.03320878438607253,-0.011698580173346795,0.003758040382386043,0.014992129844823301,-0.04686353915923572,0.021013137405388967,0.004588256867787864,0.00954213967416608,0.018517994317963794,0.0031209823874100997,0.011345735117951328,0.0,0.06555907927907527,-0.33197404472836123,12.385337731165798,0.0,0.0,0.0,0.0,0.0,0.9826893795744773,0.0,0.0,-0.11458981766320611,0.0,0.0,0.0,0.0,0.0,0.0,0.0,0.0,0.9826893795744772,0.0,0.0,-0.1145898176632061
10.290000000000209,0.003650899352345451,0.033500269392809465,0.9682103983099455,0.005002685219804969,0.005983371025622245,-0.19126214517102524,0.003436881726035198,0.03320878438607253,-0.011698580173346795,0.003758040382386043,0.014992129844823301,-0.04686353915923572,0.02109185236358235,0.004605217176680089,0.009597646215301738,0.005091127048577491,-0.00013901690238577347,0.01041429304658047,0.0,0.06555907927907527,-0.33197404472836123,12.385337731165798,0.0,0.0,0.0,0.0,0.0,0.9821124728623447,0.0,0.0,-0.11617045199520344,0.0,0.0,0.0,0.0,0.0,0.0,0.0,0.0,0.9821124728623448,0.0,0.0,-0.1161704519952034
10.29500000000021,0.003672413789338771,0.03353006781210271,0.9672212780152727,0.003338004858496572,0.00579939182785037,-0.19636697203180556,0.003436881726035198,0.03320878438607253,-0.011698580173346795,0.003758040382386043,0.014992129844823301,-0.04686353915923572,0.021103724440676007,0.004553013607861527,0.00965026486974318,-0.0014927677722598944,-0.021052185866715048,0.011090354539610417,0.0,0.06555907927907527,-0.33197404472836123,12.385337731165798,0.0,0.0,0.0,0.0,0.0,0.981527699131062,0.0,0.0,-0.11773664038859055,0.0,0.0,0.0,0.0,0.0,0.0,0.0,0.0,0.981527699131062,0.0,0.0,-0.1177366403885905
10.30000000000021,0.003689490947158329,0.03355751068527379,0.9662666063279739,0.004129104687315325,0.005454709567149715,-0.2011201132605055,0.003436881726035198,0.03320878438607253,-0.011698580173346795,0.003758040382386043,0.014992129844823301,-0.04686353915923572,0.021079360275008865,0.004476996822974405,0.009708700494466682,-0.0056422713191977385,-0.005377671828691308,0.013999273529379892,0.0,0.06555907927907527,-0.33197404472836123,12.385337731165798,0.0,0.0,0.0,0.0,0.0,0.98093513038475,0.0,0.0,-0.11928847299082482,0.0,0.0,0.0,0.0,0.0,0.0,0.0,0.0,0.98093513038475,0.0,0.0,-0.1192884729908248
10.305000000000211,0.0037117686990465817,0.03358373659896986,0.9652281619570885,0.004825027589494617,0.0047529523221899045,-0.20574864279174251,0.0037117686990465817,0.03358373659896986,-0.015106676220926984,0.004825027589494617,0.0047529523221899045,-0.08492260333190552,0.021045117446656894,0.004476342695190547,0.009789936884890015,-0.006229798545669976,0.008440691004485492,0.01731849543682488,0.0,0.06555907927907527,-0.33197404472836123,12.385337731165798,0.0,0.0,0.0,0.0,0.0,0.9803348381780155,0.0,0.0,-0.120826039459837,0.0,0.0,0.0,0.0,0.0,0.0,0.0,0.0,0.9803348381780156,0.0,0.0,-0.120826039459837
10.310000000000212,0.0037406550027764274,0.033595901694142984,0.9641854746952035,0.007074574888680156,-0.0009540252144401157,-0.20088553661648817,0.0037117686990465817,0.03358373659896986,-0.015106676220926984,0.004825027589494617,0.0047529523221899045,-0.08492260333190552,0.021154250347837886,0.00458372954979003,0.00988276963056403,0.06332823610298136,0.04204789471080912,0.01767579400410907,0.0,0.20815623721184418,-0.6071354476438838,16.143835262343273,0.0,0.0,0.0,0.0,0.0,0.9797268936183949,0.0,0.0,-0.1223494289665031,0.0,0.0,0.0,0.0,0.0,0.0,0.0,0.0,0.9797268936183948,0.0,0.0,-0.1223494289665031
10.315000000000213,0.003778974304320488,0.033584598658407,0.963247566428804,0.008043648947866413,-0.002612212527085255,-0.19029784841377795,0.0037117686990465817,0.03358373659896986,-0.015106676220926984,0.004825027589494617,0.0047529523221899045,-0.08492260333190552,0.021526421812673942,0.004847316436311446,0.00996934036945008,0.07629187923094062,0.05659091785754435,0.015699878125195608,0.0,0.20815623721184418,-0.6071354476438838,16.143835262343273,0.0,0.0,0.0,0.0,0.0,0.9791113673687837,0.0,0.0,-0.1238587301971042,0.0,0.0,0.0,0.0,0.0,0.0,0.0,0.0,0.9791113673687836,0.0,0.0,-0.1238587301971042
10.320000000000213,0.00381542065608453,0.03357533653615272,0.9623086465536408,0.005958563351472285,-0.00093159093219909,-0.17856476431560847,0.0037117686990465817,0.03358373659896986,-0.015106676220926984,0.004825027589494617,0.0047529523221899045,-0.08492260333190552,0.02182966108482045,0.005074068942641738,0.010041590340401772,0.04153397821430013,0.029175490236229222,0.010858945934848478,0.0,0.20815623721184418,-0.6071354476438838,16.143835262343273,0.0,0.0,0.0,0.0,0.0,0.9784883296498503,0.0,0.0,-0.12535403135577433,0.0,0.0,0.0,0.0,0.0,0.0,0.0,0.0,0.9784883296498504,0.0,0.0,-0.1253540313557743
10.325000000000214,0.0038362922998665264,0.03357037248317558,0.9614288565674224,0.0031136222782145733,-0.0011346277808225273,-0.1671110411963095,0.0037117686990465817,0.03358373659896986,-0.015106676220926984,0.004825027589494617,0.0047529523221899045,-0.08492260333190552,0.022006384991488402,0.005096988402799123,0.010088922976317692,0.029430728079299497,-0.007259663319386772,0.008463149620093926,0.0,0.20815623721184418,-0.6071354476438838,16.143835262343273,0.0,0.0,0.0,0.0,0.0,0.9778578502424449,0.0,0.0,-0.12683542016693677,0.0,0.0,0.0,0.0,0.0,0.0,0.0,0.0,0.9778578502424448,0.0,0.0,-0.1268354201669367
10.330000000000215,0.003850815262029647,0.033557595284027714,0.9606545363315084,0.0037890163928315833,-0.003537403532706113,-0.15635072058743196,0.0037117686990465817,0.03358373659896986,-0.015106676220926984,0.004825027589494617,0.0047529523221899045,-0.08492260333190552,0.02220792514520065,0.0050625566729741705,0.010128634377779869,0.045947093579704765,0.005188602623131419,0.008759542581494788,0.0,0.20815623721184418,-0.6071354476438838,16.143835262343273,0.0,0.0,0.0,0.0,0.0,0.9772199984899883,0.0,0.0,-0.1283029838777283,0.0,0.0,0.0,0.0,0.0,0.0,0.0,0.0,0.9772199984899884,0.0,0.0,-0.1283029838777283
10.335000000000216,0.0038734715615733424,0.033527709062993016,0.959888064874753,0.005082180048789353,-0.007084136904868248,-0.1448063184121604,0.0037117686990465817,0.03358373659896986,-0.015106676220926984,0.004825027589494617,0.0047529523221899045,-0.08492260333190552,0.0225528586154462,0.005142830036424358,0.01017548252807507,0.07416625448633728,0.026910260930878664,0.009303776265782599,0.0,0.20815623721184418,-0.6071354476438838,16.143835262343273,0.0,0.0,0.0,0.0,0.0,0.9765748433008545,0.0,0.0,-0.12975680926041203,0.0,0.0,0.0,0.0,0.0,0.0,0.0,0.0,0.9765748433008544,0.0,0.0,-0.129756809260412
10.340000000000217,0.003898312583115273,0.033492959644982945,0.9591802759319045,0.004473190981338474,-0.005807159501320314,-0.13306190792596895,0.0037117686990465817,0.03358373659896986,-0.015106676220926984,0.004825027589494617,0.0047529523221899045,-0.08492260333190552,0.022850467511912238,0.005280421556637592,0.010229942585415772,0.0336034406142582,0.024557379996864397,0.010428014757397472,0.0,0.20815623721184418,-0.6071354476438838,16.143835262343273,0.0,0.0,0.0,0.0,0.0,0.9759224531507384,0.0,0.0,-0.13119698261477827,0.0,0.0,0.0,0.0,0.0,0.0,0.0,0.0,0.9759224531507384,0.0,0.0,-0.1311969826147782
10.345000000000217,0.0039224036662304776,0.03346931447513603,0.9585702771387772,0.005387899283068565,-0.0051475098851960326,-0.1216162970309269,0.0037117686990465817,0.03358373659896986,-0.015106676220926984,0.004825027589494617,0.0047529523221899045,-0.08492260333190552,0.022910375358903366,0.005445182206225707,0.010275815778361152,0.008640235403777551,0.04145128231653479,0.006888808500753988,0.0,0.20815623721184418,-0.6071354476438838,16.143835262343273,0.0,0.0,0.0,0.0,0.0,0.9752628960850116,0.0,0.0,-0.13262358977053404,0.0,0.0,0.0,0.0,0.0,0.0,0.0,0.0,0.9752628960850116,0.0,0.0,-0.132623589770534
10.350000000000218,0.003946423779527982,0.03343835535507654,0.9579809009058894,0.0035236738112854956,-0.007983205844895928,-0.11024446505749509,0.0037117686990465817,0.03358373659896986,-0.015106676220926984,0.004825027589494617,0.0047529523221899045,-0.08492260333190552,0.022984616463644914,0.005610428010850294,0.0103035399752248,0.035684978571109124,0.01601302106041931,0.0029419891919668295,0.0,0.20815623721184418,-0.6071354476438838,16.143835262343273,0.0,0.0,0.0,0.0,0.0,0.9745962397210681,0.0,0.0,-0.1340367160896809,0.0,0.0,0.0,0.0,0.0,0.0,0.0,0.0,0.974596239721068,0.0,0.0,-0.1340367160896809
10.355000000000219,0.003958239154356035,0.03338609882705899,0.9574500291045698,0.0019166114642669026,-0.012100697343395878,-0.09868950890934586,0.003958239154356035,0.03338609882705899,-0.016472522146085744,0.0019166114642669026,-0.012100697343395878,0.036746937559535425,0.023293935939258492,0.0056042050214264744,0.01031282889399533,0.08044988348826693,-0.006833384894634578,0.001010321572206536,0.0,0.20815623721184418,-0.6071354476438838,16.143835262343273,0.0,0.0,0.0,0.0,0.0,0.9739225512506555,0.0,0.0,-0.13543644646888128,0.0,0.0,0.0,0.0,0.0,0.0,0.0,0.0,0.9739225512506556,0.0,0.0,-0.1354364464688812
10.36000000000022,0.003966196243057924,0.033328769774931995,0.9570023762906218,0.001985770219284074,-0.010766399373815762,-0.08910206082348698,0.003958239154356035,0.03338609882705899,-0.016472522146085744,0.0019166114642669026,-0.012100697343395878,0.036746937559535425,0.023632808207563822,0.005556664331323253,0.010317491765657747,0.04759114982491888,-0.003929978721349918,0.0021387544554585026,0.0,0.19895549846846675,-0.5309204773548154,15.47819237398131,0.0,0.0,0.0,0.0,0.0,0.9732418974421972,0.0,0.0,-0.1368228653418136,0.0,0.0,0.0,0.0,0.0,0.0,0.0,0.0,0.9732418974421972,0.0,0.0,-0.1368228653418136
10.36500000000022,0.003981794033049503,0.03327930225852387,0.9565731117634235,0.004766949997002659,-0.008750343367004542,-0.08032678871349548,0.003958239154356035,0.03338609882705899,-0.016472522146085744,0.0019166114642669026,-0.012100697343395878,0.036746937559535425,0.023759704667716354,0.005621428301658863,0.010343923601206909,0.0048741173285998685,0.038328302408236294,0.007615257689323413,0.0,0.19895549846846675,-0.5309204773548154,15.47819237398131,0.0,0.0,0.0,0.0,0.0,0.9725543446431004,0.0,0.0,-0.1381960566815155,0.0,0.0,0.0,0.0,0.0,0.0,0.0,0.0,0.9725543446431004,0.0,0.0,-0.1381960566815155
10.370000000000221,0.0040099348947188074,0.033231265027493594,0.9561855410384438,0.005566118535448049,-0.010959845644785627,-0.07215901688418123,0.003958239154356035,0.03338609882705899,-0.016472522146085744,0.0019166114642669026,-0.012100697343395878,0.036746937559535425,0.023793683693199928,0.005875172118543369,0.010400816488610777,0.021458582768314482,0.0511556526832638,0.011092771722963886,0.0,0.19895549846846675,-0.5309204773548154,15.47819237398131,0.0,0.0,0.0,0.0,0.0,0.971859958782054,0.0,0.0,-0.13955610400271645,0.0,0.0,0.0,0.0,0.0,0.0,0.0,0.0,0.971859958782054,0.0,0.0,-0.1395561040027164
10.375000000000222,0.00403314015406599,0.033172664295727045,0.9558587934871741,0.004128402702513886,-0.01288674377910498,-0.06439982205759885,0.003958239154356035,0.03338609882705899,-0.016472522146085744,0.0019166114642669026,-0.012100697343395878,0.036746937559535425,0.023944148812712156,0.006068921125540815,0.010454475748034013,0.03388262880643577,0.03012709721942739,0.008405397467289527,0.0,0.19895549846846675,-0.5309204773548154,15.47819237398131,0.0,0.0,0.0,0.0,0.0,0.971158805371314,0.0,0.0,-0.14090309036415835,0.0,0.0,0.0,0.0,0.0,0.0,0.0,0.0,0.971158805371314,0.0,0.0,-0.1409030903641583
10.380000000000223,0.004054797045010286,0.03310388795950771,0.9555535846109768,0.00419868004066425,-0.013823377692240207,-0.05578917794322335,0.003958239154356035,0.03338609882705899,-0.016472522146085744,0.0019166114642669026,-0.012100697343395878,0.036746937559535425,0.024115050918152837,0.00622587054056824,0.010480121135367273,0.02990036615563944,0.029375982133900906,0.0003528824113832555,0.0,0.19895549846846675,-0.5309204773548154,15.47819237398131,0.0,0.0,0.0,0.0,0.0,0.9704509495089784,0.0,0.0,-0.14223709837090545,0.0,0.0,0.0,0.0,0.0,0.0,0.0,0.0,0.9704509495089784,0.0,0.0,-0.1422370983709054
10.385000000000224,0.004075485003803453,0.03303043226020242,0.9552911532566074,0.0033754067466335814,-0.014984149735635109,-0.047347116629278777,0.003958239154356035,0.03338609882705899,-0.016472522146085744,0.0019166114642669026,-0.012100697343395878,0.036746937559535425,0.02425899532414688,0.006367174018466964,0.010465041673664523,0.027240823529611276,0.01875995949693795,-0.00607206802972537,0.0,0.19895549846846675,-0.5309204773548154,15.47819237398131,0.0,0.0,0.0,0.0,0.0,0.9697364558812482,0.0,0.0,-0.14355821017664266,0.0,0.0,0.0,0.0,0.0,0.0,0.0,0.0,0.9697364558812482,0.0,0.0,-0.1435582101766426
10.390000000000224,0.00408952203254337,0.03295628151971917,0.9550831705656081,0.0025324618297686754,-0.01618045879452959,-0.03960312664662078,0.003958239154356035,0.03338609882705899,-0.016472522146085744,0.0019166114642669026,-0.012100697343395878,0.036746937559535425,0.02437179935091106,0.00643823922387188,0.010436640515696954,0.024899487169963798,0.0117465243313212,-0.0054217646314370805,0.0,0.19895549846846675,-0.5309204773548154,15.47819237398131,0.0,0.0,0.0,0.0,0.0,0.9690153887646809,0.0,0.0,-0.14486650748596333,0.0,0.0,0.0,0.0,0.0,0.0,0.0,0.0,0.9690153887646809,0.0,0.0,-0.1448665074859633
10.395000000000225,0.004102431227267921,0.032872015196084965,0.9549013804237199,0.002207987731664682,-0.016859915178492578,-0.03206677726656883,0.003958239154356035,0.03338609882705899,-0.016472522146085744,0.0019166114642669026,-0.012100697343395878,0.036746937559535425,0.024472888499173458,0.006518483052740504,0.01042393827522332,0.01596632549386271,0.014052549456003453,-0.00011285638591670836,0.0,0.19895549846846675,-0.5309204773548154,15.47819237398131,0.0,0.0,0.0,0.0,0.0,0.968287812028428,0.0,0.0,-0.1461620715566452,0.0,0.0,0.0,0.0,0.0,0.0,0.0,0.0,0.968287812028428,0.0,0.0,-0.1461620715566452
10.400000000000226,0.004116286919753697,0.03278189478176626,0.9547589668534732,0.003100301004999555,-0.01894303266680298,-0.024087743580914898,0.003958239154356035,0.03338609882705899,-0.016472522146085744,0.0019166114642669026,-0.012100697343395878,0.036746937559535425,0.02456376922321503,0.006634510641752504,0.010442396280046467,0.027208578559333767,0.028758847776549003,0.005372617333490336,0.0,0.19895549846846675,-0.5309204773548154,15.47819237398131,0.0,0.0,0.0,0.0,0.0,0.9675537891364652,0.0,0.0,-0.147444983201916,0.0,0.0,0.0,0.0,0.0,0.0,0.0,0.0,0.9675537891364652,0.0,0.0,-0.147444983201916
10.405000000000227,0.004129228722346734,0.03268905920302541,0.9546624893129196,0.0023612998694102203,-0.019399317254422073,-0.01641784612673946,0.004129228722346734,0.03268905920302541,-0.012150893836888832,0.0023612998694102203,-0.019399317254422073,0.1322974766659683,0.0246823567077026,0.0067424531997986705,0.010477335745016827,0.01910976257836646,0.01739616379803198,0.007312599871413443,0.0,0.19895549846846675,-0.5309204773548154,15.47819237398131,0.0,0.0,0.0,0.0,0.0,0.9668133831498085,0.0,0.0,-0.14871532279270777,0.0,0.0,0.0,0.0,0.0,0.0,0.0,0.0,0.9668133831498084,0.0,0.0,-0.1487153227927077
10.410000000000228,0.004138984160969406,0.03260261915082914,0.9545803450727511,0.001186187752762584,-0.01373623999207842,-0.0174897915775587,0.004129228722346734,0.03268905920302541,-0.012150893836888832,0.0023612998694102203,-0.019399317254422073,0.1322974766659683,0.02457518588581811,0.006795283448627714,0.010512305521006616,-0.07069644376618064,-0.0006010602669262984,0.00501425333499611,0.0,0.06681690433891851,-0.2390069599862152,12.1030802540831,0.0,0.0,0.0,0.0,0.0,0.9660666567287197,0.0,0.0,-0.14997317025989998,0.0,0.0,0.0,0.0,0.0,0.0,0.0,0.0,0.9660666567287196,0.0,0.0,-0.1499731702598999
10.415000000000228,0.0041388844496253845,0.03253994231536401,0.9544730824362626,-0.0009157432872148703,-0.013053030074612035,-0.024034222624161158,0.004129228722346734,0.03268905920302541,-0.012150893836888832,0.0023612998694102203,-0.019399317254422073,0.1322974766659683,0.024091889204733163,0.006694778212689344,0.010516896015586915,-0.08738487714230425,-0.034543430287534406,-0.002132636954460849,0.0,0.06681690433891851,-0.2390069599862152,12.1030802540831,0.0,0.0,0.0,0.0,0.0,0.9653136721349025,0.0,0.0,-0.15121860509655277,0.0,0.0,0.0,0.0,0.0,0.0,0.0,0.0,0.9653136721349024,0.0,0.0,-0.1512186050965527
10.420000000000229,0.004133901310651459,0.032467766497365394,0.9543416514254607,-0.0005774039738122999,-0.0171608025541149,-0.030319919571942477,0.004129228722346734,0.03268905920302541,-0.012150893836888832,0.0023612998694102203,-0.019399317254422073,0.1322974766659683,0.02378495990651436,0.006512437404085557,0.01048683690259318,-0.038041443276152276,-0.0328414751211698,-0.007659002412172839,0.0,0.06681690433891851,-0.2390069599862152,12.1030802540831,0.0,0.0,0.0,0.0,0.0,0.964554491233685,0.0,0.0,-0.1524517063601281,0.0,0.0,0.0,0.0,0.0,0.0,0.0,0.0,0.964554491233685,0.0,0.0,-0.1524517063601281
10.42500000000023,0.004135914477231366,0.03237143414397362,0.9541690630287013,0.0013362690161723698,-0.019567042539831544,-0.037011350911651496,0.004129228722346734,0.03268905920302541,-0.012150893836888832,0.0023612998694102203,-0.019399317254422073,0.1322974766659683,0.023686770234472913,0.006414214520680329,0.010439734152841128,-0.014841790949463779,-0.005930530051224435,-0.008841751867600901,0.0,0.06681690433891851,-0.2390069599862152,12.1030802540831,0.0,0.0,0.0,0.0,0.0,0.9637891754961918,0.0,0.0,-0.15367255267470092,0.0,0.0,0.0,0.0,0.0,0.0,0.0,0.0,0.9637891754961918,0.0,0.0,-0.1536725526747009
10.43000000000023,0.004145627375838921,0.03227521971437214,0.953960904255971,0.0019352846806000709,-0.01760270942714828,-0.04433473159067663,0.004129228722346734,0.03268905920302541,-0.012150893836888832,0.0023612998694102203,-0.019399317254422073,0.1322974766659683,0.02352670384890657,0.0064298491155947175,0.010403631497984503,-0.05525197852082538,0.004283057904321386,-0.005060692203550402,0.0,0.06681690433891851,-0.2390069599862152,12.1030802540831,0.0,0.0,0.0,0.0,0.0,0.9630177860015074,0.0,0.0,-0.15488122223315992,0.0,0.0,0.0,0.0,0.0,0.0,0.0,0.0,0.9630177860015074,0.0,0.0,-0.1548812222331599
10.435000000000231,0.004155823312751406,0.0321938312156074,0.9537306521753448,0.002165785916616908,-0.01686697946287233,-0.05126291121176088,0.004129228722346734,0.03268905920302541,-0.012150893836888832,0.0023612998694102203,-0.019399317254422073,0.1322974766659683,0.023189265441767165,0.006469616082942506,0.010389846982062887,-0.07646799751062151,0.009788627629513243,-0.001961910931297678,0.0,0.06681690433891851,-0.2390069599862152,12.1030802540831,0.0,0.0,0.0,0.0,0.0,0.9622403834388236,0.0,0.0,-0.15607779279939632,0.0,0.0,0.0,0.0,0.0,0.0,0.0,0.0,0.9622403834388236,0.0,0.0,-0.1560777927993963
10.440000000000232,0.004166984389469976,0.03210394003146086,0.9534490133775498,0.0021559595681404226,-0.018925935989076846,-0.05856702174612788,0.004129228722346734,0.03268905920302541,-0.012150893836888832,0.0023612998694102203,-0.019399317254422073,0.1322974766659683,0.022823617787508715,0.0065235989759852625,0.010377302213699048,-0.05893717017204916,0.00984979021135338,-0.004394641215601236,0.0,0.06681690433891851,-0.2390069599862152,12.1030802540831,0.0,0.0,0.0,0.0,0.0,0.9614570281095816,0.0,0.0,-0.15726234171048376,0.0,0.0,0.0,0.0,0.0,0.0,0.0,0.0,0.9614570281095816,0.0,0.0,-0.1572623417104837
10.445000000000233,0.004174016813325006,0.03199932732658099,0.9531299877863548,0.0007838830565238402,-0.021764921035805743,-0.06609334116048975,0.004129228722346734,0.03268905920302541,-0.012150893836888832,0.0023612998694102203,-0.019399317254422073,0.1322974766659683,0.02260369905835053,0.006513871360109569,0.010338667887165713,-0.03080309435133187,-0.011289789300968184,-0.01072755726032894,0.0,0.06681690433891851,-0.2390069599862152,12.1030802540831,0.0,0.0,0.0,0.0,0.0,0.9606677799295993,0.0,0.0,-0.15843494587884618,0.0,0.0,0.0,0.0,0.0,0.0,0.0,0.0,0.9606677799295992,0.0,0.0,-0.1584349458788461
10.450000000000234,0.004174462938053021,0.03188983395297923,0.952795510640979,-0.0004633437179984881,-0.02341418841952692,-0.07290571908136317,0.004129228722346734,0.03268905920302541,-0.012150893836888832,0.0023612998694102203,-0.019399317254422073,0.1322974766659683,0.022502474707162597,0.006411696517230023,0.010266560552521396,-0.016609139211890958,-0.02991945243392746,-0.017959246316284812,0.0,0.06681690433891851,-0.2390069599862152,12.1030802540831,0.0,0.0,0.0,0.0,0.0,0.9598726984311907,0.0,0.0,-0.159595681794416,0.0,0.0,0.0,0.0,0.0,0.0,0.0,0.0,0.9598726984311908,0.0,0.0,-0.159595681794416
10.455000000000235,0.004174927856398165,0.03176940510274493,0.9524038954042755,0.00076066418331922,-0.023572015001653582,-0.08011427394137223,0.004174927856398165,0.03176940510274493,-0.0066679473609949635,0.00076066418331922,-0.023572015001653582,0.08063035158540945,0.02240668912545468,0.0063004186690380675,0.010153514877403333,-0.0237044569694864,-0.012829371775782398,-0.0244691008756438,0.0,0.06681690433891851,-0.2390069599862152,12.1030802540831,0.0,0.0,0.0,0.0,0.0,0.9590718427652705,0.0,0.0,-0.16074462552678168,0.0,0.0,0.0,0.0,0.0,0.0,0.0,0.0,0.9590718427652704,0.0,0.0,-0.1607446255267816
10.460000000000235,0.004173913636737964,0.03165947320660916,0.9519702835911643,-0.0015837075937515646,-0.018864782165151882,-0.09002307142332934,0.004174927856398165,0.03176940510274493,-0.0066679473609949635,0.00076066418331922,-0.023572015001653582,0.08063035158540945,0.02211376528808088,0.006175941382447866,0.010019736597978465,-0.09971449288540878,-0.04231741995216745,-0.025860510713549,0.0,0.0076522947985274625,-0.08885751871872756,10.748256878269999,0.0,0.0,0.0,0.0,0.0,0.9582652717034525,0.0,0.0,-0.16188185272732458,0.0,0.0,0.0,0.0,0.0,0.0,0.0,0.0,0.9582652717034524,0.0,0.0,-0.1618818527273245
10.465000000000236,0.004163316849664486,0.031577253520617646,0.951509222289457,-0.0022830602598013687,-0.016694047840288995,-0.1015742533244309,0.004174927856398165,0.03176940510274493,-0.0066679473609949635,0.00076066418331922,-0.023572015001653582,0.08063035158540945,0.021494925677901257,0.005952622130233177,0.009896327260884765,-0.1394150288161112,-0.04445928144604025,-0.023322350906447936,0.0,0.0076522947985274625,-0.08885751871872756,10.748256878269999,0.0,0.0,0.0,0.0,0.0,0.957453043640135,0.0,0.0,-0.16300743863134592,0.0,0.0,0.0,0.0,0.0,0.0,0.0,0.0,0.957453043640135,0.0,0.0,-0.1630074386313459
10.470000000000237,0.004154904578174135,0.03148648216435859,0.9509571653825002,-0.0006901600885367802,-0.019482908191135184,-0.11418130493341634,0.004174927856398165,0.03176940510274493,-0.0066679473609949635,0.00076066418331922,-0.023572015001653582,0.08063035158540945,0.02082632520240915,0.0057901281953232075,0.009782228547135986,-0.11413044598191348,-0.016784970166429793,-0.020621820901933065,0.0,0.0076522947985274625,-0.08885751871872756,10.748256878269999,0.0,0.0,0.0,0.0,0.0,0.9566352165945746,0.0,0.0,-0.16412145806018305,0.0,0.0,0.0,0.0,0.0,0.0,0.0,0.0,0.9566352165945746,0.0,0.0,-0.164121458060183
10.475000000000238,0.0041539036469921044,0.03138040550479394,0.9503404173108974,-0.00010092267385629805,-0.021489778606139348,-0.1268270654484201,0.004174927856398165,0.03176940510274493,-0.0066679473609949635,0.00076066418331922,-0.023572015001653582,0.08063035158540945,0.020300110773591187,0.005746110401987323,0.009676413396786755,-0.099373564342422,-0.007415071750154134,-0.02092105808226231,0.0,0.0076522947985274625,-0.08885751871872756,10.748256878269999,0.0,0.0,0.0,0.0,0.0,0.955811848212953,0.0,0.0,-0.1652239854233155,0.0,0.0,0.0,0.0,0.0,0.0,0.0,0.0,0.955811848212953,0.0,0.0,-0.1652239854233155
10.480000000000238,0.0041525367878070445,0.03127289042323489,0.9497026243473059,-0.0006506638387219229,-0.022767050892371323,-0.13811353816691244,0.004174927856398165,0.03176940510274493,-0.0066679473609949635,0.00076066418331922,-0.023572015001653582,0.08063035158540945,0.019863825489119122,0.005699631723706606,0.009569132871643609,-0.08871849283734208,-0.015493129094402019,-0.02355257385256655,0.0,0.0076522947985274625,-0.08885751871872756,10.748256878269999,0.0,0.0,0.0,0.0,0.0,0.9549829957704286,0.0,0.0,-0.1663150947204611,0.0,0.0,0.0,0.0,0.0,0.0,0.0,0.0,0.9549829957704286,0.0,0.0,-0.1663150947204611
10.48500000000024,0.004146566194157048,0.03115405984498258,0.9489648376563974,-0.0015678479221783157,-0.02381689213952205,-0.1504766539664815,0.004174927856398165,0.03176940510274493,-0.0066679473609949635,0.00076066418331922,-0.023572015001653582,0.08063035158540945,0.01943838618646212,0.005585300352789197,0.009433803421371493,-0.0774778111752978,-0.028623586678275928,-0.028689165190632096,0.0,0.0076522947985274625,-0.08885751871872756,10.748256878269999,0.0,0.0,0.0,0.0,0.0,0.9541487161731821,0.0,0.0,-0.16739485954366168,0.0,0.0,0.0,0.0,0.0,0.0,0.0,0.0,0.954148716173182,0.0,0.0,-0.1673948595436616
10.49000000000024,0.00413683923740778,0.03102914521553636,0.9481651802272066,-0.002157360511043735,-0.02515639547726141,-0.16236387935102942,0.004174927856398165,0.03176940510274493,-0.0066679473609949635,0.00076066418331922,-0.023572015001653582,0.08063035158540945,0.0190861825988186,0.00541837734397195,0.009270721646466976,-0.06018326973061979,-0.03666105247679908,-0.033310965261849075,0.0,0.0076522947985274625,-0.08885751871872756,10.748256878269999,0.0,0.0,0.0,0.0,0.0,0.9533090659604484,0.0,0.0,-0.16846335307935845,0.0,0.0,0.0,0.0,0.0,0.0,0.0,0.0,0.9533090659604484,0.0,0.0,-0.1684633530793584
10.49500000000024,0.00412662394103522,0.03090932692545176,0.9473580220555421,-0.0022025091396728,-0.024941050087762377,-0.1732069930737699,0.004174927856398165,0.03176940510274493,-0.0066679473609949635,0.00076066418331922,-0.023572015001653582,0.08063035158540945,0.018781553683882405,0.005251588334660959,0.009101046955995272,-0.06391270485012213,-0.03575883531098798,-0.035815410254224155,0.0,0.0076522947985274625,-0.08885751871872756,10.748256878269999,0.0,0.0,0.0,0.0,0.0,0.9524641013065402,0.0,0.0,-0.169520648110458,0.0,0.0,0.0,0.0,0.0,0.0,0.0,0.0,0.9524641013065402,0.0,0.0,-0.169520648110458
