time,pos_x,pos_y,pos_z,vel_x,vel_y,vel_z,pos_xo,pos_yo,pos_zo,vel_xo,vel_yo,vel_zo,roll,pitch,yaw,roll_vel,pitch_vel,yaw_vel,thrust_z,force_x,force_y,force_z,torque_x,torque_y,torque_z,pos_xd,pos_yd,pos_zd,vel_xd,vel_yd,vel_zd,roll_d,pitch_d,yaw_d,roll_vel_d,pitch_vel_d,yaw_vel_d,pos_xr,pos_yr,pos_zr,vel_xr,vel_yr,vel_zr
0.05000143051147461,0.006019648164510727,-0.026713863015174866,0.18217700719833374,0.0,0.0,0.0,0.006019648164510727,-0.026713863015174866,0.18217700719833374,0.0,0.0,-1.199040437784778e-13,0.06694982109292047,0.012040474294444437,0.015539487884417724,-0.004522750154137611,0.002361742546781897,-0.00327453762292862,0.0,6.080960342036283e-14,-2.7840914681598024e-15,12.949199999999616,0.0,0.0,0.0,0.0,0.0,5.717470860421037e-20,0.0,0.0,1.199040437784778e-13,0.0,0.0,0.0,0.0,0.0,0.0,0.0,0.0,0.0,0.0,0.0,0.0
0.10000143051147461,0.006040977314114571,-0.026750728487968445,0.1823049634695053,-0.005689554498648208,-0.005059294504463131,0.008428648510625619,0.006040977314114571,-0.026750728487968445,0.18230254468727614,-0.005689554498648208,-0.005059294504463131,0.008283981242754462,0.06567951505582093,0.011089806582032402,0.015760815966228137,-0.006024905480444431,-0.014586318284273156,-0.07246451079845428,0.0,-1.6151977090316445,-0.15139729802369714,17.431725697532652,0.0,0.0,0.0,0.0,0.0,2.418782229168552e-06,0.0,0.0,0.00014466726787115745,0.0,0.0,0.0,0.0,0.0,0.0,0.0,0.0,2.418575286865234e-06,0.0,0.0,0.0001446590423583
0.15000143051147463,0.006084590218961239,-0.026562746614217758,0.184062659740448,-0.002758109554212789,-0.0031848073517025005,0.02804063018556695,0.006084590218961239,-0.026562746614217758,0.18404349205295273,-0.002758109554212789,-0.0031848073517025005,0.02746923342981926,0.06825240264304444,0.011579907581412918,0.015841848787461643,0.08037309348583221,-0.16719405353069305,0.10499134659767152,0.0,-1.7856003651570975,-0.1667126690409116,17.846408837065393,0.0,0.0,0.0,0.0,0.0,1.9167687495258532e-05,0.0,0.0,0.0005713967557476934,0.0,0.0,0.0,0.0,0.0,0.0,0.0,0.0,1.9166870117187512e-05,0.0,0.0,0.0005713806152343
0.20000143051147462,0.005816538352519274,-0.02618570439517498,0.19281461834907532,-0.0072836544202904314,-0.0018712231853705756,0.23316532712503263,0.005816538352519274,-0.02618570439517498,0.19275053860273897,-0.0072836544202904314,-0.0018712231853705756,0.23189591899182677,0.07643999791587008,-0.00556950785857957,0.022512018162274217,0.1679706573486328,-0.2948949635028839,0.04820547252893451,0.0,-0.8297445590265883,-0.007731385542150464,14.515174258208749,0.0,0.0,0.0,0.0,0.0,6.407974633635331e-05,0.0,0.0,0.001269408133205873,0.0,0.0,0.0,0.0,0.0,0.0,0.0,0.0,6.407793045043952e-05,0.0,0.0,0.0012693843841552
0.2500014305114746,0.007190408650785685,-0.025537824258208275,0.20878343284130096,0.04127445067190191,0.012630638885758006,0.33235474704875895,0.007190408650785685,-0.025537824258208275,0.20863298043531006,0.04127445067190191,0.012630638885758006,0.3301266886499553,0.08069572327792329,-0.012270814245331607,0.022723192422159144,0.09810133278369904,0.05198584496974945,-0.015083720907568939,0.0,0.3109663071651115,0.15974071487642422,10.334454649154884,0.0,0.0,0.0,0.0,0.0,0.00015045240599089328,0.0,0.0,0.002228058398803619,0.0,0.0,0.0,0.0,0.0,0.0,0.0,0.0,0.00015044921875,0.0,0.0,0.00222802734375
0.3000014305114746,0.011703754775226116,-0.02380405180156231,0.22302278876304626,0.1123773799019431,0.03332121370174454,0.2187365314211924,0.011703754775226116,-0.02380405180156231,0.2227317343661935,0.1123773799019431,0.03332121370174454,0.215299689540992,0.0868990094816704,-0.0003490546267608252,0.020784630343348987,-0.01104099303483963,0.43234241008758545,-0.031260464340448435,0.0,0.5738193311410665,0.1780197697211823,8.421669199019393,0.0,0.0,0.0,0.0,0.0,0.00029105439685275406,0.0,0.0,0.0034368418802004173,0.0,0.0,0.0,0.0,0.0,0.0,0.0,0.0,0.0002910494804382,0.0,0.0,0.003436803817749
0.3500014305114746,0.019002405926585197,-0.02127510868012905,0.22842037677764893,0.1285173843525744,0.03980375610180989,0.10866526881817767,0.019002405926585197,-0.02127510868012905,0.2279222441787226,0.1285173843525744,0.03980375610180989,0.10377987858402035,0.08428994149997227,0.026779600749168075,0.020479988514502168,-0.10701948404312134,0.6670869588851929,0.0002548213815315741,0.0,-0.004964931148782825,0.06651958542433553,9.410256386474167,0.0,0.0,0.0,0.0,0.0,0.0004981325989263246,0.0,0.0,0.004885390234157317,0.0,0.0,0.0,0.0,0.0,0.0,0.0,0.0,0.0004981256103515,0.0,0.0,0.0048853454589843
0.4000014305114746,0.02714700438082218,-0.01841897703707218,0.2228512316942215,0.14791600313283848,0.04357538135050731,-0.18704797488762645,0.02714700438082218,-0.01841897703707218,0.2220678127859399,0.14791600313283848,0.04357538135050731,-0.19361144733416338,0.07141197498760166,0.05611636696241229,0.01534266997160394,-0.09465692937374115,0.43489769101142883,-0.012679630890488678,0.0,-0.7161586592922715,-0.05773334126656431,11.757894099066014,0.0,0.0,0.0,0.0,0.0,0.0007834189082815855,0.0,0.0,0.006563472446536928,0.0,0.0,0.0,0.0,0.0,0.0,0.0,0.0,0.0007834095191955,0.0,0.0,0.0065634212493896
0.45000143051147456,0.034405920654535294,-0.015835970640182495,0.20965228974819183,0.1501765184189202,0.047312268166310636,-0.24785216435281968,0.034405920654535294,-0.015835970640182495,0.20849415264468266,0.1501765184189202,0.047312268166310636,-0.2563131591851231,0.07190589411821735,0.0637178317865228,0.01410161974678914,-0.00883595459163189,-0.11613652855157852,-0.03521708399057387,0.0,-1.2917326070292536,-0.13279921724242394,14.149131845082477,0.0,0.0,0.0,0.0,0.0,0.0011581371035091867,0.0,0.0,0.008460994832303425,0.0,0.0,0.0,0.0,0.0,0.0,0.0,0.0,0.001158125,0.0,0.0,0.0084609375
0.5000014305114746,0.04090278223156929,-0.013619416393339634,0.1943124532699585,0.15281036389631764,0.04219897122215326,-0.25603331494724346,0.04090278223156929,-0.013619416393339634,0.19267944355778296,0.15281036389631764,0.04219897122215326,-0.266601315982766,0.0746386681765534,0.050528461287492554,0.014454290610837361,0.11858990788459778,-0.4146130383014679,0.01622443087399011,0.0,-1.3999683093972917,-0.1625144842422184,14.476406306108956,0.0,0.0,0.0,0.0,0.0,0.001633009712175526,0.0,0.0,0.010568001035522542,0.0,0.0,0.0,0.0,0.0,0.0,0.0,0.0,0.0016329945945739,0.0,0.0,0.0105679378509521
0.5500014305114747,0.04516318440437317,-0.008995386771857738,0.1827356070280075,0.1475966642600747,0.058270304251267765,-0.213724050881706,0.04516318440437317,-0.008995386771857738,0.18051734215072968,0.1475966642600747,0.058270304251267765,-0.22659872291106758,0.06180749896247262,0.014025400208434124,0.01302600949501631,-0.005374987609684467,-0.9577333927154541,-0.09985037147998799,0.0,-1.431984160463632,-0.15740164471596924,14.51638179207231,0.0,0.0,0.0,0.0,0.0,0.002218264877277828,0.0,0.0,0.01287467202936158,0.0,0.0,0.0,0.0,0.0,0.0,0.0,0.0,0.0022182464599609,0.0,0.0,0.0128746032714843
0.6000014305114747,0.053197748959064484,-0.006524719763547182,0.18628741800785065,0.19106384730279044,0.03119351135270626,0.17680623156594788,0.053197748959064484,-0.006524719763547182,0.18336377478415142,0.19106384730279044,0.03119351135270626,0.16143490544985847,0.06941074061413577,0.009266621353409832,0.015927127403801755,0.31088924407958984,0.2977984845638275,0.06822668761014934,0.0,-1.2294628492670938,-0.19475420314256375,13.725444244796279,0.0,0.0,0.0,0.0,0.0,0.0029236432236992194,0.0,0.0,0.015371326116089403,0.0,0.0,0.0,0.0,0.0,0.0,0.0,0.0,0.0029236212348938,0.0,0.0,0.0153712520599365
0.6500014305114747,0.06129362806677818,-0.004621893633157015,0.19490735232830048,0.1649871112125744,0.050524531830407594,0.21755204416281276,0.06129362806677818,-0.004621893633157015,0.19114894760363665,0.1649871112125744,0.050524531830407594,0.19950362523573634,0.07838001392513361,0.007934002343961133,0.017337356780871005,0.17391180992126465,-0.10431984066963196,0.014655884355306638,0.0,-1.1926983499922459,-0.12521805151119655,12.17221524723678,0.0,0.0,0.0,0.0,0.0,0.00375840472466381,0.0,0.0,0.01804841892707642,0.0,0.0,0.0,0.0,0.0,0.0,0.0,0.0,0.00375837890625,0.0,0.0,0.01804833984375
0.7000014305114748,0.06887740641832352,-0.0018486797343939543,0.20218418538570404,0.17718056608128363,0.06164678538344589,0.1461830560030369,0.06887740641832352,-0.0018486797343939543,0.19745284981751227,0.17718056608128363,0.06164678538344589,0.1252865125802423,0.08750411384695278,2.4103676505404792e-05,0.0159730680589103,0.11334503442049026,-0.19925972819328308,-0.053310666233301135,0.0,-1.1635545645095329,-0.19721007789208134,11.876427586382745,0.0,0.0,0.0,0.0,0.0,0.004731335568191772,0.0,0.0,0.020896543422794633,0.0,0.0,0.0,0.0,0.0,0.0,0.0,0.0,0.0047313056755066,0.0,0.0,0.0208964595794678
0.7500014305114748,0.07704995572566986,0.0010751427616924047,0.20575037598609924,0.19043628694217216,0.06540898214811612,0.03616229665178286,0.07704995572566986,0.0010751427616924047,0.19989962096254482,0.19043628694217216,0.06540898214811612,0.01225586675896527,0.09523532204491891,-0.016194741968901027,0.014382964619716887,0.08950537443161011,-0.2703053653240204,-0.0375898256897926,0.0,-1.2549123315505675,-0.23543859161972153,11.887031805121321,0.0,0.0,0.0,0.0,0.0,0.0058507550235544084,0.0,0.0,0.02390642989281759,0.0,0.0,0.0,0.0,0.0,0.0,0.0,0.0,0.0058507208251953,0.0,0.0,0.0239063415527344
0.8000014305114749,0.08578108996152878,0.004237353801727295,0.2047923505306244,0.1964010120914225,0.06607629341916335,-0.02479678057313823,0.08578108996152878,0.004237353801727295,0.19766782822289514,0.1964010120914225,0.06607629341916335,-0.051865726528958614,0.0959457986685166,-0.020593633916905052,0.014751385903451819,0.08845537900924683,-0.2503674030303955,-0.04190168157219884,0.0,-1.4713560280520943,-0.26927323679677184,12.578578616168764,0.0,0.0,0.0,0.0,0.0,0.00712452230772925,0.0,0.0,0.02706894595582039,0.0,0.0,0.0,0.0,0.0,0.0,0.0,0.0,0.0071244835853576,0.0,0.0,0.0270688533782959
0.8500014305114749,0.09499154984951019,0.006825108081102371,0.20062200725078583,0.20250831062901925,0.06347837601077409,-0.09017090201715844,0.09499154984951019,0.006825108081102371,0.1920619637989307,0.20250831062901925,0.06347837601077409,-0.12054599857673814,0.10229802874754101,-0.03670658792672077,0.016549356899480117,0.06673100590705872,-0.2373177856206894,-0.012712281197309465,0.0,-1.6076596272105017,-0.290768996026582,12.990163669908005,0.0,0.0,0.0,0.0,0.0,0.008560043451855114,0.0,0.0,0.030375096559579713,0.0,0.0,0.0,0.0,0.0,0.0,0.0,0.0,0.00856,0.0,0.0,0.030375
0.900001430511475,0.10420689731836319,0.009534462355077267,0.19472643733024597,0.20051869749994683,0.06079257596404642,-0.10489361451289284,0.10420689731836319,0.009534462355077267,0.18456215916255878,0.20051869749994683,0.06079257596404642,-0.13870963849386664,0.10969359630163344,-0.0508422940584472,0.017987508606172042,0.032182447612285614,-0.25512993335723877,-0.018839912489056556,0.0,-1.7166288473195304,-0.2956149225280782,13.273985969095657,0.0,0.0,0.0,0.0,0.0,0.010164278167687193,0.0,0.0,0.03381602398097379,0.0,0.0,0.0,0.0,0.0,0.0,0.0,0.0,0.0101642297935486,0.0,0.0,0.0338159236907959
0.950001430511475,0.11482279002666473,0.013917767442762852,0.18902307748794556,0.2220272849995109,0.08543608094988767,-0.11069200051424018,0.11482279002666473,0.013917767442762852,0.17707933077389343,0.2220272849995109,0.08543608094988767,-0.1480750083402226,0.09017181478114811,-0.04384797637693083,0.012158821699797429,-0.6602989435195923,0.5559579133987427,-0.16147600114345556,0.0,-1.7914389436802922,-0.30487558244628493,13.399039330233528,0.0,0.0,0.0,0.0,0.0,0.011943746714052126,0.0,0.0,0.037383007825982424,0.0,0.0,0.0,0.0,0.0,0.0,0.0,0.0,0.0119436932373047,0.0,0.0,0.0373829040527344
1.000001430511475,0.1265687197446823,0.01966005004942417,0.18574878573417664,0.2188156807374987,0.0917143497374429,-0.035597405380137156,0.1265687197446823,0.01966005004942417,0.17184424897087355,0.2188156807374987,0.0917143497374429,-0.07666487040982414,0.06335710729255739,-0.019136911407671597,-0.0003283200356856142,-0.2690892219543457,0.2675277888774872,-0.11489328742027285,0.0,-1.955456868538809,-0.4064897052295411,13.485242754147217,0.0,0.0,0.0,0.0,0.0,0.013904536763303093,0.0,0.0,0.04106746502968698,0.0,0.0,0.0,0.0,0.0,0.0,0.0,0.0,0.0139044780158996,0.0,0.0,0.0410673580169678
1.050001430511475,0.13578031957149506,0.02202463150024414,0.1847783923149109,0.2035431320017901,0.058449821631853464,0.0027217478840259207,0.13578031957149506,0.02202463150024414,0.16872608204713602,0.2035431320017901,0.058449821631853464,-0.04213920197224446,0.0741778639152666,-0.01147172321993839,0.0015510370135141116,0.14838166534900665,-0.0034292563796043405,-0.007055303081870079,0.0,-2.056335004526664,-0.4665464743236752,13.576201117061895,0.0,0.0,0.0,0.0,0.0,0.016052310267774865,0.0,0.0,0.04486094985627038,0.0,0.0,0.0,0.0,0.0,0.0,0.0,0.0,0.01605224609375,0.0,0.0,0.04486083984375
1.1000014305114751,0.1426897794008255,0.025002142414450645,0.1862046867609024,0.1551682650229634,0.07376111454754841,0.062300345790098625,0.1426897794008255,0.025002142414450645,0.16781237643466348,0.1551682650229634,0.07376111454754841,0.013545191891081526,0.07672084448498762,-0.019919449034643932,0.0004471697782255646,0.016763735562562943,-0.2931642234325409,-0.0011287869419902203,0.0,-1.8269176371787246,-0.3380460308697022,12.541984355856282,0.0,0.0,0.0,0.0,0.0,0.01839231032623891,0.0,0.0,0.0487551538990171,0.0,0.0,0.0,0.0,0.0,0.0,0.0,0.0,0.0183922405815124,0.0,0.0,0.0487550411224364
1.1500014305114752,0.14808405935764313,0.028232520446181297,0.1877061277627945,0.14013597906420117,0.07379614118536591,0.05977193002010173,0.14808405935764313,0.028232520446181297,0.16677675971243605,0.14013597906420117,0.07379614118536591,0.007030023939788535,0.07724150329748847,-0.03718127194017651,0.002458081724522998,0.013549042865633965,-0.2622111439704895,-0.042731299996376,0.0,-1.6362380612834881,-0.3918218895765029,12.400989463831673,0.0,0.0,0.0,0.0,0.0,0.020929368050358457,0.0,0.0,0.05274190608031319,0.0,0.0,0.0,0.0,0.0,0.0,0.0,0.0,0.0209292926025389,0.0,0.0,0.0527417907714842
1.2000014305114752,0.15407484769821167,0.03176770731806755,0.18820089101791382,0.1455805836753989,0.08210208666217178,0.02327657517787542,0.15407484769821167,0.03176770731806755,0.16453298158677024,0.1455805836753989,0.08210208666217178,-0.03353659747377086,0.08560902667611403,-0.044614677737167874,0.0018661723870767588,-0.030142435804009438,-0.08968406170606613,-0.02963714487850665,0.0,-1.7732692698102854,-0.4297767056381664,12.729489717615346,0.0,0.0,0.0,0.0,0.0,0.023667909431143573,0.0,0.0,0.056813172651646274,0.0,0.0,0.0,0.0,0.0,0.0,0.0,0.0,0.0236678281593321,0.0,0.0,0.0568130550384519
1.2500014305114753,0.15984059870243073,0.03518454357981682,0.188184455037117,0.13813360539556446,0.07717451317440385,0.017727107800093997,0.15984059870243073,0.03518454357981682,0.16157249283171077,0.13813360539556446,0.07717451317440385,-0.04323394939351152,0.07813569480962057,-0.05282182874556707,-0.0036927187696451647,-0.011975683271884918,0.024680402129888524,-0.07401256263256073,0.0,-1.8915925471102746,-0.47751072176439263,13.157080657584602,0.0,0.0,0.0,0.0,0.0,0.026611962205406244,0.0,0.0,0.06096105719360552,0.0,0.0,0.0,0.0,0.0,0.0,0.0,0.0,0.0266118749999997,0.0,0.0,0.0609609374999996
1.3000014305114753,0.16478456556797028,0.0384892039000988,0.18859077990055084,0.10669250495475255,0.07247557070792017,0.03520700183823685,0.16478456556797028,0.0384892039000988,0.15882561717833538,0.10669250495475255,0.07247557070792017,-0.02997079877764481,0.08369259460228351,-0.04938014725379869,-0.0048833976735545015,0.10465042293071747,-0.11051872372627258,-0.004277396947145448,0.0,-1.9790745561133878,-0.48808077961852125,13.25359718527393,0.0,0.0,0.0,0.0,0.0,0.029765162722215466,0.0,0.0,0.06517780061588166,0.0,0.0,0.0,0.0,0.0,0.0,0.0,0.0,0.0297650694847103,0.0,0.0,0.0651776790618892
1.3500014305114754,0.1681772768497467,0.04159437492489815,0.1900850534439087,0.0762514722517881,0.06817384825272042,0.063191990521122,0.1681772768497467,0.04159437492489815,0.1569542906345564,0.0762514722517881,0.06817384825272042,-0.006263790636144989,0.08584172893615483,-0.05736013031179077,-0.006279874345804792,0.16096162796020508,-0.16964492201805115,0.031937628984451315,0.0,-1.844545814822216,-0.4776219361950415,13.202514713975935,0.0,0.0,0.0,0.0,0.0,0.03313076280935229,0.0,0.0,0.06945578115726699,0.0,0.0,0.0,0.0,0.0,0.0,0.0,0.0,0.033130663452148,0.0,0.0,0.0694556579589839
1.4000014305114754,0.17056016623973846,0.04427941516041756,0.19207538664340973,0.06019051595067911,0.06832164553997452,0.06726521241262456,0.17056016623973846,0.04427941516041756,0.15536375000364477,0.06019051595067911,0.06832164553997452,-0.006522301973030803,0.09533278320088101,-0.06450259008497605,-0.0009422278411714835,0.14583387970924377,-0.2297493815422058,0.029428958892822293,0.0,-1.7390935624964439,-0.4733526639372497,13.008318813182477,0.0,0.0,0.0,0.0,0.0,0.03671163663976495,0.0,0.0,0.07378751438565537,0.0,0.0,0.0,0.0,0.0,0.0,0.0,0.0,0.0367115310859675,0.0,0.0,0.0737873897552484
1.4500014305114755,0.17209097743034363,0.04659828543663025,0.19380581378936768,0.054679525542523394,0.062089050438255994,0.06485842057819033,0.17209097743034363,0.04659828543663025,0.15329552619134382,0.054679525542523394,0.062089050438255994,-0.01330723261985188,0.11060918365057759,-0.07320460057571765,0.002521122483560845,0.24374151229858398,-0.11980948597192764,0.019069241359829917,0.0,-1.7682471963510284,-0.4958906582826934,13.382778981566602,0.0,0.0,0.0,0.0,0.0,0.040510287598023866,0.0,0.0,0.07816565319804221,0.0,0.0,0.0,0.0,0.0,0.0,0.0,0.0,0.0405101757812493,0.0,0.0,0.0781655273437493
1.5000014305114755,0.17356091737747192,0.048403725028038025,0.19573958218097687,0.04156588904669364,0.04694161079370455,0.062681428283003,0.17356091737747192,0.048403725028038025,0.15121072703420005,0.04156588904669364,0.04694161079370455,-0.019901559537521568,0.11961965583822876,-0.08214385812709146,0.008632465470167716,0.21000930666923523,-0.08703890442848206,0.04228591546416284,0.0,-1.7003627531254213,-0.47306810319672,13.037052074458881,0.0,0.0,0.0,0.0,0.0,0.04452885514677682,0.0,0.0,0.08258298782052456,0.0,0.0,0.0,0.0,0.0,0.0,0.0,0.0,0.044528737010955,0.0,0.0,0.0825828609466545
1.5500014305114755,0.17420749366283417,0.04948263242840767,0.1971738338470459,0.028362440898737913,0.03474465076435336,0.054845655422407866,0.17420749366283417,0.04948263242840767,0.14840471215384193,0.028362440898737913,0.03474465076435336,-0.03218679038589303,0.12799451057603317,-0.08418650080882895,0.007226450361576653,0.1975860446691513,-0.07795979827642441,0.050709202885627754,0.0,-1.692998509329914,-0.4371091948371565,13.25185142142357,0.0,0.0,0.0,0.0,0.0,0.04876912169320396,0.0,0.0,0.0870324458083009,0.0,0.0,0.0,0.0,0.0,0.0,0.0,0.0,0.0487689971923819,0.0,0.0,0.0870323181152334
1.6000014305114756,0.1742875576019287,0.05044185370206833,0.19811096787452698,0.0036027989400661494,0.023789603896148835,0.047157688620833915,0.1742875576019287,0.05044185370206833,0.1448784484190541,0.0036027989400661494,0.023789603896148835,-0.044349403424837425,0.1305679974005871,-0.08677911718549591,0.009004213970322361,0.12759871780872345,-0.04656049236655235,0.026813842356204994,0.0,-1.7126756590948837,-0.41149449388985015,13.398331393179456,0.0,0.0,0.0,0.0,0.0,0.05323251945547288,0.0,0.0,0.09150709204567134,0.0,0.0,0.0,0.0,0.0,0.0,0.0,0.0,0.0532323885536183,0.0,0.0,0.0915069637298574
1.6500014305114756,0.1733405590057373,0.05122438445687294,0.19885773956775665,-0.010711070539007465,0.022157676910526385,0.049824561899470474,0.1733405590057373,0.05122438445687294,0.14093760223856291,-0.010711070539007465,0.022157676910526385,-0.04617556684656714,0.13651658483663764,-0.08625078784066265,0.013047441662417114,-0.040123388171195984,-0.07248008996248245,0.0396043211221695,0.0,-1.6437343745862871,-0.3815639163057197,13.514253403552988,0.0,0.0,0.0,0.0,0.0,0.05792013732919374,0.0,0.0,0.09600012874603761,0.0,0.0,0.0,0.0,0.0,0.0,0.0,0.0,0.0579199999999988,0.0,0.0,0.0959999999999989
1.7000014305114757,0.17170509696006775,0.05188366025686264,0.19952495396137238,-0.036731814440592786,0.007177992562954729,0.05089421244511198,0.17170509696006775,0.05188366025686264,0.13669222620749802,-0.036731814440592786,0.007177992562954729,-0.04961068300679089,0.1372330150842478,-0.08894110094168539,0.017509303656021658,-0.08401034772396088,0.0027320126537233634,0.03372639790177345,0.0,-1.606821425846975,-0.38054466073205695,13.477424068934972,0.0,0.0,0.0,0.0,0.0,0.06283272775387436,0.0,0.0,0.10050489545190287,0.0,0.0,0.0,0.0,0.0,0.0,0.0,0.0,0.0628325839805589,0.0,0.0,0.1005047664642322
1.7500014305114757,0.16928410530090332,0.05182792246341705,0.19974128901958466,-0.050371110268690455,0.0007445645253179387,0.048441858075928865,0.16928410530090332,0.05182792246341705,0.13177057544020948,-0.050371110268690455,0.0007445645253179387,-0.056573010958943154,0.12475606944409146,-0.08760475147137292,0.01586935324101635,-0.1271352916955948,0.05315493047237397,0.03853042796254157,0.0,-1.4726506655562548,-0.3282190499295451,13.381072424921946,0.0,0.0,0.0,0.0,0.0,0.06797071357937516,0.0,0.0,0.10501486903487202,0.0,0.0,0.0,0.0,0.0,0.0,0.0,0.0,0.0679705633544907,0.0,0.0,0.1050147399902331
1.8000014305114758,0.16633690893650055,0.051209788769483566,0.19967713952064514,-0.07481005673218039,-0.012561661043553747,0.04728724764271806,0.16633690893650055,0.051209788769483566,0.1263429445882807,-0.07481005673218039,-0.012561661043553747,-0.06223641605293325,0.12339195551921911,-0.08549603721144283,0.018854140518558715,-0.1492244005203247,0.10065742582082748,0.024490909650921808,0.0,-1.6139545983069246,-0.341672333051815,14.115597806818528,0.0,0.0,0.0,0.0,0.0,0.07333419493236445,0.0,0.0,0.10952366369565131,0.0,0.0,0.0,0.0,0.0,0.0,0.0,0.0,0.0733340382575972,0.0,0.0,0.1095235347747788
1.8500014305114758,0.162297323346138,0.05027402564883232,0.20021864771842957,-0.09264760742593113,-0.019719411689917973,0.0636464044771348,0.162297323346138,0.05027402564883232,0.12129569163565625,-0.09264760742593113,-0.019719411689917973,-0.05037862648691395,0.11851875778240517,-0.07885412448576679,0.017326398501772644,-0.11358892917633057,0.029313480481505397,0.025883421301841732,0.0,-1.9104302531183128,-0.36644284361679225,15.607042926852799,0.0,0.0,0.0,0.0,0.0,0.07892295608277332,0.0,0.0,0.11402503096404874,0.0,0.0,0.0,0.0,0.0,0.0,0.0,0.0,0.0789227929687481,0.0,0.0,0.1140249023437485
1.9000014305114759,0.1572258025407791,0.04839788377285004,0.20438705384731293,-0.11021373420551557,-0.03975382786169866,0.1528263928738356,0.1572258025407791,0.04839788377285004,0.1196505815370621,-0.11021373420551557,-0.03975382786169866,0.03431353317486183,0.11480339038492371,-0.07665024995327885,0.014931326696713043,-0.03371104225516319,0.13234136998653412,0.00021343387197701502,0.0,-0.9049764345419424,-0.1767841927928126,12.100900245618853,0.0,0.0,0.0,0.0,0.0,0.08473647231025083,0.0,0.0,0.11851285969897377,0.0,0.0,0.0,0.0,0.0,0.0,0.0,0.0,0.0847363027763346,0.0,0.0,0.1185127315521224
1.950001430511476,0.15242412686347961,0.04588497802615166,0.20822373032569885,-0.11340933347244594,-0.048883075720207676,0.12485216435251882,0.15242412686347961,0.04588497802615166,0.11744981355507977,-0.11340933347244594,-0.048883075720207676,0.0018709882640813857,0.11036220511331152,-0.06619173306751946,0.017207258162233785,-0.045601341873407364,0.29892563819885254,0.022336103022098503,0.0,-0.5174902340064413,-0.06347331775863989,11.096165583660907,0.0,0.0,0.0,0.0,0.0,0.09077391677061908,0.0,0.0,0.12298117608843744,0.0,0.0,0.0,0.0,0.0,0.0,0.0,0.0,0.0907737408447242,0.0,0.0,0.1229810485839827
2.000001430511476,0.1482955366373062,0.04328867793083191,0.20748452842235565,-0.12325954190400333,-0.05412734173718352,0.003910373800606411,0.1482955366373062,0.04328867793083191,0.11045036106002748,-0.12325954190400333,-0.05412734173718352,-0.12351376984894596,0.10483174296019504,-0.05528248283428905,0.014517937716893137,-0.08993372321128845,0.33368146419525146,0.0053420094773172925,0.0,-1.0575195585822112,-0.12222794825276154,13.11509049341012,0.0,0.0,0.0,0.0,0.0,0.09703416736232817,0.0,0.0,0.12742414364955237,0.0,0.0,0.0,0.0,0.0,0.0,0.0,0.0,0.0970339850807164,0.0,0.0,0.1274240169525129
2.0500014305114758,0.14374274015426636,0.04057773947715759,0.20416373014450073,-0.13359451413492598,-0.060198308165362334,-0.028924966168223095,0.14374274015426636,0.04057773947715759,0.10064791655158928,-0.13359451413492598,-0.060198308165362334,-0.1607610293967558,0.10084100056090817,-0.03597066434041496,0.01569866097949557,-0.12183159589767456,0.20553702116012573,0.01983094029128549,0.0,-1.2938470013032344,-0.13365632335538802,14.352467698232008,0.0,0.0,0.0,0.0,0.0,0.10351581359291145,0.0,0.0,0.1318360632285327,0.0,0.0,0.0,0.0,0.0,0.0,0.0,0.0,0.1035156249999972,0.0,0.0,0.1318359374999982
2.1000014305114756,0.13818934559822083,0.037852779030799866,0.20121793448925018,-0.151222786698852,-0.06378624155308701,0.012326471800825101,0.13818934559822083,0.037852779030799866,0.09100077104380969,-0.151222786698852,-0.06378624155308701,-0.12388490119986909,0.10219938902679271,-0.029139283677372063,0.016233814864174967,-0.09696128219366074,0.0275640431791544,0.02266702055931091,0.0,-1.4426845591112878,-0.13826300070164216,15.265206656419538,0.0,0.0,0.0,0.0,0.0,0.1102171634454405,0.0,0.0,0.1362113730006942,0.0,0.0,0.0,0.0,0.0,0.0,0.0,0.0,0.1102169685935944,0.0,0.0,0.1362112483978252
2.1500014305114754,0.13226746022701263,0.03467802330851555,0.2020110934972763,-0.15406867528543344,-0.06270352880460858,0.0672501324482823,0.13226746022701263,0.03467802330851555,0.0848748432522961,-0.15406867528543344,-0.06270352880460858,-0.07329451602217187,0.08455115143312852,-0.035089978368029406,0.013038855302074381,-0.06038060411810875,-0.07463278621435165,0.024762777611613284,0.0,-1.094125258401164,-0.07449901593865962,14.232546959935297,0.0,0.0,0.0,0.0,0.0,0.1171362502449802,0.0,0.0,0.14054464847045417,0.0,0.0,0.0,0.0,0.0,0.0,0.0,0.0,0.1171360491943327,0.0,0.0,0.1405445251464824
2.2000014305114752,0.1269455999135971,0.032080043107271194,0.2043749839067459,-0.1422920658286374,-0.06794163507047629,0.1122651261971485,0.1269455999135971,0.032080043107271194,0.08010414438170202,-0.1422920658286374,-0.06794163507047629,-0.03256547627418295,0.0894742938162767,-0.03377068879554823,0.01585494333859394,-0.016059063374996185,0.003245380939915776,-0.004451800137758255,0.0,-0.8997306974780412,-0.045086274714334656,13.74032607099788,0.0,0.0,0.0,0.0,0.0,0.12427083952504389,0.0,0.0,0.14483060247133145,0.0,0.0,0.0,0.0,0.0,0.0,0.0,0.0,0.1242706323432888,0.0,0.0,0.1448304805755595
2.250001430511475,0.12280146777629852,0.02904212847352028,0.2076743245124817,-0.12850689006399418,-0.0728871845063815,0.11341553621933377,0.12280146777629852,0.02904212847352028,0.07605588861843338,-0.12850689006399418,-0.0728871845063815,-0.03564854894661283,0.08875370955486561,-0.024664440586779968,0.012996320939960171,-0.07393880188465118,0.17672544717788696,-0.002359423320740483,0.0,-0.8639833908657656,-0.01495192734599815,13.43714173107728,0.0,0.0,0.0,0.0,0.0,0.1316184358940483,0.0,0.0,0.1490640851659466,0.0,0.0,0.0,0.0,0.0,0.0,0.0,0.0,0.1316182226562463,0.0,0.0,0.1490639648437479
2.300001430511475,0.11929861456155777,0.02667609043419361,0.21060842275619507,-0.11757616387966908,-0.0611968189734979,0.09150307199434121,0.11929861456155777,0.02667609043419361,0.0714321328544262,-0.11757616387966908,-0.0611968189734979,-0.06173701205168011,0.08794510874114092,-0.017692984232403397,0.012155445717173308,-0.10729912668466568,0.1161406859755516,0.024909220635890947,0.0,-0.9364969576058056,0.003651708018633515,13.548537468945169,0.0,0.0,0.0,0.0,0.0,0.13917628990176886,0.0,0.0,0.15324008404602132,0.0,0.0,0.0,0.0,0.0,0.0,0.0,0.0,0.1391760706901511,0.0,0.0,0.1532399654388405
2.3500014305114747,0.11599382013082504,0.02447163313627243,0.2127334326505661,-0.11717802804749493,-0.061002387505781866,0.08204298723092693,0.11599382013082504,0.02447163313627243,0.06579202774477161,-0.11717802804749493,-0.061002387505781866,-0.07531073670145252,0.08341404844662037,-0.019232058784515615,0.015585607869535778,-0.05080118030309677,0.04580250382423401,-0.019902095198631294,0.0,-0.9691499608372052,-0.022468685379935793,13.497587371126263,0.0,0.0,0.0,0.0,0.0,0.1469414049057945,0.0,0.0,0.15735372393237945,0.0,0.0,0.0,0.0,0.0,0.0,0.0,0.0,0.146941179809566,0.0,0.0,0.1573536071777322
2.4000014305114745,0.11326286196708679,0.02246675454080105,0.21428294479846954,-0.1000986772271424,-0.05724217555460016,0.05938125491341772,0.11326286196708679,0.02246675454080105,0.05937240086048659,-0.1000986772271424,-0.05724217555460016,-0.10201901206152814,0.08598721431051226,-0.011932041716160136,0.013120059537701678,-0.03073897585272789,0.0538671538233757,0.02472498640418052,0.0,-0.8911418210896571,-0.0025989191829042524,13.359155107336282,0.0,0.0,0.0,0.0,0.0,0.15491054393798295,0.0,0.0,0.16140026697494586,0.0,0.0,0.0,0.0,0.0,0.0,0.0,0.0,0.1549103130531265,0.0,0.0,0.1614001522064186
2.4500014305114743,0.11102475970983505,0.020601140335202217,0.21463996171951294,-0.09764468326661858,-0.055055119387975554,0.046811087869448285,0.11102475970983505,0.020601140335202217,0.051559725148597246,-0.09764468326661858,-0.055055119387975554,-0.11856402478329917,0.08252551685805143,-0.012125222135938252,0.015449913716441444,0.014528070576488972,0.013811228796839712,-0.015644390136003494,0.0,-0.9962787852288479,-0.01562036182315496,13.645830544182893,0.0,0.0,0.0,0.0,0.0,0.1630802365709157,0.0,0.0,0.16537511265274746,0.0,0.0,0.0,0.0,0.0,0.0,0.0,0.0,0.1630799999999951,0.0,0.0,0.1653749999999977
2.500001430511474,0.10948365181684494,0.01846681721508503,0.2148398756980896,-0.07492997510020447,-0.05602527643458246,0.03443928344537094,0.10948365181684494,0.01846681721508503,0.0433930899137365,-0.07492997510020447,-0.05602527643458246,-0.13483451432854135,0.09698356552697085,-0.006278324175285288,0.019299565697219023,0.0687808021903038,0.03990036994218826,-0.000789815094321971,0.0,-1.073778652944676,-0.02915031181547323,14.046544090050123,0.0,0.0,0.0,0.0,0.0,0.1714467857843531,0.0,0.0,0.1692737977739123,0.0,0.0,0.0,0.0,0.0,0.0,0.0,0.0,0.1714465436363169,0.0,0.0,0.1692736873626685
2.550001430511474,0.10909814387559891,0.017128756269812584,0.21492309868335724,-0.0639352185210638,-0.05718259001031968,0.03930198771254679,0.10909814387559891,0.017128756269812584,0.03491682385166778,-0.0639352185210638,-0.05718259001031968,-0.1337900087631235,0.08504134573371624,-0.008234156798845316,0.011038698752487974,0.016825886443257332,0.05177890881896019,-0.008911869488656528,0.0,-1.1957783590020503,-0.028009324401121832,14.329295405501021,0.0,0.0,0.0,0.0,0.0,0.18000627483168946,0.0,0.0,0.17309199647567028,0.0,0.0,0.0,0.0,0.0,0.0,0.0,0.0,0.1800060272216743,0.0,0.0,0.173091888427732
2.600001430511474,0.10935378819704056,0.015971651300787926,0.215707927942276,-0.03567047719588575,-0.04495244546132192,0.061041045020918734,0.10935378819704056,0.015971651300787926,0.02695335383586786,-0.03567047719588575,-0.04495244546132192,-0.11578447520343396,0.08573499553295871,-0.004974331704735491,0.010198854494295695,0.0028730754274874926,0.02021312341094017,-0.014066892676055433,0.0,-1.2715939635739328,-0.027990139298204736,14.539699718950946,0.0,0.0,0.0,0.0,0.0,0.18875457410640814,0.0,0.0,0.1768255202243527,0.0,0.0,0.0,0.0,0.0,0.0,0.0,0.0,0.1887543211555424,0.0,0.0,0.1768254146575903
2.6500014305114736,0.11004021018743515,0.014833856374025345,0.21824891865253448,-0.027508011270447563,-0.04150663239714859,0.07471034601432522,0.11004021018743515,0.014833856374025345,0.020561570643997773,-0.027508011270447563,-0.04150663239714859,-0.10575997180106725,0.09461592501828564,-0.007245924019145367,0.015325403601039511,0.05128130316734314,-0.09961975365877151,-0.013456942513585078,0.0,-1.4265766361643601,-0.07492890848596201,14.645627707606327,0.0,0.0,0.0,0.0,0.0,0.1976873480085367,0.0,0.0,0.18047031781539247,0.0,0.0,0.0,0.0,0.0,0.0,0.0,0.0,0.197687089843744,0.0,0.0,0.1804702148437476
2.7000014305114735,0.11145725101232529,0.014142422005534172,0.22228111326694489,-0.014733202157688996,-0.03637691414608439,0.13342080651380842,0.11145725101232529,0.014142422005534172,0.015481051455843275,-0.014733202157688996,-0.03637691414608439,-0.05060166885951575,0.08721308285246288,-0.018320099452634686,0.01344396198456721,0.05273574963212013,-0.1550881266593933,0.019070025533437746,0.0,-1.4554921218068027,-0.08268204772728723,14.559213152430937,0.0,0.0,0.0,0.0,0.0,0.2068000618111016,0.0,0.0,0.18402247537332417,0.0,0.0,0.0,0.0,0.0,0.0,0.0,0.0,0.2067997985649046,0.0,0.0,0.184022375106809
2.7500014305114733,0.11282262206077576,0.013475537300109863,0.22833652794361115,-0.002199409569842548,-0.03536027425690105,0.15818197912705337,0.11282262206077576,0.013475537300109863,0.012248539417027221,-0.002199409569842548,-0.03536027425690105,-0.029296237224730376,0.0888548478693103,-0.023082101337984717,0.012296130807473382,0.01529111247509718,-0.23103177547454834,0.004053767770528822,0.0,-1.4880223142680158,-0.0988518043785193,14.163556158976801,0.0,0.0,0.0,0.0,0.0,0.21608798852658392,0.0,0.0,0.18747821635178374,0.0,0.0,0.0,0.0,0.0,0.0,0.0,0.0,0.2160877203369074,0.0,0.0,0.1874781188964819
2.800001430511473,0.11464963853359222,0.012933087535202503,0.23530958592891693,0.009598133479533661,-0.026415741022382273,0.17413924051453486,0.11464963853359222,0.012933087535202503,0.00976337015554321,0.009598133479533661,-0.026415741022382273,-0.016694661018974044,0.08870657891927936,-0.031150980542312467,0.013520586661774914,-0.004362776875495911,-0.19554142653942108,-0.03626453876495359,0.0,-1.5341552894699988,-0.10023161037389172,13.903342526815655,0.0,0.0,0.0,0.0,0.0,0.22554621577337372,0.0,0.0,0.1908339015335089,0.0,0.0,0.0,0.0,0.0,0.0,0.0,0.0,0.2255459427833487,0.0,0.0,0.1908338069915747
2.850001430511473,0.117756187915802,0.013315541669726372,0.24139508605003357,0.026927652644449386,-0.018678107212655264,0.1706902033079553,0.117756187915802,0.013315541669726372,0.0062254334078077345,0.026927652644449386,-0.018678107212655264,-0.023395825722383412,0.06787682924098393,-0.05759866893958021,0.0022105706993862384,-0.05937585607171059,-0.035167813301086426,-0.0058438284322619395,0.0,-1.5937666921673896,-0.12823481003764717,13.828557721461861,0.0,0.0,0.0,0.0,0.0,0.23516965264222583,0.0,0.0,0.19408602903033872,0.0,0.0,0.0,0.0,0.0,0.0,0.0,0.0,0.2351693749999927,0.0,0.0,0.1940859374999976
2.9000014305114727,0.12038812041282654,0.013493426144123077,0.24811482429504395,0.02282428397210724,-0.01790893463677277,0.16199788767070747,0.12038812041282654,0.013493426144123077,0.0031617877323295573,0.02282428397210724,-0.01790893463677277,-0.03523334661250663,0.06228780074826945,-0.06454760185271402,0.0035227981451200208,-0.037147391587495804,-0.10218171030282974,-0.005022709257900703,0.0,-1.5834420864750893,-0.13940947727779401,13.637877195903572,0.0,0.0,0.0,0.0,0.0,0.2449530365627144,0.0,0.0,0.1972312342832141,0.0,0.0,0.0,0.0,0.0,0.0,0.0,0.0,0.2449527544212265,0.0,0.0,0.1972311458587622
2.9500014305114726,0.12293524295091629,0.013895900920033455,0.25401073694229126,0.029374111623885358,-0.013355831978505428,0.14408992525835546,0.12293524295091629,0.013895900920033455,-0.0008802032273967919,0.029374111623885358,-0.013355831978505428,-0.056176364803821655,0.06548215606046304,-0.06531632581222091,0.0018477324905923354,-0.043071914464235306,-0.1032274141907692,-0.0025710277259349697,0.0,-1.6188534447975105,-0.1471684206195193,13.808967350818843,0.0,0.0,0.0,0.0,0.0,0.25489094016968805,0.0,0.0,0.2002662900621771,0.0,0.0,0.0,0.0,0.0,0.0,0.0,0.0,0.2548906536865155,0.0,0.0,0.200266204833982
3.0000014305114724,0.12498973309993744,0.01440980564802885,0.25905925035476685,0.02467608345829815,-0.007602480355536401,0.12248881647416827,0.12498973309993744,0.01440980564802885,-0.00591852781495833,0.02467608345829815,-0.007602480355536401,-0.08069928999220348,0.05755960534344018,-0.06700641995557888,0.0006517485155477232,-0.03759276494383812,-0.08449941873550415,-0.04019471630454063,0.0,-1.7448326774996477,-0.17637626602635728,14.166524382749433,0.0,0.0,0.0,0.0,0.0,0.2649777781697252,0.0,0.0,0.20318810646637175,0.0,0.0,0.0,0.0,0.0,0.0,0.0,0.0,0.2649774875068581,0.0,0.0,0.2031880245208718
3.050001430511472,0.12738987803459167,0.014892706647515297,0.263791561126709,0.028608106121700998,-0.004857998027659872,0.12513714350610122,0.12738987803459167,0.014892706647515297,-0.011416253080880123,0.028608106121700998,-0.004857998027659872,-0.08085658741794208,0.05757070777305895,-0.07673136123506286,0.000838513458482737,-0.019751079380512238,-0.11356263607740402,0.027586488053202643,0.0,-1.827657185948168,-0.20814838138825859,14.484685076428825,0.0,0.0,0.0,0.0,0.0,0.2752078142075891,0.0,0.0,0.2059937309240433,0.0,0.0,0.0,0.0,0.0,0.0,0.0,0.0,0.2752075195312414,0.0,0.0,0.2059936523437477
3.100001430511472,0.12854419648647308,0.015461264178156853,0.26887327432632446,0.013961701218260089,0.004079557533107808,0.14449915899482388,0.12854419648647308,0.015461264178156853,-0.01670189340635808,0.013961701218260089,0.004079557533107808,-0.06418118919771518,0.062349806135995056,-0.08427460983495028,0.006698127147117816,0.03965279459953308,-0.17549113929271698,0.037058312445879,0.0,-1.9211089333368057,-0.23005426858324685,14.712448604651279,0.0,0.0,0.0,0.0,0.0,0.28557516773268254,0.0,0.0,0.20868034819253906,0.0,0.0,0.0,0.0,0.0,0.0,0.0,0.0,0.2855748692130953,0.0,0.0,0.2086802730560281
3.150001430511472,0.1290694922208786,0.016118211671710014,0.2754156291484833,0.006645910553113576,0.005689637892399575,0.16233695786739308,0.1290694922208786,0.016118211671710014,-0.020658191717020324,0.006645910553113576,0.005689637892399575,-0.04890832249091412,0.06654716942649852,-0.08913871218013103,0.0044169640773450425,0.12677766382694244,-0.1985817402601242,0.0266075134277344,0.0,-1.913447225612882,-0.26628033061966133,14.755762118426551,0.0,0.0,0.0,0.0,0.0,0.2960738208655036,0.0,0.0,0.2112452803583072,0.0,0.0,0.0,0.0,0.0,0.0,0.0,0.0,0.2960735186767485,0.0,0.0,0.2112452087402321
3.2000014305114717,0.12884433567523956,0.016762860119342804,0.28301572799682617,-2.6843811867025156e-05,0.014862975042989307,0.19264006493807234,0.12884433567523956,0.016762860119342804,-0.023681897267273544,-2.6843811867025156e-05,0.014862975042989307,-0.021045921898825926,0.07348677848121499,-0.0974717309562334,0.007493595987797974,0.10985636711120605,-0.1348171979188919,-0.0026718634180724456,0.0,-1.90282853513488,-0.2750577763245593,14.640701751541775,0.0,0.0,0.0,0.0,0.0,0.3066976252640997,0.0,0.0,0.21368598683689827,0.0,0.0,0.0,0.0,0.0,0.0,0.0,0.0,0.3066973195838831,0.0,0.0,0.2136859188079811
3.2500014305114715,0.12790825963020325,0.017784735187888145,0.29135969281196594,-0.006377245846423211,0.021801361851672824,0.2005712446163379,0.12790825963020325,0.017784735187888145,-0.026080616178558003,-0.006377245846423211,0.021801361851672824,-0.015428819756625689,0.07064074915853258,-0.10019261624991405,0.007886464106832136,0.04352409765124321,-0.003754851873964068,0.028286177664995193,0.0,-1.9034333058281974,-0.31006256301056556,14.473110375419951,0.0,0.0,0.0,0.0,0.0,0.31744030899052395,0.0,0.0,0.2160000643729636,0.0,0.0,0.0,0.0,0.0,0.0,0.0,0.0,0.31743999999999,0.0,0.0,0.2159999999999979
3.3000014305114713,0.12613044679164886,0.01945524848997593,0.2997725307941437,-0.03461564628122024,0.0327036772204684,0.20511148786780217,0.12613044679164886,0.01945524848997593,-0.02852295258314541,-0.03461564628122024,0.0327036772204684,-0.013073759172454263,0.07637600229490804,-0.09913927525071031,0.008810809008931386,-0.005158937070518732,0.012624452821910385,0.02960103005170822,0.0,-1.786492017970147,-0.317333626822007,13.992551015455675,0.0,0.0,0.0,0.0,0.0,0.3282954833772891,0.0,0.0,0.21818524704025644,0.0,0.0,0.0,0.0,0.0,0.0,0.0,0.0,0.3282951712608235,0.0,0.0,0.2181851863861064
3.350001430511471,0.12353233993053436,0.020843973383307457,0.3077015280723572,-0.0441846874150375,0.030030520595531483,0.19219021618935295,0.12353233993053436,0.020843973383307457,-0.031555121821466414,-0.0441846874150375,0.030030520595531483,-0.028049190052278572,0.07393644833108048,-0.09512023199687913,0.006608849357343516,0.032034389674663544,0.15296167135238647,-0.016485262662172335,0.0,-1.634172815703183,-0.3455321283260594,13.810641726626496,0.0,0.0,0.0,0.0,0.0,0.3392566498938236,0.0,0.0,0.22023940624163152,0.0,0.0,0.0,0.0,0.0,0.0,0.0,0.0,0.3392563348388565,0.0,0.0,0.2202393493652325
3.400001430511471,0.12064507603645325,0.022434918209910393,0.31389760971069336,-0.06838255583223941,0.03625607932080463,0.1468479766800237,0.12064507603645325,0.022434918209910393,-0.03641959730223232,-0.06838255583223941,0.03625607932080463,-0.0753125740290217,0.07179641909251488,-0.08885247571376453,0.007928855191419615,-0.016882795840501785,0.14520516991615295,0.02105151303112505,0.0,-1.5744299022774548,-0.3352249944610922,13.837034384484424,0.0,0.0,0.0,0.0,0.0,0.3503172070129257,0.0,0.0,0.2221605507090454,0.0,0.0,0.0,0.0,0.0,0.0,0.0,0.0,0.3503168892097363,0.0,0.0,0.2221604976654033
3.450001430511471,0.11664623767137527,0.024058489128947258,0.31880462169647217,-0.07803351605321629,0.034616330429613804,0.1306181616632141,0.11664623767137527,0.024058489128947258,-0.042665835380746864,-0.07803351605321629,0.034616330429613804,-0.09332866484034202,0.08050921925363719,-0.07858823881550236,0.008900898010328895,-0.009087108075618744,0.11379661411046982,0.025529596954584108,0.0,-1.5756896139402963,-0.36876865740638054,14.306136364563985,0.0,0.0,0.0,0.0,0.0,0.36147045707721903,0.0,0.0,0.22394682650355613,0.0,0.0,0.0,0.0,0.0,0.0,0.0,0.0,0.3614701367187387,0.0,0.0,0.2239467773437483
3.5000014305114706,0.11156217753887177,0.025729062035679817,0.32208186388015747,-0.10279217931528134,0.034715085070130325,0.11330813890301522,0.11156217753887177,0.025729062035679817,-0.05062774928545055,-0.10279217931528134,0.034715085070130325,-0.11228837811230757,0.0774834336153365,-0.07341608312768866,0.01087581826651629,0.019591743126511574,0.07810840010643005,0.023889508098363866,0.0,-1.597868053054404,-0.37807360632277365,14.657877629437161,0.0,0.0,0.0,0.0,0.0,0.372709613165608,0.0,0.0,0.2255965170153228,0.0,0.0,0.0,0.0,0.0,0.0,0.0,0.0,0.3727092904472236,0.0,0.0,0.2255964717864974
3.5500014305114704,0.10668030381202698,0.026908742263913155,0.3255072832107544,-0.11356835248381958,0.03262825157520326,0.11608696328713505,0.10668030381202698,0.026908742263913155,-0.05852052274897812,-0.11356835248381958,0.03262825157520326,-0.11102107967647179,0.07279883139929488,-0.0730646845648284,0.009458791018463586,0.04576224833726883,0.06088446453213692,0.02409438416361808,0.0,-1.556738368936854,-0.3913536453812877,14.99138674077672,0.0,0.0,0.0,0.0,0.0,0.3840278059597325,0.0,0.0,0.22710804296360684,0.0,0.0,0.0,0.0,0.0,0.0,0.0,0.0,0.3840274810790895,0.0,0.0,0.2271080017089828
3.6000014305114703,0.09968602657318115,0.028473148122429848,0.3305198550224304,-0.1218947982974981,0.03329621974779526,0.13020129381093565,0.09968602657318115,0.028473148122429848,-0.06489823558799235,-0.1218947982974981,0.03329621974779526,-0.098278668585835,0.08383765557603473,-0.06947137847699736,0.01307268347277013,-0.011492726393043995,0.12144479155540466,-0.010653648525476471,0.0,-1.5601797474147217,-0.39824554815693947,15.222248165360362,0.0,0.0,0.0,0.0,0.0,0.39541809061042277,0.0,0.0,0.22847996239677065,0.0,0.0,0.0,0.0,0.0,0.0,0.0,0.0,0.3954177637672301,0.0,0.0,0.2284799251556383
3.65000143051147,0.0937608852982521,0.029917852953076363,0.33605486154556274,-0.11223786303034561,0.03497730515713521,0.14310140343454913,0.0937608852982521,0.029917852953076363,-0.07081859205859198,-0.11223786303034561,0.03497730515713521,-0.08660956725772911,0.07942915843738119,-0.0559404596151758,0.011378098076322729,-0.00758309755474329,0.18814367055892944,-0.009683218784630321,0.0,-1.533217114013345,-0.40997533515165174,15.29533748661092,0.0,0.0,0.0,0.0,0.0,0.4068734536041547,0.0,0.0,0.22971097069227825,0.0,0.0,0.0,0.0,0.0,0.0,0.0,0.0,0.4068731249999874,0.0,0.0,0.2297109374999986
3.70000143051147,0.08763355761766434,0.031068317592144012,0.3428896963596344,-0.1256025111120099,0.02697807083537745,0.18218347184347145,0.08763355761766434,0.031068317592144012,-0.07549712326987068,-0.1256025111120099,0.02697807083537745,-0.048616428713224275,0.08020289927649449,-0.0540255382464796,0.010909858527474725,0.06598087400197983,0.11657138168811798,0.013645995408296571,0.0,-1.5768004985081596,-0.4245563721538716,15.223737725708023,0.0,0.0,0.0,0.0,0.0,0.4183868196295051,0.0,0.0,0.23079990055669572,0.0,0.0,0.0,0.0,0.0,0.0,0.0,0.0,0.4183864894676078,0.0,0.0,0.2307998714447011
3.7500014305114697,0.08120868355035782,0.032084446400403976,0.35152509808540344,-0.13190140630337097,0.029136531134440175,0.20335624545736533,0.08120868355035782,0.032084446400403976,-0.07842596035820304,-0.13190140630337097,0.029136531134440175,-0.028389476568324995,0.08499704040037193,-0.04927857775830535,0.01237202912496116,0.0777273178100586,0.05137205868959427,0.007930384017527096,0.0,-1.4554590898326478,-0.39545877877543184,14.82533715242294,0.0,0.0,0.0,0.0,0.0,0.4299510584436065,0.0,0.0,0.23174572202569033,0.0,0.0,0.0,0.0,0.0,0.0,0.0,0.0,0.4299507269286979,0.0,0.0,0.2317456970214833
3.8000014305114695,0.07470326125621796,0.03311868757009506,0.3605477809906006,-0.12611650774214406,0.038351137834918475,0.2131342408145161,0.07470326125621796,0.03311868757009506,-0.08101121074800188,-0.12611650774214406,0.038351137834918475,-0.01941330164951449,0.08412373508887594,-0.04449618833950808,0.009983063734447128,-0.023460175842046738,0.04132100939750672,0.02884489111602306,0.0,-1.2836693276006326,-0.3837250961859334,14.324837253624514,0.0,0.0,0.0,0.0,0.0,0.44155899173860247,0.0,0.0,0.2325475424640306,0.0,0.0,0.0,0.0,0.0,0.0,0.0,0.0,0.4415586590766772,0.0,0.0,0.2325475215911857
3.8500014305114694,0.06779542565345764,0.034181538969278336,0.36958402395248413,-0.12942257026551043,0.03615701626751945,0.21424122859812397,0.06779542565345764,0.034181538969278336,-0.08361937605561842,-0.12942257026551043,0.03615701626751945,-0.018963377967463113,0.08328180410717678,-0.04309328587347938,0.011404561867030871,-0.040361110121011734,-0.034627515822649,-0.008206784725189206,0.0,-1.1774530092899813,-0.39749667835755764,14.084332965250013,0.0,0.0,0.0,0.0,0.0,0.45320340000810255,0.0,0.0,0.23320460656558709,0.0,0.0,0.0,0.0,0.0,0.0,0.0,0.0,0.4532030664062363,0.0,0.0,0.2332045898437493
3.900001430511469,0.061354946345090866,0.03467833250761032,0.3776189386844635,-0.12843519406407164,0.02446918518008485,0.18169834767580414,0.061354946345090866,0.03467833250761032,-0.08725809072917345,-0.12843519406407164,0.02446918518008485,-0.05201794867752815,0.08490538760885347,-0.04363693818521952,0.013529617509692393,0.01270877942442894,0.018535640090703964,-0.0007048256229609274,0.0,-1.1664356256525892,-0.39698188206636537,14.29992998637016,0.0,0.0,0.0,0.0,0.0,0.46487702941363696,0.0,0.0,0.2337162963533323,0.0,0.0,0.0,0.0,0.0,0.0,0.0,0.0,0.4648766950797894,0.0,0.0,0.2337162837982173
3.950001430511469,0.055125996470451355,0.035262614488601685,0.3846829831600189,-0.1261025101859409,0.025376192139349486,0.17164112428482048,0.055125996470451355,0.035262614488601685,-0.09188961549109376,-0.1261025101859409,0.025376192139349486,-0.06244100689451845,0.0885759059659823,-0.04399459210245338,0.011307825174382558,-0.025040483102202415,-0.014001479372382164,0.002666593529284002,0.0,-1.2083055135030196,-0.3686199090860548,14.682152605676192,0.0,0.0,0.0,0.0,0.0,0.4765725986511127,0.0,0.0,0.23408213117933893,0.0,0.0,0.0,0.0,0.0,0.0,0.0,0.0,0.4765722637939311,0.0,0.0,0.234082122802734
4.000001430511469,0.04932635277509689,0.035854652523994446,0.391279011964798,-0.11860343065295038,0.02440099066469235,0.1533855875199071,0.04932635277509689,0.035854652523994446,-0.09700379385246949,-0.11860343065295038,0.02440099066469235,-0.08091618020487568,0.07927595407785049,-0.04267154075027202,0.012837193989014395,-0.03262470290064812,0.09006407856941223,0.02151764929294585,0.0,-1.2343112269595984,-0.37917092040931677,14.939374982461185,0.0,0.0,0.0,0.0,0.0,0.48828280581726746,0.0,0.0,0.23430176772478278,0.0,0.0,0.0,0.0,0.0,0.0,0.0,0.0,0.4882824706458902,0.0,0.0,0.2343017635345457
4.050001430511469,0.043977465480566025,0.036223772913217545,0.397836834192276,-0.11841973261016464,0.017908146123661286,0.1593129509078992,0.043977465480566025,0.036223772913217545,-0.10216350108384975,-0.11841973261016464,0.017908146123661286,-0.07506204909204092,0.08243664111102378,-0.03653087979203917,0.01203735084315749,-0.016086287796497345,0.07636108249425888,-0.03428818285465241,0.0,-1.3815560773470463,-0.4011268798445309,15.450798124895712,0.0,0.0,0.0,0.0,0.0,0.5000003352761258,0.0,0.0,0.23437499999994013,0.0,0.0,0.0,0.0,0.0,0.0,0.0,0.0,0.4999999999999852,0.0,0.0,0.234375
4.100001430511469,0.03902571648359299,0.0366685576736927,0.40545371174812317,-0.10416422567090905,0.022894503933822977,0.18890348225839082,0.03902571648359299,0.0366685576736927,-0.10626415277732915,-0.10416422567090905,0.022894503933822977,-0.04539827708579855,0.08635582198701863,-0.03219175957125264,0.009692800177354854,-0.04805475100874901,0.06554257124662399,-0.006701751146465548,0.0,-1.405536146282901,-0.38956520797480115,15.580866417607398,0.0,0.0,0.0,0.0,0.0,0.5117178645254523,0.0,0.0,0.23430175934418937,0.0,0.0,0.0,0.0,0.0,0.0,0.0,0.0,0.5117175293540807,0.0,0.0,0.234301763534546
4.150001430511469,0.03405454754829407,0.03729749098420143,0.41468358039855957,-0.10675816423360848,0.024803331061397225,0.21185107270745965,0.03405454754829407,0.03729749098420143,-0.10874449066465042,-0.10675816423360848,0.024803331061397225,-0.02223104171855031,0.07263312681424994,-0.0342418658538266,0.00887767639984638,-0.009273395873606205,-0.05532627925276756,-0.02620733901858329,0.0,-1.4363280979105892,-0.40777451946569154,15.372614284104104,0.0,0.0,0.0,0.0,0.0,0.52342807106321,0.0,0.0,0.23408211442600996,0.0,0.0,0.0,0.0,0.0,0.0,0.0,0.0,0.5234277362060393,0.0,0.0,0.2340821228027347
4.200001430511469,0.029083186760544777,0.03755800798535347,0.425082802772522,-0.09463440380534402,0.02643123131937779,0.2420116321605045,0.029083186760544777,0.03755800798535347,-0.11004083648148999,-0.09463440380534402,0.02643123131937779,0.008295360917520728,0.08095244930952505,-0.03800986313225696,0.010209074307183208,0.00919326115399599,-0.07081077992916107,0.02126306481659413,0.0,-1.392514968688284,-0.41240087100184175,15.068736748330638,0.0,0.0,0.0,0.0,0.0,0.535123639254012,0.0,0.0,0.23371627124298378,0.0,0.0,0.0,0.0,0.0,0.0,0.0,0.0,0.535123304920181,0.0,0.0,0.2337162837982183
4.250001430511468,0.02451067604124546,0.03786430135369301,0.43627262115478516,-0.088900129290184,0.021345405206454737,0.24649666395916836,0.02451067604124546,0.03786430135369301,-0.11052464604079326,-0.088900129290184,0.021345405206454737,0.013292090837374648,0.08158040405735667,-0.03691591295300878,0.01191172574758248,0.03617402911186218,-0.054571185261011124,0.0019477889873087473,0.0,-1.2954234721416913,-0.39900712201564503,14.52263109011475,0.0,0.0,0.0,0.0,0.0,0.5467972671955784,0.0,0.0,0.2332045731217937,0.0,0.0,0.0,0.0,0.0,0.0,0.0,0.0,0.5467969335937344,0.0,0.0,0.2332045898437509
4.300001430511468,0.0202439334243536,0.03849707171320915,0.44724759459495544,-0.08541421132793466,0.027682899418458952,0.23467109707665643,0.0202439334243536,0.03849707171320915,-0.11119407899023548,-0.08541421132793466,0.027682899418458952,0.0021235963584324835,0.08204020745017315,-0.04169405336138521,0.012133205679669246,0.04540379345417023,-0.08470947295427322,0.0016862100455910072,0.0,-1.193279525725581,-0.3642665212552235,14.23575429874305,0.0,0.0,0.0,0.0,0.0,0.5584416735851909,0.0,0.0,0.23254750071822394,0.0,0.0,0.0,0.0,0.0,0.0,0.0,0.0,0.5584413409232933,0.0,0.0,0.2325475215911875
4.350001430511468,0.016208086162805557,0.03899363428354263,0.4573359191417694,-0.07799857711444103,0.028388109233371917,0.2197528113205091,0.016208086162805557,0.03899363428354263,-0.11271368544437876,-0.07799857711444103,0.028388109233371917,-0.01199286069665173,0.10107068449848366,-0.04051886845703123,0.015983355904575447,0.07441356778144836,0.03103931806981563,-0.04702671617269517,0.0,-1.209656735061524,-0.38678634167092435,14.418741937876316,0.0,0.0,0.0,0.0,0.0,0.5700496045861482,0.0,0.0,0.23174567201716084,0.0,0.0,0.0,0.0,0.0,0.0,0.0,0.0,0.570049273071273,0.0,0.0,0.2317456970214855
4.400001430511468,0.013155775144696236,0.03986946865916252,0.46592289209365845,-0.05924006032802408,0.027858757420171906,0.1918448310705523,0.013155775144696236,0.03986946865916252,-0.11569094860056273,-0.05924006032802408,0.027858757420171906,-0.038955011262039124,0.10575213742080791,-0.036780976445938585,0.016468592398465987,0.018902171403169632,0.08792595565319061,-0.030150512233376513,0.0,-1.3422035521716524,-0.4106140800163425,14.936618796538404,0.0,0.0,0.0,0.0,0.0,0.5816138406942212,0.0,0.0,0.23079984233259143,0.0,0.0,0.0,0.0,0.0,0.0,0.0,0.0,0.5816135105323627,0.0,0.0,0.2307998714447034
4.450001430511468,0.010379999876022339,0.04091506451368332,0.4744623899459839,-0.061335150031696706,0.032811386519206925,0.19702713415675177,0.010379999876022339,0.04091506451368332,-0.11866481365812276,-0.061335150031696706,0.032811386519206925,-0.03268377015085383,0.08360969626273906,-0.040079464667903686,0.009905628922393106,0.029753362759947777,0.018259491771459576,-0.02745386771857739,0.0,-1.403089847020943,-0.41022164007493045,15.048980915705497,0.0,0.0,0.0,0.0,0.0,0.5931272036041066,0.0,0.0,0.2297109043076056,0.0,0.0,0.0,0.0,0.0,0.0,0.0,0.0,0.5931268749999838,0.0,0.0,0.2297109375000015
4.5000014305114675,0.007752072531729937,0.041780102998018265,0.48352038860321045,-0.04721304276503486,0.033138623590943314,0.20560594484293887,0.007752072531729937,0.041780102998018265,-0.12106217447267342,-0.04721304276503486,0.033138623590943314,-0.02287394307145474,0.0842116945548339,-0.03754907558046794,0.010146555992861295,-0.03520374000072479,0.014214855618774893,0.018660949543118473,0.0,-1.4556074392174894,-0.4423464529521641,15.285263087712002,0.0,0.0,0.0,0.0,0.0,0.6045825630758839,0.0,0.0,0.2284798879143936,0.0,0.0,0.0,0.0,0.0,0.0,0.0,0.0,0.6045822362327409,0.0,0.0,0.2284799251556414
4.550001430511467,0.004841614980250597,0.0428147129714489,0.4935140013694763,-0.05626711896899339,0.032133633189710034,0.21408679238122683,0.004841614980250597,0.0428147129714489,-0.12245884243199345,-0.05626711896899339,0.032133633189710034,-0.013021168073020922,0.08862078167514609,-0.04318354665105684,0.010231245150245982,-0.0031509927939623594,-0.0722271278500557,-0.00044181151315568994,0.0,-1.5277105253729333,-0.4530800781127035,15.32971856539334,0.0,0.0,0.0,0.0,0.0,0.6159728438014698,0.0,0.0,0.22710796045424775,0.0,0.0,0.0,0.0,0.0,0.0,0.0,0.0,0.6159725189208816,0.0,0.0,0.2271080017089864
4.600001430511467,0.0020983885042369366,0.04354480281472206,0.5043831467628479,-0.04612982620859822,0.028716158712467264,0.24464329569617982,0.0020983885042369366,0.04354480281472206,-0.12290788550822462,-0.04612982620859822,0.028716158712467264,0.01904686913861775,0.08897513622257636,-0.042236678005094674,0.00976163265534602,0.016926029697060585,-0.0905580222606659,-0.013602586463093747,0.0,-1.5146658133102493,-0.45762493417430783,15.317340053087603,0.0,0.0,0.0,0.0,0.0,0.6272910322710725,0.0,0.0,0.22559642655756207,0.0,0.0,0.0,0.0,0.0,0.0,0.0,0.0,0.627290709552748,0.0,0.0,0.2255964717865014
4.650001430511467,-0.0004388463858049363,0.044201456010341644,0.5160742998123169,-0.03113210076834822,0.03221758521241299,0.2549328393184802,-0.0004388463858049363,0.044201456010341644,-0.12245588382733108,-0.03113210076834822,0.03221758521241299,0.030986111134647998,0.08692838429553529,-0.04737413361765297,0.012811728646472176,0.0006170750129967928,-0.0760921835899353,0.015729067847132693,0.0,-1.6126355722100465,-0.4640210141350027,15.252601609418265,0.0,0.0,0.0,0.0,0.0,0.638530183639648,0.0,0.0,0.2239467281838322,0.0,0.0,0.0,0.0,0.0,0.0,0.0,0.0,0.6385298632812328,0.0,0.0,0.2239467773437529
4.700001430511467,-0.003100003581494093,0.04471709951758385,0.5288210511207581,-0.03921453114043151,0.017331861875996044,0.27744372913931814,-0.003100003581494093,0.04471709951758385,-0.1208623774725961,-0.03921453114043151,0.017331861875996044,0.055283284517663234,0.08959221562038122,-0.054109704594068386,0.010102191041925224,0.036358870565891266,-0.09158400446176529,-0.013978705741465081,0.0,-1.5924076852678117,-0.46553069605216124,14.89011236896481,0.0,0.0,0.0,0.0,0.0,0.6496834285933542,0.0,0.0,0.2221604446216549,0.0,0.0,0.0,0.0,0.0,0.0,0.0,0.0,0.6496831107902354,0.0,0.0,0.2221604976654082
4.750001430511467,-0.005144864786416292,0.04508941248059273,0.5399564504623413,-0.02718643614878938,0.022749160615361228,0.2789957397994315,-0.005144864786416292,0.04508941248059273,-0.12078752975366547,-0.02718643614878938,0.022749160615361228,0.05875644731070301,0.08792133524417878,-0.05606745906345845,0.009425426283568683,-0.006858746521174908,-0.035049308091402054,0.013757389038801197,0.0,-1.4742207342906566,-0.40676056553376705,14.55933748101157,0.0,0.0,0.0,0.0,0.0,0.6607439802160068,0.0,0.0,0.22023929248872848,0.0,0.0,0.0,0.0,0.0,0.0,0.0,0.0,0.6607436651611158,0.0,0.0,0.2202393493652374
4.800001430511466,-0.007611114531755447,0.04558999091386795,0.5542224049568176,-0.023974290629474714,0.020877053669144576,0.26538232576900683,-0.007611114531755447,0.04558999091386795,-0.1174827358987165,-0.023974290629474714,0.020877053669144576,0.047197200037153386,0.09099202792289152,-0.051861414506930714,0.010633290013108976,-0.008875413797795773,0.021173300221562382,-0.017052993178367618,0.0,-1.5532221848516954,-0.4333941817210781,14.801501978241568,0.0,0.0,0.0,0.0,0.0,0.6717051408555341,0.0,0.0,0.21818512573185345,0.0,0.0,0.0,0.0,0.0,0.0,0.0,0.0,0.6717048287391487,0.0,0.0,0.2181851863861117
4.850001430511466,-0.009696384891867638,0.045895520597696304,0.5664370059967041,-0.02517835836625971,0.019693298650723886,0.2589686232898016,-0.009696384891867638,0.045895520597696304,-0.11612330299372675,-0.02517835836625971,0.019693298650723886,0.04296868766287032,0.08386499685259619,-0.055447048928160214,0.011046755085930116,-0.05665738135576248,0.0010453828144818555,0.008478338830173016,0.0,-1.601636745191979,-0.43489924866142543,15.013618920186552,0.0,0.0,0.0,0.0,0.0,0.6825603089904309,0.0,0.0,0.21599993562693126,0.0,0.0,0.0,0.0,0.0,0.0,0.0,0.0,0.6825599999999824,0.0,0.0,0.2160000000000038
4.900001430511466,-0.012336142361164093,0.04608096554875374,0.578873336315155,-0.030463211156429224,0.012152923489890733,0.26756149058717815,-0.012336142361164093,0.04608096554875374,-0.11442964978106018,-0.030463211156429224,0.012152923489890733,0.05387563980821297,0.08243149776796166,-0.054085312402021746,0.010115264528416823,-0.01671789400279522,-0.07136442512273788,0.02011490799486638,0.0,-1.507025810421873,-0.41427431985900826,14.754173543374518,0.0,0.0,0.0,0.0,0.0,0.6933029860962152,0.0,0.0,0.21368585077896518,0.0,0.0,0.0,0.0,0.0,0.0,0.0,0.0,0.6933026804160896,0.0,0.0,0.213685918807987
4.950001430511466,-0.015271895565092564,0.04572207108139992,0.5913795232772827,-0.03297286110169105,0.008157703604409074,0.26477560095693686,-0.015271895565092564,0.04572207108139992,-0.11254726023460182,-0.03297286110169105,0.008157703604409074,0.05353046383487681,0.08384028985825953,-0.06002728422303516,0.013370858201711577,0.010079646483063698,-0.07938628643751144,0.02564372494816781,0.0,-1.4641384581611092,-0.3883435667325215,14.688187145205575,0.0,0.0,0.0,0.0,0.0,0.7039267835118845,0.0,0.0,0.21124513712206006,0.0,0.0,0.0,0.0,0.0,0.0,0.0,0.0,0.7039264813232243,0.0,0.0,0.2112452087402385
5.000001430511466,-0.01746324449777603,0.045065008103847504,0.6017389893531799,-0.029584393594398857,0.003024055047602714,0.2540057695689453,-0.01746324449777603,0.045065008103847504,-0.11268643995318528,-0.029584393594398857,0.003024055047602714,0.045325571649523166,0.08847742091384259,-0.05781402094270893,0.012446924245169022,0.0073608458042144775,0.04993080347776413,0.015959402546286576,0.0,-1.539191660110775,-0.39081579359803265,14.937099499828799,0.0,0.0,0.0,0.0,0.0,0.7144254293063652,0.0,0.0,0.20868019791942216,0.0,0.0,0.0,0.0,0.0,0.0,0.0,0.0,0.7144251307868786,0.0,0.0,0.2086802730560347
