time,pos_x,pos_y,pos_z,vel_x,vel_y,vel_z,pos_xo,pos_yo,pos_zo,vel_xo,vel_yo,vel_zo,roll,pitch,yaw,roll_vel,pitch_vel,yaw_vel,thrust_z,force_x,force_y,force_z,torque_x,torque_y,torque_z,pos_xd,pos_yd,pos_zd,vel_xd,vel_yd,vel_zd,roll_d,pitch_d,yaw_d,roll_vel_d,pitch_vel_d,yaw_vel_d,pos_xr,pos_yr,pos_zr,vel_xr,vel_yr,vel_zr
0.05000214576721192,0.005355829373002052,-0.0428377203643322,0.18236450850963593,0.0,0.0,0.0,0.005355829373002052,-0.0428377203643322,0.18236450850963593,0.0,0.0,-2.6978405026041245e-13,0.03406386839985931,-0.002345200544644044,0.019277274328487692,-0.00028294557705521584,0.00047672702930867607,-0.005458754487335682,0.0,1.0128303421371242e-13,-4.267096773863893e-15,12.94919999999919,0.0,0.0,0.0,0.0,0.0,1.9296461566063264e-19,0.0,0.0,2.6978405026041245e-13,0.0,0.0,0.0,0.0,0.0,0.0,0.0,0.0,0.0,0.0,0.0,0.0
0.10000214576721192,0.0053309062495827675,-0.042837757617235184,0.18240173161029816,-0.012822593076601232,-0.00409871872058483,0.003263475609085906,0.0053309062495827675,-0.042837757617235184,0.18239931272459342,-0.012822593076601232,-0.00409871872058483,0.003118804228371792,0.03400062046465724,-0.003971919617762332,0.02044986123796022,0.006157850846648216,-0.0009614724549464916,-0.028729896992444992,0.0,-1.6198535788838926,-0.24687139305254668,16.914479878120492,0.0,0.0,0.0,0.0,0.0,2.418885704732761e-06,0.0,0.0,0.00014467138071411372,0.0,0.0,0.0,0.0,0.0,0.0,0.0,0.0,2.418575286865234e-06,0.0,0.0,0.0001446590423583
0.15000214576721194,0.005190188530832529,-0.04280674457550049,0.18405747413635254,-0.01569281591537261,-0.007850286452252678,0.058954862200049786,0.005190188530832529,-0.04280674457550049,0.18403830604015958,-0.01569281591537261,-0.007850286452252678,0.058383457373962167,0.03573829843904752,-0.008727837235716684,0.019735394840994402,0.19399404525756836,-0.16637463867664337,0.00047181383706631315,0.0,-1.7677234519485934,-0.2808700959849761,17.361320267577508,0.0,0.0,0.0,0.0,0.0,1.9168096192952533e-05,0.0,0.0,0.0005714048260876203,0.0,0.0,0.0,0.0,0.0,0.0,0.0,0.0,1.9166870117187512e-05,0.0,0.0,0.0005713806152343
0.20000214576721193,0.005391336977481842,-0.04302150383591652,0.19344541430473328,0.001108169637121279,-0.009589958477558511,0.20504067125776337,0.005391336977481842,-0.04302150383591652,0.19338133365044122,0.001108169637121279,-0.009589958477558511,0.2037712512499522,0.046470318186911275,-0.016745208001610834,0.019626687485442496,0.1750120222568512,-0.1726028174161911,0.057666175067424795,0.0,-0.7704890692957175,-0.021310149004292775,14.193741905501785,0.0,0.0,0.0,0.0,0.0,6.408065429205028e-05,0.0,0.0,0.0012694200078111734,0.0,0.0,0.0,0.0,0.0,0.0,0.0,0.0,6.407793045043952e-05,0.0,0.0,0.0012693843841552
0.2500021457672119,0.0072051649913191795,-0.042343057692050934,0.21042658388614655,0.043330959236478,0.009187568168670252,0.3574484458058404,0.0072051649913191795,-0.042343057692050934,0.21027612988651856,0.043330959236478,0.009187568168670252,0.35522037187943317,0.05538469323679962,-0.02164392218224709,0.023474606651228136,0.09020405262708664,0.13398264348506927,-0.01719427667558195,0.0,0.25569962418917147,0.24790845650242233,10.5157867075788,0.0,0.0,0.0,0.0,0.0,0.00015045399962799916,0.0,0.0,0.002228073926407204,0.0,0.0,0.0,0.0,0.0,0.0,0.0,0.0,0.00015044921875,0.0,0.0,0.00222802734375
0.3000021457672119,0.011983701959252357,-0.04026070237159729,0.2261604368686676,0.10074424763867947,0.037199581978785104,0.219028608260938,0.011983701959252357,-0.04026070237159729,0.22586938001358717,0.10074424763867947,0.037199581978785104,0.2155917473494383,0.049844313580097666,-0.006741636730882128,0.018204581137451825,-0.0936039611697197,0.4241345524787903,-0.028002636507153563,0.0,0.5559724024788641,0.2894248849104446,8.624051789772414,0.0,0.0,0.0,0.0,0.0,0.0002910568550804332,0.0,0.0,0.0034368609114997077,0.0,0.0,0.0,0.0,0.0,0.0,0.0,0.0,0.0002910494804382,0.0,0.0,0.003436803817749
0.3500021457672119,0.01930670067667961,-0.037357695400714874,0.23378214240074158,0.12575880292644723,0.046901198091127964,0.07486924301376578,0.01930670067667961,-0.037357695400714874,0.23328400630750384,0.12575880292644723,0.046901198091127964,0.06998383039195154,0.044597060445239034,0.01634748798038732,0.01751911344363144,-0.2030777931213379,0.5678793787956238,0.0033694272860883973,0.0,0.03700552883307362,0.13477589914043098,9.626152849100132,0.0,0.0,0.0,0.0,0.0,0.000498136093237725,0.0,0.0,0.00488541262181424,0.0,0.0,0.0,0.0,0.0,0.0,0.0,0.0,0.0004981256103515,0.0,0.0,0.0048853454589843
0.4000021457672119,0.027482667937874794,-0.033965762704610825,0.23195801675319672,0.12945954241849988,0.04682109603094581,-0.11437134010715627,0.027482667937874794,-0.033965762704610825,0.23117459315034466,0.12945954241849988,0.04682109603094581,-0.12093483815233419,0.030769719377157667,0.039705107451185384,0.01679461016081074,-0.14859145879745483,0.2841743230819702,-0.0072026806883514274,0.0,-0.7049162462113573,-0.05109938503906758,11.84380101135551,0.0,0.0,0.0,0.0,0.0,0.0007834236028520644,0.0,0.0,0.006563498045177922,0.0,0.0,0.0,0.0,0.0,0.0,0.0,0.0,0.0007834095191955,0.0,0.0,0.0065634212493896
0.45000214576721187,0.03446001186966896,-0.031199844554066658,0.224262997508049,0.13063411010510784,0.04898800323992428,-0.16293663139686254,0.03446001186966896,-0.031199844554066658,0.22310485435275448,0.13063411010510784,0.04898800323992428,-0.17139765489538197,0.03542801903602433,0.0407626803335166,0.015386228837149574,-0.029832761734724045,-0.10394077003002167,-0.011986033990979182,0.0,-1.155005827415711,-0.14848955692688998,13.645312566758811,0.0,0.0,0.0,0.0,0.0,0.0011581431552945356,0.0,0.0,0.008461023498519434,0.0,0.0,0.0,0.0,0.0,0.0,0.0,0.0,0.001158125,0.0,0.0,0.0084609375
0.5000021457672119,0.04130414500832558,-0.02861594781279564,0.2151566743850708,0.13828716536552577,0.051448187079070284,-0.16548090778365362,0.04130414500832558,-0.02861594781279564,0.2135236571140606,0.13828716536552577,0.051448187079070284,-0.17604894041152264,0.0302078297417272,0.02658057822450699,0.018317698430191598,0.09595692157745361,-0.4460131525993347,0.011383667588234002,0.0,-1.245922374832722,-0.1753900565881769,13.91059406143036,0.0,0.0,0.0,0.0,0.0,0.0016330172710101968,0.0,0.0,0.010568032627869022,0.0,0.0,0.0,0.0,0.0,0.0,0.0,0.0,0.0016329945945739,0.0,0.0,0.0105679378509521
0.550002145767212,0.048753250390291214,-0.026115313172340393,0.20735061168670654,0.1701803066747697,0.053251034359761085,-0.12338074965561194,0.048753250390291214,-0.026115313172340393,0.20513233760073338,0.1701803066747697,0.053251034359761085,-0.13625545606397044,0.0445671755339303,0.0022357254775453583,0.019840084544382464,0.12809371948242188,-0.4482801854610443,0.038866512477397974,0.0,-1.296771115312632,-0.19274083220318927,13.9239683360326,0.0,0.0,0.0,0.0,0.0,0.0022182740859731575,0.0,0.0,0.012874706408358494,0.0,0.0,0.0,0.0,0.0,0.0,0.0,0.0,0.0022182464599609,0.0,0.0,0.0128746032714843
0.600002145767212,0.05783328413963318,-0.022847367450594902,0.20158512890338898,0.20396680314279042,0.05645263214796692,-0.08206292110742947,0.05783328413963318,-0.022847367450594902,0.1986614746852473,0.20396680314279042,0.05645263214796692,-0.09743428425165068,0.047916903725048865,-0.021646581280081456,0.020037407112614147,0.16554509103298187,-0.4389667809009552,-0.05163892731070513,0.0,-1.2370297446314935,-0.16318262820782664,13.204161304222946,0.0,0.0,0.0,0.0,0.0,0.0029236542181416557,0.0,0.0,0.015371363144221217,0.0,0.0,0.0,0.0,0.0,0.0,0.0,0.0,0.0029236212348938,0.0,0.0,0.0153712520599365
0.650002145767212,0.06869857758283615,-0.019933432340621948,0.19696864485740662,0.22354759853887582,0.056304745011817516,-0.08246418002579939,0.06869857758283615,-0.019933432340621948,0.19321022722349349,0.22354759853887582,0.056304745011817516,-0.10051263849459152,0.06377817192796043,-0.03706068249670613,0.022440264490963813,0.16553784906864166,-0.2370074987411499,0.006970101501792698,0.0,-1.3362075977738241,-0.17720965222370832,12.87156550806559,0.0,0.0,0.0,0.0,0.0,0.003758417633913139,0.0,0.0,0.018048458468792127,0.0,0.0,0.0,0.0,0.0,0.0,0.0,0.0,0.00375837890625,0.0,0.0,0.01804833984375
0.7000021457672121,0.08068757504224777,-0.01613965816795826,0.193115696310997,0.23950488443100165,0.07336342115672248,-0.07673951847090574,0.08068757504224777,-0.01613965816795826,0.18838434579641766,0.23950488443100165,0.07336342115672248,-0.09763610381541345,0.07366496387897481,-0.04408899156485813,0.02545025568461412,0.02492082677781582,-0.18509343266487122,0.011164440773427509,0.0,-1.4702812731292565,-0.19340731424906776,12.797040379825606,0.0,0.0,0.0,0.0,0.0,0.004731350514579337,0.0,0.0,0.020896585344507713,0.0,0.0,0.0,0.0,0.0,0.0,0.0,0.0,0.0047313056755066,0.0,0.0,0.0208964595794678
0.7500021457672121,0.09320992976427078,-0.011645135469734669,0.18927408754825592,0.25652209603602993,0.08141584902595947,-0.07976700456931163,0.09320992976427078,-0.011645135469734669,0.18342331542547458,0.25652209603602993,0.08141584902595947,-0.10367347863221765,0.07057234862598305,-0.05184910077574001,0.024174698798374195,-0.43850409984588623,0.29677820205688477,-0.06394571810960774,0.0,-1.5397481019337977,-0.25206472459321116,12.613744211844143,0.0,0.0,0.0,0.0,0.0,0.005850772122781346,0.0,0.0,0.02390647406290603,0.0,0.0,0.0,0.0,0.0,0.0,0.0,0.0,0.0058507208251953,0.0,0.0,0.0239063415527344
0.8000021457672122,0.10765627026557922,-0.005312454421073198,0.18683435022830963,0.25075649272534983,0.09397758743299299,-0.03580205944683629,0.10765627026557922,-0.005312454421073198,0.17970980855934493,0.25075649272534983,0.09397758743299299,-0.062871051691463,0.050288835561715484,-0.040523764243435956,0.014585101276407997,-0.21535901725292206,0.19299502670764923,-0.050578322261571905,0.0,-1.7249518471221315,-0.314241613115708,12.910823061405521,0.0,0.0,0.0,0.0,0.0,0.007124541668964702,0.0,0.0,0.02706899224462671,0.0,0.0,0.0,0.0,0.0,0.0,0.0,0.0,0.0071244835853576,0.0,0.0,0.0270688533782959
0.8500021457672122,0.11997783929109573,-0.0003680901718325913,0.1855253130197525,0.24605591965160653,0.09045305154624994,-0.021090435621784868,0.11997783929109573,-0.0003680901718325913,0.17696524784191803,0.24605591965160653,0.09045305154624994,-0.051465580461195794,0.04775938201276597,-0.03403577058222762,0.011434719640594615,-0.05566133186221123,0.0068488386459648505,-0.08325520902872086,0.0,-1.8021286441770554,-0.3897984479783624,12.957439519466968,0.0,0.0,0.0,0.0,0.0,0.008560065177834466,0.0,0.0,0.030375144839410926,0.0,0.0,0.0,0.0,0.0,0.0,0.0,0.0,0.00856,0.0,0.0,0.030375
0.9000021457672123,0.13187402486801147,0.004119470249861479,0.1859803944826126,0.2312529818120003,0.08628409803550917,0.029859890290585608,0.13187402486801147,0.004119470249861479,0.17581609212780233,0.2312529818120003,0.08628409803550917,-0.003956183835515808,0.05234027612693959,-0.03229032777863061,0.013952336415668398,0.10789399594068527,-0.11121519654989243,-0.031379438936710344,0.0,-1.8520962595938673,-0.40191790816978357,12.964816905177507,0.0,0.0,0.0,0.0,0.0,0.01016430235481029,0.0,0.0,0.033816074126101416,0.0,0.0,0.0,0.0,0.0,0.0,0.0,0.0,0.0101642297935486,0.0,0.0,0.0338159236907959
0.9500021457672123,0.1418410986661911,0.008126418106257915,0.18882068991661072,0.22716054865304053,0.08542072714248405,0.04184815981380602,0.1418410986661911,0.008126418106257915,0.1768769164641292,0.22716054865304053,0.08542072714248405,0.004465100101163522,0.07907850655732229,-0.02629658300637061,0.02533201555285025,0.1573830246925354,-0.2433939427137375,-0.021082643419504134,0.0,-1.8751643599451393,-0.4155605778956238,12.879059707905233,0.0,0.0,0.0,0.0,0.0,0.011943773452481508,0.0,0.0,0.0373830597126425,0.0,0.0,0.0,0.0,0.0,0.0,0.0,0.0,0.0119436932373047,0.0,0.0,0.0373829040527344
1.0000021457672124,0.15173442661762238,0.012263359501957893,0.19145718216896057,0.21255787150254524,0.08975904384585631,0.061334510779019906,0.15173442661762238,0.012263359501957893,0.17755261603189837,0.21255787150254524,0.08975904384585631,0.020266992242939867,0.0933971010460426,-0.0431566307411444,0.029460312796180332,0.19493131339550018,-0.33927121758461,0.027108391746878666,0.0,-1.9394771913834359,-0.436610707960277,12.896061765811613,0.0,0.0,0.0,0.0,0.0,0.013904566137062205,0.0,0.0,0.04106751853608004,0.0,0.0,0.0,0.0,0.0,0.0,0.0,0.0,0.0139044780158996,0.0,0.0,0.0410673580169678
1.0500021457672124,0.16085153818130493,0.016532892361283302,0.19486500322818756,0.21173278003512186,0.08950930275299643,0.06441726020771164,0.16085153818130493,0.016532892361283302,0.17881266087334124,0.21173278003512186,0.08950930275299643,0.01955625534515018,0.09756054969498917,-0.06001920077062728,0.03198371210023332,0.21392737329006195,-0.3227700889110565,0.023718079552054443,0.0,-2.0228483743781323,-0.4891621695610582,13.115903964593887,0.0,0.0,0.0,0.0,0.0,0.016052342354846302,0.0,0.0,0.04486100486256146,0.0,0.0,0.0,0.0,0.0,0.0,0.0,0.0,0.01605224609375,0.0,0.0,0.04486083984375
1.1000021457672124,0.16984988749027252,0.02096892148256302,0.19857919216156006,0.2018321798526518,0.09564426151387713,0.06249574888328964,0.16984988749027252,0.02096892148256302,0.18018684696289744,0.2018321798526518,0.09564426151387713,0.013740538595953866,0.10760524196541477,-0.07296641561217054,0.03197277538329679,0.08586794883012772,-0.23407313227653503,0.05246589332818988,0.0,-1.8615800192152063,-0.4503708494242412,12.31013331504258,0.0,0.0,0.0,0.0,0.0,0.018392345198662622,0.0,0.0,0.04875521028733577,0.0,0.0,0.0,0.0,0.0,0.0,0.0,0.0,0.0183922405815124,0.0,0.0,0.0487550411224364
1.1500021457672125,0.17830148339271545,0.025316566228866577,0.20206208527088165,0.18834491305263198,0.09512031759281617,0.04586759330057026,0.17830148339271545,0.025316566228866577,0.18113267949655165,0.18834491305263198,0.09512031759281617,-0.0068743704341832634,0.10911572606688891,-0.09006739016388998,0.03195435177512351,0.05380356311798096,-0.18027931451797485,-0.0026295366697013157,0.0,-1.8464755803699051,-0.47941956857013046,12.301305648232312,0.0,0.0,0.0,0.0,0.0,0.020929405774329998,0.0,0.0,0.052741963734753525,0.0,0.0,0.0,0.0,0.0,0.0,0.0,0.0,0.0209292926025389,0.0,0.0,0.0527417907714842
1.2000021457672125,0.1860465705394745,0.02936278097331524,0.20392119884490967,0.17077583977717387,0.08020292969988758,0.007771442722956635,0.1860465705394745,0.02936278097331524,0.18025324877779736,0.17077583977717387,0.08020292969988758,-0.049041788735310204,0.11140394738750548,-0.09098681608023718,0.03566698384142786,0.10570462048053741,-0.11815331876277924,0.03868719935417177,0.0,-2.0114105161467446,-0.5329136747271452,12.692087695053985,0.0,0.0,0.0,0.0,0.0,0.023667950067112295,0.0,0.0,0.05681323145826684,0.0,0.0,0.0,0.0,0.0,0.0,0.0,0.0,0.0236678281593321,0.0,0.0,0.0568130550384519
1.2500021457672126,0.19329841434955597,0.033198993653059006,0.20467382669448853,0.15326473574523974,0.07881621313899757,0.00452818976143025,0.19329841434955597,0.033198993653059006,0.17806182088631498,0.15326473574523974,0.07881621313899757,-0.05643292727899914,0.12118068762444478,-0.09758025004642867,0.040005008387306695,-0.016333580017089844,-0.022847719490528103,0.037938136607408524,0.0,-2.055328433300355,-0.5149619696729268,13.04833825823612,0.0,0.0,0.0,0.0,0.0,0.026612005808173557,0.0,0.0,0.060961117040429384,0.0,0.0,0.0,0.0,0.0,0.0,0.0,0.0,0.0266118749999997,0.0,0.0,0.0609609374999996
1.3000021457672126,0.19944220781326294,0.036842405796051025,0.20569634437561035,0.12323405117429662,0.08127463654388557,0.023783096800027662,0.19944220781326294,0.036842405796051025,0.1759311350345773,0.12323405117429662,0.08127463654388557,-0.04139476459286877,0.11551745612998499,-0.09816894620199879,0.038276955344221264,-0.07187057286500931,1.310161314905146e-05,0.03725548833608627,0.0,-2.1138292213596177,-0.5435654172672273,13.176108003178859,0.0,0.0,0.0,0.0,0.0,0.02976520934103304,0.0,0.0,0.06517786139289643,0.0,0.0,0.0,0.0,0.0,0.0,0.0,0.0,0.0297650694847103,0.0,0.0,0.0651776790618892
1.3500021457672127,0.2040688693523407,0.040421437472105026,0.20685090124607086,0.1040066477381664,0.06794664582806352,0.032384185670953115,0.2040688693523407,0.040421437472105026,0.17372008875805056,0.1040066477381664,0.06794664582806352,-0.03707165708547163,0.10849909005151304,-0.09419942150165594,0.04044177173354235,0.002498710760846734,0.0009723291732370897,0.035293105989694595,0.0,-1.9959221774553257,-0.554216639607696,13.078603208759162,0.0,0.0,0.0,0.0,0.0,0.03313081248802029,0.0,0.0,0.06945584275642475,0.0,0.0,0.0,0.0,0.0,0.0,0.0,0.0,0.033130663452148,0.0,0.0,0.0694556579589839
1.4000021457672127,0.2080167531967163,0.04336957260966301,0.20868727564811707,0.07980000924412686,0.06559851628865108,0.045275338511144084,0.2080167531967163,0.04336957260966301,0.17197558623138684,0.07980000924412686,0.06559851628865108,-0.02851223818972866,0.10791378048971145,-0.0956950839052082,0.0399480089437203,-0.07173682004213333,0.05412530153989792,-0.010298917070031173,0.0,-1.9453995819876078,-0.5231262363868636,12.975641069564821,0.0,0.0,0.0,0.0,0.0,0.03671168941673023,0.0,0.0,0.07378757670087274,0.0,0.0,0.0,0.0,0.0,0.0,0.0,0.0,0.0367115310859675,0.0,0.0,0.0737873897552484
1.4500021457672128,0.2106800377368927,0.04569852724671364,0.21026748418807983,0.06366146338314099,0.05381752412274952,0.04611002587688204,0.2106800377368927,0.04569852724671364,0.16975714068160155,0.06366146338314099,0.05381752412274952,-0.032055690248318294,0.10759585820817108,-0.09536936119641215,0.03804938760501031,0.01914205029606819,0.03594588488340378,0.001264925347641106,0.0,-1.9560783770003138,-0.5463985975942456,13.254305175177453,0.0,0.0,0.0,0.0,0.0,0.04051034350647828,0.0,0.0,0.07816571612520033,0.0,0.0,0.0,0.0,0.0,0.0,0.0,0.0,0.0405101757812493,0.0,0.0,0.0781655273437493
1.5000021457672128,0.21228165924549103,0.04766270890831947,0.21214529871940613,0.02765598459492332,0.04989952055815456,0.064522316984445,0.21228165924549103,0.04766270890831947,0.16761638450465077,0.02765598459492332,0.04989952055815456,-0.018060734273024043,0.10924730897935309,-0.08642815018246353,0.03994640833773744,-0.024611007422208786,0.08539935201406479,0.02242794446647166,0.0,-1.854629365298899,-0.5007849350872497,12.966607666221005,0.0,0.0,0.0,0.0,0.0,0.04452891421475535,0.0,0.0,0.08258305125746904,0.0,0.0,0.0,0.0,0.0,0.0,0.0,0.0,0.044528737010955,0.0,0.0,0.0825828609466545
1.5500021457672128,0.21275077760219574,0.04948892071843147,0.2142065316438675,0.00686180667386335,0.04564833778698743,0.062221649839780985,0.21275077760219574,0.04948892071843147,0.1654373477001845,0.00686180667386335,0.04564833778698743,-0.024810859815060857,0.11183714323223315,-0.08449979206070957,0.040695138967199895,-0.04896431043744087,0.05817168951034546,0.021286344155669205,0.0,-1.7680113648866311,-0.5034069332692278,13.074469257100754,0.0,0.0,0.0,0.0,0.0,0.04876918394368298,0.0,0.0,0.08703250965484184,0.0,0.0,0.0,0.0,0.0,0.0,0.0,0.0,0.0487689971923819,0.0,0.0,0.0870323181152334
1.600002145767213,0.21225541830062866,0.050883859395980835,0.21588042378425598,-0.004377269083750046,0.03719994374207764,0.06242083131756708,0.21225541830062866,0.050883859395980835,0.16264783887778758,-0.004377269083750046,0.03719994374207764,-0.02908632488601634,0.1095791932485839,-0.07840025151147145,0.03852111837821681,-0.06382673233747482,0.12097387760877609,0.011863675899803623,0.0,-1.7619299280783025,-0.5099316443525491,13.209560443906444,0.0,0.0,0.0,0.0,0.0,0.0532325849064684,0.0,0.0,0.09150715620358342,0.0,0.0,0.0,0.0,0.0,0.0,0.0,0.0,0.0532323885536183,0.0,0.0,0.0915069637298574
1.650002145767213,0.21107159554958344,0.052042532712221146,0.21755889058113098,-0.030868993670717385,0.026766585901824267,0.06894484616045955,0.21107159554958344,0.052042532712221146,0.15963868458727135,-0.030868993670717385,0.026766585901824267,-0.027055346958600415,0.1126121725511311,-0.07331424291412869,0.04136158833346659,-0.008928436785936356,0.10703766345977783,-0.04044761508703233,0.0,-1.736619394645122,-0.4916981405718164,13.274537516813522,0.0,0.0,0.0,0.0,0.0,0.057920205993859636,0.0,0.0,0.09600019311905997,0.0,0.0,0.0,0.0,0.0,0.0,0.0,0.0,0.0579199999999988,0.0,0.0,0.0959999999999989
1.700002145767213,0.20909616351127625,0.05261172354221344,0.21980783343315125,-0.04886951693314247,0.02265354620510551,0.08028977944637726,0.20909616351127625,0.05261172354221344,0.15697503379255073,-0.04886951693314247,0.02265354620510551,-0.02021518049936194,0.10477119415008662,-0.0744058027296699,0.03557668309317297,-0.026458654552698135,0.18159717321395874,0.021678024902939776,0.0,-1.6587810186219725,-0.4657351484881218,13.252749123288227,0.0,0.0,0.0,0.0,0.0,0.06283279964060051,0.0,0.0,0.1005049599457392,0.0,0.0,0.0,0.0,0.0,0.0,0.0,0.0,0.0628325839805589,0.0,0.0,0.1005047664642322
1.750002145767213,0.20676478743553162,0.053622130304574966,0.22172172367572784,-0.0628706213400949,0.02286103513254433,0.08479504627127891,0.20676478743553162,0.053622130304574966,0.15375093498384204,-0.0628706213400949,0.02286103513254433,-0.02021988728591148,0.10545860239513427,-0.05983533388080087,0.035291257077796345,-0.05793759971857071,0.12934617698192596,-0.015078339725732819,0.0,-1.5539045149563144,-0.44548484322284054,13.12297500357004,0.0,0.0,0.0,0.0,0.0,0.0679707886918858,0.0,0.0,0.1050149335571904,0.0,0.0,0.0,0.0,0.0,0.0,0.0,0.0,0.0679705633544907,0.0,0.0,0.1050147399902331
1.800002145767213,0.20390312373638153,0.05396328866481781,0.22331225872039795,-0.07971176675629135,-0.0026045679465409167,0.09155504536171823,0.20390312373638153,0.05396328866481781,0.14997798545058164,-0.07971176675629135,-0.0026045679465409167,-0.017968682794366267,0.10989198792024979,-0.0528462931204432,0.038661039642706285,0.043068528175354004,0.11809572577476501,-0.010852430015802397,0.0,-1.7015123363718405,-0.501702439930005,13.761008475311668,0.0,0.0,0.0,0.0,0.0,0.07333427326981631,0.0,0.0,0.1095237281560845,0.0,0.0,0.0,0.0,0.0,0.0,0.0,0.0,0.0733340382575972,0.0,0.0,0.1095235347747788
1.8500021457672131,0.20100098848342896,0.05366004258394241,0.2256118357181549,-0.08967978640118277,-0.003173325720970264,0.11085499586638564,0.20100098848342896,0.05366004258394241,0.14668879807830099,-0.08967978640118277,-0.003173325720970264,-0.003170099407808241,0.10658200670855944,-0.04514607789407332,0.03617920699117061,0.004930428229272366,0.018499311059713367,0.018757857382297512,0.0,-2.0339071727385702,-0.5289755241186235,15.065834007550166,0.0,0.0,0.0,0.0,0.0,0.07892303763985391,0.0,0.0,0.11402509527419388,0.0,0.0,0.0,0.0,0.0,0.0,0.0,0.0,0.0789227929687481,0.0,0.0,0.1140249023437485
1.9000021457672132,0.1965254694223404,0.05280623957514763,0.23209799826145172,-0.09359565434389057,-0.0067667883272393425,0.18339239851773348,0.1965254694223404,0.05280623957514763,0.1473614411841751,-0.09359565434389057,-0.0067667883272393425,0.06487947474534092,0.1078905078752248,-0.04514015784087455,0.03674994183907909,-0.04132998362183571,0.04347605258226395,0.02543997019529342,0.0,-1.0559917981119171,-0.28252629876541535,11.933438026935042,0.0,0.0,0.0,0.0,0.0,0.0847365570772766,0.0,0.0,0.11851292377239256,0.0,0.0,0.0,0.0,0.0,0.0,0.0,0.0,0.0847363027763346,0.0,0.0,0.1185127315521224
1.9500021457672132,0.19296036660671234,0.052187636494636536,0.23818272352218628,-0.09415029647914988,-0.011977461544716855,0.1558617747920841,0.19296036660671234,0.052187636494636536,0.14740871878855266,-0.09415029647914988,-0.011977461544716855,0.03288053495142801,0.10220623818942087,-0.041798327876382935,0.03956642024319024,-0.08763158321380615,0.13866637647151947,-0.03834975138306619,0.0,-0.7461991776966279,-0.2043096074288324,11.00959890138763,0.0,0.0,0.0,0.0,0.0,0.09077400473363363,0.0,0.0,0.12298123984065609,0.0,0.0,0.0,0.0,0.0,0.0,0.0,0.0,0.0907737408447242,0.0,0.0,0.1229810485839827
2.0000021457672132,0.18988853693008423,0.05133408308029175,0.23984678089618683,-0.0963633156488424,-0.01993653246209902,0.029683284048027506,0.18988853693008423,0.05133408308029175,0.1428125223929862,-0.0963633156488424,-0.01993653246209902,-0.09774092295003409,0.09551552293784482,-0.031173116656326716,0.03363874747350426,-0.11023389548063278,0.21141287684440613,-8.213892579081263e-05,0.0,-1.3134617722111765,-0.33289375373578334,12.846035359550333,0.0,0.0,0.0,0.0,0.0,0.09703425850320062,0.0,0.0,0.1274242069980616,0.0,0.0,0.0,0.0,0.0,0.0,0.0,0.0,0.0970339850807164,0.0,0.0,0.1274240169525129
2.050002145767213,0.18691976368427277,0.050190579146146774,0.2388458549976349,-0.10515522645304139,-0.023852798803262593,0.014733850476359459,0.18691976368427277,0.050190579146146774,0.13532994710820034,-0.10515522645304139,-0.023852798803262593,-0.11710227561642829,0.0898552105019923,-0.030266559142794414,0.030385186984852375,-0.053255435079336166,0.11213365942239761,0.01377180870622395,0.0,-1.578499180780582,-0.3648067597886548,13.985788230050249,0.0,0.0,0.0,0.0,0.0,0.10351590788943454,0.0,0.0,0.13183612609278775,0.0,0.0,0.0,0.0,0.0,0.0,0.0,0.0,0.1035156249999972,0.0,0.0,0.1318359374999982
2.100002145767213,0.18341529369354248,0.04922717809677124,0.23764152824878693,-0.11065919063268649,-0.02087388506016203,0.05072245979550068,0.18341529369354248,0.04922717809677124,0.12742426737735815,-0.11065919063268649,-0.02087388506016203,-0.08548897550661412,0.08568657577765837,-0.023948007182712505,0.033029376908580765,-0.053334977477788925,-0.06193088740110397,-0.0167318545281887,0.0,-1.743143901157799,-0.40137930863841464,14.737452042054814,0.0,0.0,0.0,0.0,0.0,0.11021726087142877,0.0,0.0,0.1362114353021148,0.0,0.0,0.0,0.0,0.0,0.0,0.0,0.0,0.1102169685935944,0.0,0.0,0.1362112483978252
2.1500021457672127,0.1795312464237213,0.048044078052043915,0.23884806036949158,-0.11122479934387525,-0.01981133411162871,0.09017349767814009,0.1795312464237213,0.048044078052043915,0.12171170959912317,-0.11122479934387525,-0.01981133411162871,-0.05037121245428444,0.08621594780184116,-0.02525796889386145,0.032896370137883935,-0.010712243616580963,-0.10342961549758911,0.031247843056917204,0.0,-1.4596730706434136,-0.3451316603356579,13.835099729393244,0.0,0.0,0.0,0.0,0.0,0.11713635077036841,0.0,0.0,0.14054471013242453,0.0,0.0,0.0,0.0,0.0,0.0,0.0,0.0,0.1171360491943327,0.0,0.0,0.1405445251464824
2.2000021457672125,0.17594213783740997,0.047292012721300125,0.24175730347633362,-0.10127199278198065,-0.016780135400954663,0.11262632704006323,0.17594213783740997,0.047292012721300125,0.11748636036034858,-0.10127199278198065,-0.016780135400954663,-0.03220433637913714,0.08431695706927922,-0.04074973044050623,0.034073398040053604,-0.06856509298086166,-0.05651673302054405,-0.0013369701337069204,0.0,-1.3031231306008697,-0.3133632999588404,13.402018539381075,0.0,0.0,0.0,0.0,0.0,0.12427094311598504,0.0,0.0,0.14483066341920037,0.0,0.0,0.0,0.0,0.0,0.0,0.0,0.0,0.1242706323432888,0.0,0.0,0.1448304805755595
2.2500021457672124,0.17336881160736084,0.046594779938459396,0.24492725729942322,-0.0928076322982302,-0.020904020369540952,0.10896155373889886,0.17336881160736084,0.046594779938459396,0.11330871478641125,-0.0928076322982302,-0.020904020369540952,-0.04010259158812825,0.08485446272800612,-0.032409930259877484,0.03371902735036514,0.016525592654943466,0.10350301861763,-0.016338791698217406,0.0,-1.2896192550039574,-0.3132385211284189,13.208620138303793,0.0,0.0,0.0,0.0,0.0,0.13161854251301197,0.0,0.0,0.1490641453270271,0.0,0.0,0.0,0.0,0.0,0.0,0.0,0.0,0.1316182226562463,0.0,0.0,0.1490639648437479
2.300002145767212,0.17118297517299652,0.04603272303938866,0.24771791696548462,-0.09394193470321202,-0.014084956587947048,0.09771633641072183,0.17118297517299652,0.04603272303938866,0.10854151745784524,-0.09394193470321202,-0.014084956587947048,-0.05552380693886963,0.08170842383802057,-0.03170670732173608,0.03037762239383035,-0.01903402805328369,0.09029930830001831,0.001372078084386874,0.0,-1.3581610833003575,-0.3101584860196704,13.33652756630047,0.0,0.0,0.0,0.0,0.0,0.13917639950763938,0.0,0.0,0.15324014334959146,0.0,0.0,0.0,0.0,0.0,0.0,0.0,0.0,0.1391760706901511,0.0,0.0,0.1532399654388405
2.350002145767212,0.1688796579837799,0.045748282223939896,0.2503798007965088,-0.0947601680594979,-0.016272670571391566,0.08880327496813982,0.1688796579837799,0.045748282223939896,0.10343828334253957,-0.0947601680594979,-0.016272670571391566,-0.06855050734154154,0.08406570097075639,-0.028009396272425047,0.03133673308349927,0.03368448466062546,-0.01866300404071808,-0.005142841953784225,0.0,-1.3510801079364683,-0.3277078918921453,13.29068729528923,0.0,0.0,0.0,0.0,0.0,0.14694151745396922,0.0,0.0,0.15735378230968136,0.0,0.0,0.0,0.0,0.0,0.0,0.0,0.0,0.146941179809566,0.0,0.0,0.1573536071777322
2.400002145767212,0.16643373668193817,0.04529620707035065,0.25216907262802124,-0.09149649135946865,-0.01483804868274439,0.0711541374879068,0.16643373668193817,0.04529620707035065,0.0972584132475508,-0.09149649135946865,-0.01483804868274439,-0.09024618687127955,0.08707805185729356,-0.028700981123454206,0.030661865213174266,0.08376898616552353,-0.030082575976848606,-0.016763098537921902,0.0,-1.2765948052885427,-0.30262042557152685,13.145048454898413,0.0,0.0,0.0,0.0,0.0,0.15491065938047044,0.0,0.0,0.16140032435918636,0.0,0.0,0.0,0.0,0.0,0.0,0.0,0.0,0.1549103130531265,0.0,0.0,0.1614001522064186
2.4500021457672116,0.16483667492866516,0.044859450310468674,0.25336530804634094,-0.08408960860985602,-0.013912075375901136,0.05468249949937131,0.16483667492866516,0.044859450310468674,0.09028495318990695,-0.08408960860985602,-0.013912075375901136,-0.11069266947972647,0.09222527672311731,-0.027943600982850647,0.028999547004053383,0.10900775343179703,0.03723516315221786,-0.029804909601807598,0.0,-1.3341927848255488,-0.31819406918619214,13.381727737084015,0.0,0.0,0.0,0.0,0.0,0.163080354856434,0.0,0.0,0.1653751689790978,0.0,0.0,0.0,0.0,0.0,0.0,0.0,0.0,0.1630799999999951,0.0,0.0,0.1653749999999977
2.5000021457672115,0.16351556777954102,0.045023828744888306,0.2536592185497284,-0.07717630895309933,0.0011176821353792287,0.05003913422496785,0.16351556777954102,0.045023828744888306,0.08221231169130053,-0.07717630895309933,0.0011176821353792287,-0.11923471875454046,0.09643566665324421,-0.02117257240165671,0.02739508373627242,-0.01288817822933197,0.027776360511779785,-0.007195205427706245,0.0,-1.4365958452937708,-0.3402977151307635,13.732272656819095,0.0,0.0,0.0,0.0,0.0,0.17144690685842787,0.0,0.0,0.1692738529795083,0.0,0.0,0.0,0.0,0.0,0.0,0.0,0.0,0.1714465436363169,0.0,0.0,0.1692736873626685
2.5500021457672113,0.16205324232578278,0.04558264836668968,0.254028856754303,-0.07956901194820168,0.001290561700695926,0.05504742893890018,0.16205324232578278,0.04558264836668968,0.07402245811755065,-0.07956901194820168,0.001290561700695926,-0.11804462156071205,0.09499662061673453,-0.026386931129346536,0.028725793507215158,-0.000878617400303483,-0.04732542112469674,-0.028551323339343064,0.0,-1.5057122389112485,-0.40056816284641833,13.94894775389144,0.0,0.0,0.0,0.0,0.0,0.18000639863675233,0.0,0.0,0.17309205049961224,0.0,0.0,0.0,0.0,0.0,0.0,0.0,0.0,0.1800060272216743,0.0,0.0,0.173091888427732
2.600002145767211,0.16067035496234894,0.04592249542474747,0.2551760971546173,-0.06994257525494316,-0.004482612778403868,0.07598620965143478,0.16067035496234894,0.04592249542474747,0.06642139657272245,-0.06994257525494316,-0.004482612778403868,-0.10083936335627063,0.09401522334360779,-0.030751945624706956,0.02972826082346902,0.032280128449201584,-0.05901854485273361,-0.0034810132347047255,0.0,-1.5335425096102722,-0.4148652417889926,14.120834303104228,0.0,0.0,0.0,0.0,0.0,0.18875470058189486,0.0,0.0,0.1768255730077054,0.0,0.0,0.0,0.0,0.0,0.0,0.0,0.0,0.1887543211555424,0.0,0.0,0.1768254146575903
2.650002145767211,0.15947167575359344,0.04599892720580101,0.25718218088150024,-0.06839762729702181,-0.006683899180379969,0.09246430319065939,0.15947167575359344,0.04599892720580101,0.05949470379051497,-0.06839762729702181,-0.006683899180379969,-0.08800606611052593,0.09584965693806957,-0.03280269341853348,0.027855292549819666,0.11171431839466095,-0.06350456923246384,-0.006541462149471037,0.0,-1.6159899638775628,-0.41489626380637185,14.229218671931871,0.0,0.0,0.0,0.0,0.0,0.19768747709098528,0.0,0.0,0.18047036930118532,0.0,0.0,0.0,0.0,0.0,0.0,0.0,0.0,0.197687089843744,0.0,0.0,0.1804702148437476
2.7000021457672108,0.15869520604610443,0.04617341235280037,0.26120805740356445,-0.05605200839340897,0.000504153495758565,0.11636849758688644,0.15869520604610443,0.04617341235280037,0.054407863969313575,-0.05605200839340897,0.000504153495758565,-0.06765402791966446,0.1008712298334431,-0.034261736610435634,0.030475673228758993,0.0014216331765055656,0.020531883463263515,0.021686401218175885,0.0,-1.6103290465541176,-0.40797017356767185,14.150217270365902,0.0,0.0,0.0,0.0,0.0,0.20680019343425088,0.0,0.0,0.1840225255065509,0.0,0.0,0.0,0.0,0.0,0.0,0.0,0.0,0.2067997985649046,0.0,0.0,0.184022375106809
2.7500021457672106,0.15836897492408752,0.0467657707631588,0.2669296860694885,-0.04758616745564529,0.00033861931464069145,0.15858910199508963,0.15836897492408752,0.0467657707631588,0.05084156344801738,-0.04758616745564529,0.00033861931464069145,-0.028889163084313163,0.09813829928104179,-0.03330941670590715,0.02738511485261519,-0.030405357480049133,-0.008279522880911825,0.018701806664466858,0.0,-1.6456938064201656,-0.43010118115920615,13.94021984409829,0.0,0.0,0.0,0.0,0.0,0.21608812262147115,0.0,0.0,0.1874782650794028,0.0,0.0,0.0,0.0,0.0,0.0,0.0,0.0,0.2160877203369074,0.0,0.0,0.1874781188964819
2.8000021457672104,0.15769432485103607,0.046980589628219604,0.2739295959472656,-0.04385572146531309,0.0008677715712244077,0.17739518629590273,0.15769432485103607,0.046980589628219604,0.04838324367883204,-0.04385572146531309,0.0008677715712244077,-0.01343876250854037,0.10055774747850776,-0.03433018744705674,0.027899013189404798,0.025520343333482742,-0.060159787535667426,-0.04262277483940124,0.0,-1.661294268245979,-0.43107695127410495,13.686152491382437,0.0,0.0,0.0,0.0,0.0,0.2255463522684336,0.0,0.0,0.1908339488044431,0.0,0.0,0.0,0.0,0.0,0.0,0.0,0.0,0.2255459427833487,0.0,0.0,0.1908338069915747
2.8500021457672102,0.1568339318037033,0.046786800026893616,0.28127792477607727,-0.04913924974878394,-0.012549584294400451,0.1843125066375583,0.1568339318037033,0.046786800026893616,0.046108133312689314,-0.04913924974878394,-0.012549584294400451,-0.00977356815791705,0.10204626722843768,-0.04037345774875778,0.02765077552432249,0.06471168994903564,-0.12435987591743469,-0.01867786236107348,0.0,-1.6769669674558452,-0.43582586620185454,13.608327467251037,0.0,0.0,0.0,0.0,0.0,0.23516979146338796,0.0,0.0,0.19408607479547535,0.0,0.0,0.0,0.0,0.0,0.0,0.0,0.0,0.2351693749999927,0.0,0.0,0.1940859374999976
2.90000214576721,0.1556239277124405,0.04638876020908356,0.28849032521247864,-0.05058508263724547,-0.013672959663740571,0.17498815683260247,0.1556239277124405,0.04638876020908356,0.04353714757897664,-0.05058508263724547,-0.013672959663740571,-0.022243121662802623,0.10205345538037847,-0.04702628958048738,0.02800933722036092,0.029162846505641937,-0.09862423688173294,0.0015220668865367892,0.0,-1.559216102506215,-0.3693321131818368,13.358413813961622,0.0,0.0,0.0,0.0,0.0,0.244953177633502,0.0,0.0,0.1972312784954051,0.0,0.0,0.0,0.0,0.0,0.0,0.0,0.0,0.2449527544212265,0.0,0.0,0.1972311458587622
2.95000214576721,0.1545609086751938,0.045797351747751236,0.29525026679039,-0.044239248955586154,-0.021053755726058516,0.16572507748461923,0.1545609086751938,0.045797351747751236,0.04035918337907374,-0.044239248955586154,-0.021053755726058516,-0.034541255191619435,0.10529650068430207,-0.04811908072344062,0.02936699237589835,0.0698271244764328,-0.0038194840308278834,-0.029024844989180565,0.0,-1.5811112404152874,-0.3709442881416658,13.48689926244334,0.0,0.0,0.0,0.0,0.0,0.2548910834113163,0.0,0.0,0.20026633267623867,0.0,0.0,0.0,0.0,0.0,0.0,0.0,0.0,0.2548906536865155,0.0,0.0,0.200266204833982
3.0000021457672097,0.15334880352020264,0.04472648352384567,0.3009175658226013,-0.05311718738377894,-0.02254117267036674,0.14325418683300203,0.15334880352020264,0.04472648352384567,0.035939642321402565,-0.05311718738377894,-0.02254117267036674,-0.05993396060608294,0.11291803723972782,-0.05090551448582703,0.027953218702318594,0.011652537621557713,0.0023490875028073775,-0.011593637056648731,0.0,-1.6788856888788815,-0.36581535481859,13.762370956088342,0.0,0.0,0.0,0.0,0.0,0.26497792350119875,0.0,0.0,0.20318814743908498,0.0,0.0,0.0,0.0,0.0,0.0,0.0,0.0,0.2649774875068581,0.0,0.0,0.2031880245208718
3.0500021457672095,0.1517396867275238,0.04392530396580696,0.3062470555305481,-0.05415158082047889,-0.02542875331546573,0.14062897564044166,0.1517396867275238,0.04392530396580696,0.03103909398474708,-0.05415158082047889,-0.02542875331546573,-0.06536479457371189,0.10825890775080982,-0.04346135830452358,0.027836252551077578,-0.03406837210059166,0.015936527401208878,-0.012344880960881712,0.0,-1.7261020274726344,-0.3752310263349746,14.044505370100108,0.0,0.0,0.0,0.0,0.0,0.275207961545801,0.0,0.0,0.20599377021415355,0.0,0.0,0.0,0.0,0.0,0.0,0.0,0.0,0.2752075195312414,0.0,0.0,0.2059936523437477
3.1000021457672093,0.15028789639472961,0.04333514720201492,0.3105497658252716,-0.06964522829857722,-0.02350013082036344,0.1589414610045179,0.15028789639472961,0.04333514720201492,0.024974448832759233,-0.06964522829857722,-0.02350013082036344,-0.04973892475623837,0.10556060223791386,-0.04759353893214069,0.02989384206960466,-0.16166287660598755,0.014259735122323041,0.039320509880781174,0.0,-1.780794847892318,-0.3794158565499045,14.25026901984867,0.0,0.0,0.0,0.0,0.0,0.2855753169925124,0.0,0.0,0.20868038576075626,0.0,0.0,0.0,0.0,0.0,0.0,0.0,0.0,0.2855748692130953,0.0,0.0,0.2086802730560281
3.150002145767209,0.14708608388900757,0.04279765486717224,0.31739944219589233,-0.07639856234221198,-0.02343464745885372,0.1743823031055509,0.14708608388900757,0.04279765486717224,0.021325470235977306,-0.07639856234221198,-0.02343464745885372,-0.03686301306175491,0.09693152770556068,-0.04654926207551302,0.02812941897953003,-0.1785660833120346,-0.028366941958665844,0.02973909862339497,0.0,-1.756673848926035,-0.39258535434474584,14.29144517507187,0.0,0.0,0.0,0.0,0.0,0.296073971959915,0.0,0.0,0.2112453161673058,0.0,0.0,0.0,0.0,0.0,0.0,0.0,0.0,0.2960735186767485,0.0,0.0,0.2112452087402321
3.200002145767209,0.1445351094007492,0.04150209575891495,0.32414481043815613,-0.07262730642365195,-0.03719455017271145,0.1878134227478898,0.1445351094007492,0.04150209575891495,0.0174470323339162,-0.07262730642365195,-0.03719455017271145,-0.02587259810342707,0.09350765538921779,-0.04230674946452817,0.0315832788851651,-0.014189150184392929,-0.007453745231032373,-0.011886442080140112,0.0,-1.7294554439923964,-0.392349643382634,14.206327393048932,0.0,0.0,0.0,0.0,0.0,0.3066977781042399,0.0,0.0,0.21368602085131688,0.0,0.0,0.0,0.0,0.0,0.0,0.0,0.0,0.3066973195838831,0.0,0.0,0.2136859188079811
3.250002145767209,0.14147146046161652,0.03994746878743172,0.3305123448371887,-0.09035800075814866,-0.04693678398418187,0.20376542035364442,0.14147146046161652,0.03994746878743172,0.013071881351368053,-0.09035800075814866,-0.04693678398418187,-0.012234676205761269,0.09228521251058996,-0.0489476306455745,0.02838347075097225,0.034468840807676315,-0.1095830500125885,0.002584825269877924,0.0,-1.756896850441171,-0.3512764488254958,14.135790225987014,0.0,0.0,0.0,0.0,0.0,0.31744046348582067,0.0,0.0,0.2160000965594057,0.0,0.0,0.0,0.0,0.0,0.0,0.0,0.0,0.31743999999999,0.0,0.0,0.2159999999999979
3.3000021457672086,0.1358841359615326,0.03727748990058899,0.34059593081474304,-0.09524572994485331,-0.05142579285030351,0.20493056413692418,0.1358841359615326,0.03727748990058899,0.012300291379193307,-0.09524572994485331,-0.05142579285030351,-0.013254713230366005,0.09609805082579204,-0.05360597600488326,0.02937081694913246,0.02323034219443798,-0.10050220042467117,0.016308395192027106,0.0,-1.580894090656006,-0.2877287288763295,13.700306146697109,0.0,0.0,0.0,0.0,0.0,0.32829563943554974,0.0,0.0,0.21818527736729018,0.0,0.0,0.0,0.0,0.0,0.0,0.0,0.0,0.3282951712608235,0.0,0.0,0.2181851863861064
3.3500021457672085,0.13131965696811676,0.03579025715589523,0.3481869399547577,-0.10315588634217687,-0.040656057587545216,0.18883166918744235,0.13131965696811676,0.03579025715589523,0.008930132533425117,-0.10315588634217687,-0.040656057587545216,-0.031407765492347,0.08300624781761679,-0.05441424898975722,0.026922742463707294,-0.09878812730312347,0.08486446738243103,-0.013482262380421172,0.0,-1.488956705607665,-0.2491923406694672,13.519235684172974,0.0,0.0,0.0,0.0,0.0,0.3392568074213326,0.0,0.0,0.22023943467978935,0.0,0.0,0.0,0.0,0.0,0.0,0.0,0.0,0.3392563348388565,0.0,0.0,0.2202393493652325
3.4000021457672083,0.12651297450065613,0.034125812351703644,0.3542651832103729,-0.10735899244020518,-0.04615431668978561,0.14706536502888695,0.12651297450065613,0.034125812351703644,0.003947817295829326,-0.10735899244020518,-0.04615431668978561,-0.07509521220193721,0.09062644170484635,-0.04985266995671722,0.02707182787165774,-0.03157297894358635,0.13590386509895325,-0.04556198418140413,0.0,-1.4267334036147745,-0.26973262883366467,13.523792029454626,0.0,0.0,0.0,0.0,0.0,0.3503173659145436,0.0,0.0,0.22216057723082416,0.0,0.0,0.0,0.0,0.0,0.0,0.0,0.0,0.3503168892097363,0.0,0.0,0.2221604976654033
3.450002145767208,0.12165997177362442,0.031947821378707886,0.3589617908000946,-0.11606841736630408,-0.05145059617314171,0.12710758296091143,0.12165997177362442,0.031947821378707886,-0.0025088264563857265,-0.11606841736630408,-0.05145059617314171,-0.09683926812250573,0.083082440740462,-0.045997696212765504,0.026399874557211156,0.04610339179635048,0.14030568301677704,-0.041213456541299834,0.0,-1.480174908567345,-0.2643195319451369,13.912576233527986,0.0,0.0,0.0,0.0,0.0,0.36147061725648033,0.0,0.0,0.22394685108341716,0.0,0.0,0.0,0.0,0.0,0.0,0.0,0.0,0.3614701367187387,0.0,0.0,0.2239467773437483
3.500002145767208,0.11647684872150421,0.02951672300696373,0.3630150854587555,-0.12126691392249196,-0.04665545804746211,0.1218230729973114,0.11647684872150421,0.02951672300696373,-0.009694689066063855,-0.12126691392249196,-0.04665545804746211,-0.1037734666323809,0.09377987121994202,-0.04093028574547297,0.024815377796533866,0.03705809637904167,0.14614875614643097,0.008245972916483862,0.0,-1.5031808727957021,-0.25640608163331957,14.22146653330813,0.0,0.0,0.0,0.0,0.0,0.37270977452481935,0.0,0.0,0.2255965396296923,0.0,0.0,0.0,0.0,0.0,0.0,0.0,0.0,0.3727092904472236,0.0,0.0,0.2255964717864974
3.5500021457672077,0.11139016598463058,0.02783517725765705,0.36719995737075806,-0.12515456684038506,-0.03988122371026024,0.13404468686065596,0.11139016598463058,0.02783517725765705,-0.01682801102931264,-0.12515456684038506,-0.03988122371026024,-0.09306337673021925,0.0914368497693947,-0.030522110165370542,0.025416094277710854,-0.08918626606464386,0.1330356001853943,-0.005704787559807317,0.0,-1.5276421022978632,-0.2780189257340812,14.465635255650689,0.0,0.0,0.0,0.0,0.0,0.3840279684000707,0.0,0.0,0.2271080635908752,0.0,0.0,0.0,0.0,0.0,0.0,0.0,0.0,0.3840274810790895,0.0,0.0,0.2271080017089828
3.6000021457672076,0.10590081661939621,0.02628576010465622,0.3724961280822754,-0.12188918549634381,-0.03930799355789249,0.15774602127388535,0.10590081661939621,0.02628576010465622,-0.02292212594975801,-0.12188918549634381,-0.03930799355789249,-0.07073395974340746,0.0816336499130128,-0.02598493049771733,0.023735785770702122,-0.07091733068227768,0.08931834250688553,0.011779358610510816,0.0,-1.5561012066866935,-0.3094124651800642,14.638243397136838,0.0,0.0,0.0,0.0,0.0,0.3954182540320334,0.0,0.0,0.2284799810172928,0.0,0.0,0.0,0.0,0.0,0.0,0.0,0.0,0.3954177637672301,0.0,0.0,0.2284799251556383
3.6500021457672074,0.10038468986749649,0.02485603466629982,0.37877708673477173,-0.12675028219271195,-0.041603632146395245,0.1818667617027841,0.10038468986749649,0.02485603466629982,-0.02809653117147859,-0.12675028219271195,-0.041603632146395245,-0.04784422558558976,0.08730690077245962,-0.020484130398606304,0.02721138518946553,-0.07004615664482117,0.02595476061105728,0.005796358920633789,0.0,-1.579756995660019,-0.31612267306549036,14.676031520035743,0.0,0.0,0.0,0.0,0.0,0.4068736179062503,0.0,0.0,0.22971098728837386,0.0,0.0,0.0,0.0,0.0,0.0,0.0,0.0,0.4068731249999874,0.0,0.0,0.2297109374999986
3.700002145767207,0.09455246478319168,0.02359587512910366,0.38650307059288025,-0.12825470450064788,-0.039631466580133994,0.19477925824006867,0.09455246478319168,0.02359587512910366,-0.03188391411758312,-0.12825470450064788,-0.039631466580133994,-0.03602065687257994,0.08251616352446955,-0.02047667518737617,0.022746824728876902,0.02955508977174759,-0.0550655797123909,-0.021136719733476632,0.0,-1.575476445711586,-0.31254493041590736,14.616310044113376,0.0,0.0,0.0,0.0,0.0,0.41838698471046337,0.0,0.0,0.2307999151126486,0.0,0.0,0.0,0.0,0.0,0.0,0.0,0.0,0.4183864894676078,0.0,0.0,0.2307998714447011
3.750002145767207,0.08873756974935532,0.021972209215164185,0.3949356973171234,-0.12108744375572283,-0.03964967445044605,0.2178746376722077,0.08873756974935532,0.021972209215164185,-0.03501552688394488,-0.12108744375572283,-0.03964967445044605,-0.013871096855541193,0.08178681180395309,-0.023591358434234433,0.023368586363877952,0.10573422908782959,-0.07605018466711044,-0.02974407747387885,0.0,-1.5157240012095392,-0.30408896710674826,14.364538177118428,0.0,0.0,0.0,0.0,0.0,0.4299512242010683,0.0,0.0,0.23174573452774888,0.0,0.0,0.0,0.0,0.0,0.0,0.0,0.0,0.4299507269286979,0.0,0.0,0.2317456970214833
3.800002145767207,0.08291462063789368,0.020513655617833138,0.4041946828365326,-0.12081245212058807,-0.033266008989806445,0.22396525118357924,0.08291462063789368,0.020513655617833138,-0.037364475233037486,-0.12081245212058807,-0.033266008989806445,-0.008582301716828972,0.08606013195447426,-0.036307199855851735,0.01818929242581646,0.011637864634394646,-0.06499819457530975,-0.00746103283017873,0.0,-1.3969496693432406,-0.26808220017782647,13.903655498383447,0.0,0.0,0.0,0.0,0.0,0.4415591580695701,0.0,0.0,0.2325475529004082,0.0,0.0,0.0,0.0,0.0,0.0,0.0,0.0,0.4415586590766772,0.0,0.0,0.2325475215911857
3.8500021457672067,0.07769623398780823,0.02004123292863369,0.4124014973640442,-0.1109247604526121,-0.018346414884465218,0.20535491951789872,0.07769623398780823,0.02004123292863369,-0.040802069444994093,-0.1109247604526121,-0.018346414884465218,-0.027849695408562553,0.08823812540890019,-0.031024275188280992,0.02291532169132182,-0.05167638882994652,0.025578042492270466,-0.016701176762580875,0.0,-1.2819969037133265,-0.25862018075314097,13.656899968880614,0.0,0.0,0.0,0.0,0.0,0.4532035668090383,0.0,0.0,0.23320461492646127,0.0,0.0,0.0,0.0,0.0,0.0,0.0,0.0,0.4532030664062363,0.0,0.0,0.2332045898437493
3.9000021457672065,0.07306578010320663,0.019589172676205635,0.41996273398399353,-0.09934250215169456,-0.021689732681282842,0.16753836748728124,0.07306578010320663,0.019589172676205635,-0.04491446259656762,-0.09934250215169456,-0.021689732681282842,-0.06617793514356346,0.08763326106133196,-0.025701881060705034,0.023694724882195928,0.04000404104590416,0.10272251814603806,-0.021671786904335036,0.0,-1.3395835327723677,-0.31202949440862643,13.875694825720233,0.0,0.0,0.0,0.0,0.0,0.46487719658056115,0.0,0.0,0.2337163026308447,0.0,0.0,0.0,0.0,0.0,0.0,0.0,0.0,0.4648766950797894,0.0,0.0,0.2337162837982173
3.9500021457672063,0.06864732503890991,0.018865039572119713,0.4262697696685791,-0.10074168364918872,-0.024400467127351864,0.15962226747112876,0.06864732503890991,0.018865039572119713,-0.050302996411122514,-0.10074168364918872,-0.024400467127351864,-0.07445986789646761,0.0877082320863436,-0.01976198583719091,0.018488880369621263,0.08368342369794846,0.10629422217607498,-0.012839076109230532,0.0,-1.4319127072024878,-0.31424596289079343,14.211324129342856,0.0,0.0,0.0,0.0,0.0,0.4765727660797016,0.0,0.0,0.23408213536759637,0.0,0.0,0.0,0.0,0.0,0.0,0.0,0.0,0.4765722637939311,0.0,0.0,0.234082122802734
4.000002145767207,0.0644531324505806,0.01815442554652691,0.432576984167099,-0.09238992211267383,-0.018662695758044887,0.16728381562046496,0.0644531324505806,0.01815442554652691,-0.055705989235852904,-0.09238992211267383,-0.018662695758044887,-0.06701795419939122,0.09443997287029449,-0.01891365342035023,0.019607856509126442,0.0777394101023674,0.05627059936523437,-0.03992323204874993,0.0,-1.4579993377113754,-0.3144100366663049,14.4182781125802,0.0,0.0,0.0,0.0,0.0,0.4882829734029519,0.0,0.0,0.23430176981985618,0.0,0.0,0.0,0.0,0.0,0.0,0.0,0.0,0.4882824706458902,0.0,0.0,0.2343017635345457
4.050002145767206,0.060386016964912415,0.017879264429211617,0.43947017192840576,-0.08884146308139367,-0.012466276045146494,0.1806290925285256,0.060386016964912415,0.017879264429211617,-0.06053033098578342,-0.08884146308139367,-0.012466276045146494,-0.05374590747133959,0.09357384475571306,-0.016373592145363602,0.015558487660614517,0.04684107005596161,0.027841871604323387,-0.008747810497879985,0.0,-1.610339281666663,-0.3657733294005042,14.809656931541276,0.0,0.0,0.0,0.0,0.0,0.5000005029141892,0.0,0.0,0.2343749999998652,0.0,0.0,0.0,0.0,0.0,0.0,0.0,0.0,0.4999999999999852,0.0,0.0,0.234375
4.100002145767206,0.056410156190395355,0.017815126106142998,0.4475826621055603,-0.07814143054331361,0.001107951039862812,0.21532819097792225,0.056410156190395355,0.017815126106142998,-0.0641353700055689,-0.07814143054331361,0.001107951039862812,-0.01897356627104374,0.09842149613152351,-0.014684432043528872,0.0174554111736116,-0.0015751660102978349,-0.036549270153045654,-0.0022023934870958285,0.0,-1.6576714994530466,-0.3971971702022,14.905527753784014,0.0,0.0,0.0,0.0,0.0,0.5117180321111292,0.0,0.0,0.23430175724896599,0.0,0.0,0.0,0.0,0.0,0.0,0.0,0.0,0.5117175293540807,0.0,0.0,0.234301763534546
4.150002145767206,0.05250829830765724,0.01794135943055153,0.4572761058807373,-0.082566665210345,-0.00978719147879705,0.23725493621961088,0.05250829830765724,0.01794135943055153,-0.06615213261104635,-0.082566665210345,-0.00978719147879705,0.003172825982007771,0.09559109545700561,-0.01928413897623127,0.015419713641637856,0.007329465355724096,-0.06493429839611053,0.0069905738346278746,0.0,-1.6858513024157813,-0.4420392350990389,14.730499475985813,0.0,0.0,0.0,0.0,0.0,0.5234282384917837,0.0,0.0,0.2340821102376031,0.0,0.0,0.0,0.0,0.0,0.0,0.0,0.0,0.5234277362060393,0.0,0.0,0.2340821228027347
4.200002145767206,0.04860199987888336,0.01797996275126934,0.4683872163295746,-0.07654968828975779,-0.00560332012757452,0.26483280027326767,0.04860199987888336,0.01797996275126934,-0.06673659009133892,-0.07654968828975779,-0.00560332012757452,0.031116535307945448,0.0928243683243064,-0.0219490515395524,0.01551680427989588,0.075210802257061,-0.14285209774971008,-0.04202613607048986,0.0,-1.6463327118065152,-0.40502239329535844,14.498975481678004,0.0,0.0,0.0,0.0,0.0,0.5351238064209135,0.0,0.0,0.23371626496532222,0.0,0.0,0.0,0.0,0.0,0.0,0.0,0.0,0.535123304920181,0.0,0.0,0.2337162837982183
4.250002145767206,0.044838786125183105,0.017641695216298103,0.4804743230342865,-0.06585549296098234,-0.0008580118341905321,0.2681661942535715,0.044838786125183105,0.017641695216298103,-0.06632311096219778,-0.06585549296098234,-0.0008580118341905321,0.03496162949280068,0.09689368725408976,-0.029712526336359346,0.016210185371067,0.08395806699991226,-0.09979929774999619,-0.0335920713841915,0.0,-1.5418321524343472,-0.39032707514897147,14.01662426356206,0.0,0.0,0.0,0.0,0.0,0.5467974339964843,0.0,0.0,0.23320456476077084,0.0,0.0,0.0,0.0,0.0,0.0,0.0,0.0,0.5467969335937344,0.0,0.0,0.2332045898437509
4.3000021457672055,0.04123686999082565,0.017297059297561646,0.49246707558631897,-0.06524426953182394,-0.0006289156609843736,0.26885237682932384,0.04123686999082565,0.017297059297561646,-0.06597476432980232,-0.06524426953182394,-0.0006289156609843736,0.03630488654762554,0.10257186380824912,-0.03194884007158194,0.015294354916580488,0.03363026678562164,-0.06725511699914932,-0.039254631847143166,0.0,-1.4673148735144614,-0.37842809190289367,13.721592378269557,0.0,0.0,0.0,0.0,0.0,0.5584418399161213,0.0,0.0,0.2325474902816983,0.0,0.0,0.0,0.0,0.0,0.0,0.0,0.0,0.5584413409232933,0.0,0.0,0.2325475215911875
4.350002145767205,0.03795067220926285,0.016871463507413864,0.5034512281417847,-0.061105501560891486,-0.0005145271645857704,0.23840621663118086,0.03795067220926285,0.016871463507413864,-0.06659854220178096,-0.061105501560891486,-0.0005145271645857704,0.0066605571162263455,0.10578153539893265,-0.03343907112804345,0.01346090367367836,-0.0017437515780329704,-0.0021901358850300325,-0.011302025988698006,0.0,-1.4763994755658332,-0.3824190365711318,13.810836458210572,0.0,0.0,0.0,0.0,0.0,0.5700497703435656,0.0,0.0,0.23174565951495452,0.0,0.0,0.0,0.0,0.0,0.0,0.0,0.0,0.570049273071273,0.0,0.0,0.2317456970214855
4.400002145767205,0.03468484804034233,0.016801005229353905,0.5135207772254944,-0.059010303605312474,0.0007802084298886441,0.228795460223246,0.03468484804034233,0.016801005229353905,-0.06809322854963284,-0.059010303605312474,0.0007802084298886441,-0.002004367553246039,0.09844778628867923,-0.033929974753078795,0.011392426959952573,-0.05250401794910431,-0.03369022905826569,-0.031871873885393136,0.0,-1.612136455953277,-0.41200157496672063,14.2981112736008,0.0,0.0,0.0,0.0,0.0,0.5816140057751272,0.0,0.0,0.23079982777649205,0.0,0.0,0.0,0.0,0.0,0.0,0.0,0.0,0.5816135105323627,0.0,0.0,0.2307998714447034
4.450002145767205,0.030989840626716614,0.016180358827114105,0.5230545401573181,-0.07284460152869734,-0.010202674997239196,0.21933101598010918,0.030989840626716614,0.016180358827114105,-0.07007282774882495,-0.07284460152869734,-0.010202674997239196,-0.010379871731255208,0.10411166459980636,-0.03686830344655512,0.01171070533787777,0.011289866641163826,-0.0708027333021164,-0.01972071081399917,0.0,-1.6085284594064835,-0.41413125508693616,14.323754410426302,0.0,0.0,0.0,0.0,0.0,0.5931273679061431,0.0,0.0,0.2297108877113644,0.0,0.0,0.0,0.0,0.0,0.0,0.0,0.0,0.5931268749999838,0.0,0.0,0.2297109375000015
4.500002145767205,0.02683585323393345,0.014990142546594143,0.5326747298240662,-0.06916819004657641,-0.010624957121504724,0.2173850429136722,0.02683585323393345,0.014990142546594143,-0.071907996673362,-0.06916819004657641,-0.010624957121504724,-0.011094826380054573,0.11380360983237603,-0.04170362312129594,0.016078002036721273,0.04008142650127411,-0.017865635454654694,-0.0013092348817735889,0.0,-1.6252970692014126,-0.39554336309709903,14.5703223696141,0.0,0.0,0.0,0.0,0.0,0.6045827264974282,0.0,0.0,0.22847986929372677,0.0,0.0,0.0,0.0,0.0,0.0,0.0,0.0,0.6045822362327409,0.0,0.0,0.2284799251556414
4.550002145767205,0.023309916257858276,0.014382798224687576,0.5426074266433716,-0.06342967035890011,-0.0031677179252303277,0.22926449760703144,0.023309916257858276,0.014382798224687576,-0.07336557959836254,-0.06342967035890011,-0.0031677179252303277,0.002156557780194912,0.09959821843702743,-0.044115494174202574,0.011240796285870047,-0.06959286332130432,0.037834491580724716,0.017006648704409596,0.0,-1.659076737905639,-0.3982296642783154,14.64101835836619,0.0,0.0,0.0,0.0,0.0,0.6159730062417341,0.0,0.0,0.22710793982683652,0.0,0.0,0.0,0.0,0.0,0.0,0.0,0.0,0.6159725189208816,0.0,0.0,0.2271080017089864
4.6000021457672045,0.01925898715853691,0.013835256919264793,0.5532678365707397,-0.07277448128924123,-0.013453383574424526,0.24890789017698184,0.01925898715853691,0.013835256919264793,-0.07402335705946306,-0.07277448128924123,-0.013453383574424526,0.023311486233930534,0.0984560591883139,-0.036816058915348115,0.008430365170109866,-0.03284076973795891,-0.005510564893484118,-0.02105697989463806,0.0,-1.6951244622549804,-0.42637827413097273,14.625222971888228,0.0,0.0,0.0,0.0,0.0,0.6272911936302028,0.0,0.0,0.2255964039430513,0.0,0.0,0.0,0.0,0.0,0.0,0.0,0.0,0.627290709552748,0.0,0.0,0.2255964717865014
4.650002145767204,0.015049339272081852,0.012776428833603859,0.5648313760757446,-0.0731866280783469,-0.014384359873802615,0.26366107523076726,0.015049339272081852,0.012776428833603859,-0.0736989677430766,-0.0731866280783469,-0.014384359873802615,0.03971437162693592,0.08933293671525488,-0.04100033466681907,0.009208421879030482,-0.01854981668293476,0.006089779548346996,0.0011913292109966272,0.0,-1.7265306192308123,-0.41119128126849996,14.6501083157568,0.0,0.0,0.0,0.0,0.0,0.6385303438188212,0.0,0.0,0.22394670360383134,0.0,0.0,0.0,0.0,0.0,0.0,0.0,0.0,0.6385298632812328,0.0,0.0,0.2239467773437529
4.700002145767204,0.010412718169391155,0.011718648485839367,0.5774884819984436,-0.07111682589836583,-0.009518233597261333,0.28464947949388636,0.010412718169391155,0.011718648485839367,-0.07219510549643371,-0.07111682589836583,-0.009518233597261333,0.062489061394148504,0.10453137185205819,-0.037960719230293094,0.013092337408640908,-0.0356270894408226,0.0010589500889182097,0.005688421428203583,0.0,-1.6410363499089886,-0.38608622865170616,14.31927933985995,0.0,0.0,0.0,0.0,0.0,0.6496835874948773,0.0,0.0,0.22216041809973786,0.0,0.0,0.0,0.0,0.0,0.0,0.0,0.0,0.6496831107902354,0.0,0.0,0.2221604976654082
4.750002145767204,0.005920233204960823,0.010924430564045906,0.5898005366325378,-0.06953739142618484,-0.018686635081103596,0.2840836556586586,0.005920233204960823,0.010924430564045906,-0.07094360111087628,-0.06953739142618484,-0.018686635081103596,0.06384439160822386,0.09376576228418099,-0.04058832475318175,0.007850508256010968,0.023208100348711014,0.012329686433076855,-0.030384238809347153,0.0,-1.5531008244040128,-0.37799293883910745,14.003225487354891,0.0,0.0,0.0,0.0,0.0,0.6607441377434141,0.0,0.0,0.22023926405043476,0.0,0.0,0.0,0.0,0.0,0.0,0.0,0.0,0.6607436651611158,0.0,0.0,0.2202393493652374
4.800002145767204,0.0014621553709730506,0.00987897627055645,0.6021129488945007,-0.06926039981306543,-0.017215790606898783,0.2777904850001708,0.0014621553709730506,0.00987897627055645,-0.06959234801918535,-0.06926039981306543,-0.017215790606898783,0.05960538959548528,0.09169462098396819,-0.03643237556854384,0.0033050139208530283,-0.02944251522421837,0.020059332251548764,-0.029678437858819965,0.0,-1.5853742051129414,-0.35772825736521,14.185640905534015,0.0,0.0,0.0,0.0,0.0,0.6717052969136861,0.0,0.0,0.2181850954046855,0.0,0.0,0.0,0.0,0.0,0.0,0.0,0.0,0.6717048287391487,0.0,0.0,0.2181851863861117
4.850002145767204,-0.0032459625508636236,0.008918354287743568,0.6139118671417236,-0.07427853537895793,-0.018599061951752455,0.268896636457743,-0.0032459625508636236,0.008918354287743568,-0.06864859634388876,-0.07427853537895793,-0.018599061951752455,0.05289673301738568,0.09113994390848035,-0.034280473995246474,0.006086856229984505,-0.020590664818882942,-0.006102640181779866,-0.032400865107774734,0.0,-1.607935850238533,-0.36680176859578295,14.32905665929966,0.0,0.0,0.0,0.0,0.0,0.6825604634856124,0.0,0.0,0.2159999034403573,0.0,0.0,0.0,0.0,0.0,0.0,0.0,0.0,0.6825599999999824,0.0,0.0,0.2160000000000038
4.900002145767203,-0.008222421631217003,0.008019660599529743,0.6255266666412354,-0.07625069485996552,-0.020900734524445783,0.2686936520735207,-0.008222421631217003,0.008019660599529743,-0.06777647229499872,-0.07625069485996552,-0.020900734524445783,0.05500783530910347,0.0926225677420045,-0.03577438852396675,0.007712894196900244,-0.0208358783274889,0.016612529754638672,-0.007918529212474825,0.0,-1.4854920911739113,-0.3336633729078379,14.076047054079998,0.0,0.0,0.0,0.0,0.0,0.6933031389362341,0.0,0.0,0.21368581676441722,0.0,0.0,0.0,0.0,0.0,0.0,0.0,0.0,0.6933026804160896,0.0,0.0,0.213685918807987
4.950002145767203,-0.013043418526649475,0.007268207613378763,0.6367225050926208,-0.07539776667134133,-0.016906654197348457,0.2549610460485795,-0.013043418526649475,0.007268207613378763,-0.06720442951354655,-0.07539776667134133,-0.016906654197348457,0.043715944735644774,0.09134733211361068,-0.03330632400637645,0.0032225568176844632,-0.06559587270021439,0.03384201601147652,0.0024456542450934605,0.0,-1.4463536086510658,-0.3181811239698007,14.023783632187413,0.0,0.0,0.0,0.0,0.0,0.7039269346061674,0.0,0.0,0.21124510131293472,0.0,0.0,0.0,0.0,0.0,0.0,0.0,0.0,0.7039264813232243,0.0,0.0,0.2112452087402385
5.000002145767203,-0.017845693975687027,0.006693087983876467,0.6469881534576416,-0.08314595753629472,-0.022452029469692856,0.23737912289053278,-0.017845693975687027,0.006693087983876467,-0.06743742510841899,-0.08314595753629472,-0.022452029469692856,0.028698962539452283,0.0890165235221847,-0.028807894209801788,0.003572935128014265,-0.046995483338832855,0.04035254195332527,0.01080060470849275,0.0,-1.527088867195643,-0.3492613608827738,14.286616932195756,0.0,0.0,0.0,0.0,0.0,0.7144255785660606,0.0,0.0,0.2086801603510805,0.0,0.0,0.0,0.0,0.0,0.0,0.0,0.0,0.7144251307868786,0.0,0.0,0.2086802730560347
